T,input Acc,input Wb1,input Wb2,input Wb3,Px,Py,Pz,Vx,Vy,Vz,Roll,Pitch,Yaw,R_rate,P_rate,Y_rate,Wb1,Wb2,Wb3
7.462501525878906e-05,0.0,0.0,0.0,0.0,0.0,0.0,0.2,0.0,0.0,0.0,0.0,0.0,0.0,0.0,0.0,0.0,0.0,0.0,0.0
0.011461257934570312,10.994790582904436,-1.212274218417144,-0.2578956956181271,0.905634198118968,0.0,0.0,0.2,0.0,0.0,0.0,0.0,0.0,0.0,0.0,0.0,0.0,0.0,0.0,0.0
0.02144002914428711,4.9,-12.08195718256609,-11.325161553003488,1.4193356895363614,0.0,0.0,0.2,0.0,0.0,0.0,0.0,0.0,0.0,0.0,0.0,0.0,0.0,0.0,0.0
0.03166532516479492,4.9,-18.439101257711396,-17.79930166481601,1.7179784070831445,0.0,0.0,0.2,0.0,0.0,0.0,0.0,0.0,0.0,0.0,0.0,0.0,0.0,0.0,0.0
0.041985273361206055,4.9,-30.868205963734844,-30.45593846974882,2.305694601213682,0.0,0.0,0.2,0.0,0.0,0.0,0.0,0.0,0.0,0.0,0.0,0.0,0.0,0.0,0.0
0.052057743072509766,4.9,-37.293743425825916,-37.00240738732326,2.6139929231218955,0.0,0.0,0.2,0.0,0.0,0.0,0.0,0.0,0.0,0.0,0.0,0.0,0.0,0.0,0.0
0.062108516693115234,4.9,-38.446735198605026,-38.1685471703183,2.670906788358884,0.0,0.0,0.2,0.0,0.0,0.0,0.0,0.0,0.0,0.0,0.0,0.0,0.0,0.0,0.0
0.07242298126220703,4.9,-40.166658501301,-39.922258033748996,2.74672432454036,0.0,0.0,0.2,0.0,0.0,0.0,0.0,0.0,0.0,0.0,0.0,0.0,0.0,0.0,0.0
0.08239269256591797,4.9,-60.49051000645648,-60.621417406185586,3.7157725647299467,0.0,0.0,0.2,0.0,0.0,0.0,0.0,0.0,0.0,0.0,0.0,0.0,0.0,0.0,0.0
0.09252238273620605,4.9,-53.378488045128066,-53.38472618450632,3.3661225209814982,0.0,0.0,0.2,0.0,0.0,0.0,0.0,0.0,0.0,0.0,0.0,0.0,0.0,0.0,0.0
0.10268187522888184,4.9,-59.65593706411054,-59.76735733479467,3.674181392207275,0.0,0.0,0.2,0.0,0.0,0.0,0.0,0.0,0.0,0.0,0.0,0.0,0.0,0.0,0.0
0.1126401424407959,4.9,-69.44157977490354,-69.74358965000668,4.14984230881451,0.0,0.0,0.2,0.0,0.0,0.0,0.0,0.0,0.0,0.0,0.0,0.0,0.0,0.0,0.0
0.12274479866027832,4.9,-57.20142513664929,-57.260703186409735,3.569792834612256,0.0,0.0,0.2,0.0,0.0,0.0,0.0,0.0,0.0,0.0,0.0,0.0,0.0,0.0,0.0
0.13354706764221191,4.9,-59.61514604266808,-59.71978526046421,3.684918300550375,0.0,0.0,0.2,0.0,0.0,0.0,0.0,0.0,0.0,0.0,0.0,0.0,0.0,0.0,0.0
0.14342236518859863,4.9,-101.09779449770421,-101.97240070130256,5.6470347631796685,0.0,0.0,0.2,0.0,0.0,0.0,0.0,0.0,0.0,0.0,0.0,0.0,0.0,0.0,0.0
0.15356898307800293,4.9,-67.5636025104058,-67.81190150794309,4.0526954092034995,0.0,0.0,0.2,0.0,0.0,0.0,0.0,0.0,0.0,0.0,0.0,0.0,0.0,0.0,0.0
0.1638469696044922,4.9,-73.89122860770794,-74.25747247578828,4.35645759001372,0.0,0.0,0.2,0.0,0.0,0.0,0.0,0.0,0.0,0.0,0.0,0.0,0.0,0.0,0.0
0.17395615577697754,4.9,-99.539314839814,-100.37286232211402,5.553619352177129,0.0,0.0,0.2,0.0,0.0,0.0,0.0,0.0,0.0,0.0,0.0,0.0,0.0,0.0,0.0
0.18413448333740234,4.9,-91.14694997488364,-91.822443046698,5.1776442502185445,0.0,0.0,0.2,0.0,0.0,0.0,0.0,0.0,0.0,0.0,0.0,0.0,0.0,0.0,0.0
0.19425368309020996,4.9,-99.14098738000126,-99.95977751319641,5.55696421482324,0.0,0.0,0.2,0.0,0.0,0.0,0.0,0.0,0.0,0.0,0.0,0.0,0.0,0.0,0.0
0.2044079303741455,4.9,-101.60491578539336,-102.46372300015179,5.663399870391208,0.0,0.0,0.2,0.0,0.0,0.0,0.0,0.0,0.0,0.0,0.0,0.0,0.0,0.0,0.0
0.21465659141540527,4.9,-110.66088131154088,-111.69280385314123,6.085580533857981,0.0,0.0,0.2,0.0,0.0,0.0,0.0,0.0,0.0,0.0,0.0,0.0,0.0,0.0,0.0
0.22485733032226562,4.9,-118.88934116595127,-120.08593289954044,6.502887152474509,0.0,0.0,0.2,0.0,0.0,0.0,0.0,0.0,0.0,0.0,0.0,0.0,0.0,0.0,0.0
0.23501253128051758,4.9,-104.55515717080503,-105.47373918174765,5.793476364590397,0.0,0.0,0.2,0.0,0.0,0.0,0.0,0.0,0.0,0.0,0.0,0.0,0.0,0.0,0.0
0.24503326416015625,4.9,-112.14243944605487,-113.20144655123359,6.1857959530537325,0.0,0.0,0.2,0.0,0.0,0.0,0.0,0.0,0.0,0.0,0.0,0.0,0.0,0.0,0.0
0.25531721115112305,4.9,-98.17657909630053,-98.96298676648837,5.529805366355092,0.0,0.0,0.2,0.0,0.0,0.0,0.0,0.0,0.0,0.0,0.0,0.0,0.0,0.0,0.0
0.26537227630615234,4.9,-125.40268921807636,-126.71557355930666,6.800499820543228,0.0,0.0,0.2,0.0,0.0,0.0,0.0,0.0,0.0,0.0,0.0,0.0,0.0,0.0,0.0
0.27548646926879883,4.9,-116.08401565419463,-117.20034750058468,6.384080174455487,0.0,0.0,0.2,0.0,0.0,0.0,0.0,0.0,0.0,0.0,0.0,0.0,0.0,0.0,0.0
0.2859501838684082,4.9,-99.27909077897876,-100.08842862304108,5.583389617730402,0.0,0.0,0.2,0.0,0.0,0.0,0.0,0.0,0.0,0.0,0.0,0.0,0.0,0.0,0.0
0.29581594467163086,4.9,-147.0719233250438,-148.76360963986298,7.810909220943614,0.0,0.0,0.2,0.0,0.0,0.0,0.0,0.0,0.0,0.0,0.0,0.0,0.0,0.0,0.0
0.3068361282348633,4.9,-100.77203158120791,-101.5953991666996,5.664303754582672,0.0,0.0,0.2,0.0,0.0,0.0,0.0,0.0,0.0,0.0,0.0,0.0,0.0,0.0,0.0
0.3165931701660156,4.9,-311.95333288671617,-316.75774732014355,15.569786056542203,0.0,0.0,0.2,0.0,0.0,0.0,0.0,0.0,0.0,0.0,0.0,0.0,0.0,0.0,0.0
0.3267064094543457,4.9,-116.41361775282583,-117.50906619065721,6.398124137785148,0.0,0.0,0.2,0.0,0.0,0.0,0.0,0.0,0.0,0.0,0.0,0.0,0.0,0.0,0.0
0.33683061599731445,4.9,-116.05701778871601,-117.1547066691829,6.388566115330196,0.0,0.0,0.2,0.0,0.0,0.0,0.0,0.0,0.0,0.0,0.0,0.0,0.0,0.0,0.0
0.3469693660736084,4.9,-108.77041356861614,-109.73746067601445,6.043414963124349,0.0,0.0,0.2,0.0,0.0,0.0,0.0,0.0,0.0,0.0,0.0,0.0,0.0,0.0,0.0
0.35745716094970703,4.9,-111.49596482871496,-112.52025348561139,6.181160327281993,0.0,0.0,0.2,0.0,0.0,0.0,0.0,0.0,0.0,0.0,0.0,0.0,0.0,0.0,0.0
0.3672053813934326,4.9,-167.47996840102604,-169.51871377896444,8.822082356551547,0.0,0.0,0.2,0.0,0.0,0.0,0.0,0.0,0.0,0.0,0.0,0.0,0.0,0.0,0.0
0.37735676765441895,4.9,-98.88653231260737,-99.65590413337426,5.583203076627689,0.0,0.0,0.2,0.0,0.0,0.0,0.0,0.0,0.0,0.0,0.0,0.0,0.0,0.0,0.0
0.3877737522125244,4.9,-95.38069372486086,-96.06970276072965,5.442831663475146,0.0,0.0,0.2,0.0,0.0,0.0,0.0,0.0,0.0,0.0,0.0,0.0,0.0,0.0,0.0
0.39807963371276855,4.9,-130.8539053468007,-132.19999987406976,7.089334631431689,0.0,0.0,0.2,0.0,0.0,0.0,0.0,0.0,0.0,0.0,0.0,0.0,0.0,0.0,0.0
0.40819549560546875,4.9,-167.8020505382899,-169.84801362398287,8.825795219189088,0.0,0.0,0.2,0.0,0.0,0.0,0.0,0.0,0.0,0.0,0.0,0.0,0.0,0.0,0.0
0.4181993007659912,4.9,-125.9390715692958,-127.19487602431802,6.8833610159685374,0.0,0.0,0.2,0.0,0.0,0.0,0.0,0.0,0.0,0.0,0.0,0.0,0.0,0.0,0.0
0.42833828926086426,4.9,-95.63081201445777,-96.32349842387387,5.439844827561343,0.0,0.0,0.2,0.0,0.0,0.0,0.0,0.0,0.0,0.0,0.0,0.0,0.0,0.0,0.0
0.4387490749359131,4.9,-89.48293861108074,-90.05396447295584,5.1619028437346826,0.0,0.0,0.2,0.0,0.0,0.0,0.0,0.0,0.0,0.0,0.0,0.0,0.0,0.0,0.0
0.4488868713378906,4.9,-120.91680121516154,-122.06400466899342,6.649063268688844,0.0,0.0,0.2,0.0,0.0,0.0,0.0,0.0,0.0,0.0,0.0,0.0,0.0,0.0,0.0
0.45931196212768555,4.9,-112.43674505173438,-113.42293623637765,6.250175098765902,0.0,0.0,0.2,0.0,0.0,0.0,0.0,0.0,0.0,0.0,0.0,0.0,0.0,0.0,0.0
0.4693474769592285,4.9,-116.27521946014323,-117.3275274083848,6.428065074770977,0.0,0.0,0.2,0.0,0.0,0.0,0.0,0.0,0.0,0.0,0.0,0.0,0.0,0.0,0.0
0.47968626022338867,4.9,-102.48284122873308,-103.28534211941495,5.779911873608444,0.0,0.0,0.2,0.0,0.0,0.0,0.0,0.0,0.0,0.0,0.0,0.0,0.0,0.0,0.0
0.48975157737731934,4.9,-117.63290307670012,-118.72008091051153,6.497749900347252,0.0,0.0,0.2,0.0,0.0,0.0,0.0,0.0,0.0,0.0,0.0,0.0,0.0,0.0,0.0
0.49988508224487305,4.9,-99.63293251225849,-100.36804797032093,5.65043606881394,0.0,0.0,0.2,0.0,0.0,0.0,0.0,0.0,0.0,0.0,0.0,0.0,0.0,0.0,0.0
0.5103075504302979,4.9,-88.47190615033456,-88.98846194870399,5.135310148126853,0.0,0.0,0.2,0.0,0.0,0.0,0.0,0.0,0.0,0.0,0.0,0.0,0.0,0.0,0.0
0.5202875137329102,4.9,-114.63170506574573,-115.64276695759597,6.357517402286756,0.0,0.0,0.2,0.0,0.0,0.0,0.0,0.0,0.0,0.0,0.0,0.0,0.0,0.0,0.0
0.5307278633117676,4.9,-86.6496414918293,-87.13185454419121,5.048511558042691,0.0,0.0,0.2,0.0,0.0,0.0,0.0,0.0,0.0,0.0,0.0,0.0,0.0,0.0,0.0
0.5408575534820557,4.9,-111.95823320349307,-112.91022471824675,6.243669494797969,0.0,0.0,0.2,0.0,0.0,0.0,0.0,0.0,0.0,0.0,0.0,0.0,0.0,0.0,0.0
0.5510485172271729,4.9,-105.49479368951957,-106.34466111072607,5.937898801916777,0.0,0.0,0.2,0.0,0.0,0.0,0.0,0.0,0.0,0.0,0.0,0.0,0.0,0.0,0.0
0.5610570907592773,4.9,-103.7070013931691,-104.50060448657509,5.87937460135328,0.0,0.0,0.2,0.0,0.0,0.0,0.0,0.0,0.0,0.0,0.0,0.0,0.0,0.0,0.0
0.5711126327514648,4.9,-79.48590028570055,-79.82267896670858,4.726197033338057,0.0,0.0,0.2,0.0,0.0,0.0,0.0,0.0,0.0,0.0,0.0,0.0,0.0,0.0,0.0
0.5819683074951172,4.9,-71.66941293528058,-71.84811383135313,4.357614254112394,0.0,0.0,0.2,0.0,0.0,0.0,0.0,0.0,0.0,0.0,0.0,0.0,0.0,0.0,0.0
0.5917356014251709,4.9,-165.61688543498357,-167.57573276930583,8.789519333344199,0.0,0.0,0.2,0.0,0.0,0.0,0.0,0.0,0.0,0.0,0.0,0.0,0.0,0.0,0.0
0.6019349098205566,4.9,-89.58846344572275,-90.09244986831578,5.212330150709904,0.0,0.0,0.2,0.0,0.0,0.0,0.0,0.0,0.0,0.0,0.0,0.0,0.0,0.0,0.0
0.6126751899719238,4.9,-90.41434342134744,-90.94598802645059,5.24242845372427,0.0,0.0,0.2,0.0,0.0,0.0,0.0,0.0,0.0,0.0,0.0,0.0,0.0,0.0,0.0
0.62233567237854,4.9,-142.23881408539805,-143.73786821461064,7.686817838173297,0.0,0.0,0.2,0.0,0.0,0.0,0.0,0.0,0.0,0.0,0.0,0.0,0.0,0.0,0.0
0.6328155994415283,4.9,-73.14278110923603,-73.33716716854492,4.434898523918919,0.0,0.0,0.2,0.0,0.0,0.0,0.0,0.0,0.0,0.0,0.0,0.0,0.0,0.0,0.0
0.6429810523986816,4.9,-99.42344157158419,-100.11701204882048,5.674455116453078,0.0,0.0,0.2,0.0,0.0,0.0,0.0,0.0,0.0,0.0,0.0,0.0,0.0,0.0,0.0
0.6528351306915283,4.9,-102.46912832367813,-103.20976408560689,5.8335632304144385,0.0,0.0,0.2,0.0,0.0,0.0,0.0,0.0,0.0,0.0,0.0,0.0,0.0,0.0,0.0
0.6631808280944824,4.9,-71.30769886143632,-71.45884593617441,4.360727612535408,0.0,0.0,0.2,0.0,0.0,0.0,0.0,0.0,0.0,0.0,0.0,0.0,0.0,0.0,0.0
0.6734099388122559,4.9,-83.55775858724667,-83.93843544940728,4.933483021946822,0.0,0.0,0.2,0.0,0.0,0.0,0.0,0.0,0.0,0.0,0.0,0.0,0.0,0.0,0.0
0.6833927631378174,4.9,-84.42393267522336,-84.82384430193555,4.9952443113169664,0.0,0.0,0.2,0.0,0.0,0.0,0.0,0.0,0.0,0.0,0.0,0.0,0.0,0.0,0.0
0.693706750869751,4.9,-64.66801646987801,-64.69662961155728,4.058432379235016,0.0,0.0,0.2,0.0,0.0,0.0,0.0,0.0,0.0,0.0,0.0,0.0,0.0,0.0,0.0
0.7040650844573975,4.9,-77.22173948847642,-77.47991451405942,4.647047263162124,0.0,0.0,0.2,0.0,0.0,0.0,0.0,0.0,0.0,0.0,0.0,0.0,0.0,0.0,0.0
0.7139899730682373,4.9,-84.77753709860374,-85.1719120160088,5.015152506826126,0.0,0.0,0.2,0.0,0.0,0.0,0.0,0.0,0.0,0.0,0.0,0.0,0.0,0.0,0.0
0.7240760326385498,4.9,-62.61961738179301,-62.60135652722417,3.9599814417153434,0.0,0.0,0.2,0.0,0.0,0.0,0.0,0.0,0.0,0.0,0.0,0.0,0.0,0.0,0.0
0.7344274520874023,4.9,-57.83387324951485,-57.71824426817359,3.7505576436442127,0.0,0.0,0.2,0.0,0.0,0.0,0.0,0.0,0.0,0.0,0.0,0.0,0.0,0.0,0.0
0.7446880340576172,4.9,-69.24425388228187,-69.33592287153807,4.281984352071814,0.0,0.0,0.2,0.0,0.0,0.0,0.0,0.0,0.0,0.0,0.0,0.0,0.0,0.0,0.0
0.7546753883361816,4.9,-68.11749124516622,-68.18380261908408,4.229981934071879,0.0,0.0,0.2,0.0,0.0,0.0,0.0,0.0,0.0,0.0,0.0,0.0,0.0,0.0,0.0
0.7648298740386963,4.9,-57.54989880983322,-57.41886919866762,3.736904775632936,0.0,0.0,0.2,0.0,0.0,0.0,0.0,0.0,0.0,0.0,0.0,0.0,0.0,0.0,0.0
0.77494215965271,4.9,-51.37343579242681,-51.11776364431977,3.451728162951957,0.0,0.0,0.2,0.0,0.0,0.0,0.0,0.0,0.0,0.0,0.0,0.0,0.0,0.0,0.0
0.7855067253112793,4.9,-50.060966833925846,-49.780779878421775,3.394206822240858,0.0,0.0,0.2,0.0,0.0,0.0,0.0,0.0,0.0,0.0,0.0,0.0,0.0,0.0,0.0
0.7955741882324219,4.9,-69.43202068677932,-69.51453268930915,4.29437741678616,0.0,0.0,0.2,0.0,0.0,0.0,0.0,0.0,0.0,0.0,0.0,0.0,0.0,0.0,0.0
0.805532693862915,4.9,-60.8449663839883,-60.76182913970615,3.9115620411345287,0.0,0.0,0.2,0.0,0.0,0.0,0.0,0.0,0.0,0.0,0.0,0.0,0.0,0.0,0.0
0.815875768661499,4.9,-47.76386006789244,-47.42741504233901,3.292723634224503,0.0,0.0,0.2,0.0,0.0,0.0,0.0,0.0,0.0,0.0,0.0,0.0,0.0,0.0,0.0
0.826007604598999,4.9,-53.96810039314333,-53.74355510211971,3.579110080584649,0.0,0.0,0.2,0.0,0.0,0.0,0.0,0.0,0.0,0.0,0.0,0.0,0.0,0.0,0.0
0.8362038135528564,4.9,-50.429809933159355,-50.14562845422686,3.4233622871681737,0.0,0.0,0.2,0.0,0.0,0.0,0.0,0.0,0.0,0.0,0.0,0.0,0.0,0.0,0.0
0.8462789058685303,4.9,-50.600915882,-50.311776194820595,3.434841663082797,0.0,0.0,0.2,0.0,0.0,0.0,0.0,0.0,0.0,0.0,0.0,0.0,0.0,0.0,0.0
0.8567161560058594,4.9,-45.32053671904801,-44.926182382782564,3.200910490187368,0.0,0.0,0.2,0.0,0.0,0.0,0.0,0.0,0.0,0.0,0.0,0.0,0.0,0.0,0.0
0.8667600154876709,4.9,-54.04884664787465,-53.82193458397767,3.610160049762948,0.0,0.0,0.2,0.0,0.0,0.0,0.0,0.0,0.0,0.0,0.0,0.0,0.0,0.0,0.0
0.8769605159759521,4.9,-46.08763479234392,-45.703743046791956,3.2287241425599538,0.0,0.0,0.2,0.0,0.0,0.0,0.0,0.0,0.0,0.0,0.0,0.0,0.0,0.0,0.0
0.8871362209320068,4.9,-45.421377514867324,-45.021417048552095,3.196500228611119,0.0,0.0,0.2,0.0,0.0,0.0,0.0,0.0,0.0,0.0,0.0,0.0,0.0,0.0,0.0
0.8973495960235596,4.9,-45.9304242647403,-45.537472074083865,3.2274131073140935,0.0,0.0,0.2,0.0,0.0,0.0,0.0,0.0,0.0,0.0,0.0,0.0,0.0,0.0,0.0
0.9075241088867188,4.9,-46.684735483712345,-46.30338466188924,3.2658357824154383,0.0,0.0,0.2,0.0,0.0,0.0,0.0,0.0,0.0,0.0,0.0,0.0,0.0,0.0,0.0
0.9176590442657471,4.9,-46.31901413187076,-45.92616067419325,3.25512169838055,0.0,0.0,0.2,0.0,0.0,0.0,0.0,0.0,0.0,0.0,0.0,0.0,0.0,0.0,0.0
0.9277772903442383,4.9,-43.14775700467246,-42.69172640227107,3.1036334808219554,0.0,0.0,0.2,0.0,0.0,0.0,0.0,0.0,0.0,0.0,0.0,0.0,0.0,0.0,0.0
0.9379336833953857,4.9,-40.550859357092854,-40.04133435044213,2.9844755039105437,0.0,0.0,0.2,0.0,0.0,0.0,0.0,0.0,0.0,0.0,0.0,0.0,0.0,0.0,0.0
0.948436975479126,4.9,-36.45044842843899,-35.862522879637375,2.794319905147098,0.0,0.0,0.2,0.0,0.0,0.0,0.0,0.0,0.0,0.0,0.0,0.0,0.0,0.0,0.0
0.958526611328125,4.9,-42.32449864256059,-41.84418310233352,3.0778244710248557,0.0,0.0,0.2,0.0,0.0,0.0,0.0,0.0,0.0,0.0,0.0,0.0,0.0,0.0,0.0
0.9684097766876221,4.9,-38.581302704701315,-38.02516175760068,2.9048101724084203,0.0,0.0,0.2,0.0,0.0,0.0,0.0,0.0,0.0,0.0,0.0,0.0,0.0,0.0,0.0
0.9788920879364014,4.9,-32.978302994253255,-32.317412975922345,2.6384686037553315,0.0,0.0,0.2,0.0,0.0,0.0,0.0,0.0,0.0,0.0,0.0,0.0,0.0,0.0,0.0
0.9889907836914062,4.9,-38.663628567895124,-38.10590614092615,2.907479274100489,0.0,0.0,0.2,0.0,0.0,0.0,0.0,0.0,0.0,0.0,0.0,0.0,0.0,0.0,0.0
0.9991636276245117,4.9,-35.07671946329173,-34.50149820620286,0.8007198368986347,0.0,0.0,0.2,0.0,0.0,0.0,0.0,0.0,0.0,0.0,0.0,0.0,0.0,0.0,0.0
1.009230375289917,4.9,-35.491732116974205,-34.863523441827596,2.7634864072891534,0.0,0.0,0.2,0.0,0.0,0.0,0.0,0.0,0.0,0.0,0.0,0.0,0.0,0.0,0.0
1.01955246925354,0.0,0.0,0.0,0.0,0.0,0.0,0.0,0.0,0.0,0.0,0.0,0.0,0.0,0.0,0.0,0.0,0.0,0.0,0.0
1.0298259258270264,4.9,-10.47298268907349,-9.68824340637984,1.3410128213693142,0.0,0.0,0.0,0.0,0.0,0.0,0.0,0.0,0.0,0.0,0.0,0.0,0.0,0.0,0.0
1.0401029586791992,4.9,-10.278865688785691,-9.48904329185782,1.3329042123609591,0.0,0.0,0.0,0.0,0.0,0.0,0.0,0.0,0.0,0.0,0.0,0.0,0.0,0.0,0.0
1.0501809120178223,4.9,-10.160923970979297,-9.367027665610484,1.3322165917888025,0.0,0.0,0.0,0.0,0.0,0.0,0.0,0.0,0.0,0.0,0.0,0.0,0.0,0.0,0.0
1.0604281425476074,4.9,-8.072741973484378,-7.23493696150206,1.236916472045835,0.0,0.0,0.0,0.0,0.0,0.0,0.0,0.0,0.0,0.0,0.0,0.0,0.0,0.0,0.0
1.0705485343933105,4.9,-7.477478068226521,-6.625385372133862,1.2095656858446806,0.0,0.0,0.0,0.0,0.0,0.0,0.0,0.0,0.0,0.0,0.0,0.0,0.0,0.0,0.0
1.0807428359985352,4.9,-6.109122423887871,-5.230841221945655,1.1476632427519031,0.0,0.0,0.0,0.0,0.0,0.0,0.0,0.0,0.0,0.0,0.0,0.0,0.0,0.0,0.0
1.0911026000976562,4.9,-5.654225194649324,-4.759883349682237,1.1306394580175982,0.0,0.0,0.0,0.0,0.0,0.0,0.0,0.0,0.0,0.0,0.0,0.0,0.0,0.0,0.0
1.1013758182525635,4.9,-3.8955804792662394,-2.9666324613419013,1.0497974596947277,0.0,0.0,0.0,0.0,0.0,0.0,0.0,0.0,0.0,0.0,0.0,0.0,0.0,0.0,0.0
1.1117494106292725,4.9,-3.8935425997015507,-2.9618415121373793,1.0517935619686551,0.0,0.0,0.0,0.0,0.0,0.0,0.0,0.0,0.0,0.0,0.0,0.0,0.0,0.0,0.0
1.1216554641723633,4.9,-4.028948291160447,-3.0957082855570075,1.0597925062649118,0.0,0.0,0.0,0.0,0.0,0.0,0.0,0.0,0.0,0.0,0.0,0.0,0.0,0.0,0.0
1.1320545673370361,6.11799372444517,-2.858658336068482,-1.8991839943579063,1.0083358643357727,0.0,0.0,0.0,0.0,0.0,0.0,0.0,0.0,0.0,0.0,0.0,0.0,0.0,0.0,0.0
1.1420516967773438,5.829774225427435,-3.035830655919724,-2.0760157449244603,1.018871499462391,0.0,0.0,0.0,0.0,0.0,0.0,0.0,0.0,0.0,0.0,0.0,0.0,0.0,0.0,0.0
1.1523206233978271,7.239810191088333,-2.1863552134343966,-1.2108582301193422,0.9812402774273111,0.0,0.0,0.0,0.0,0.0,0.0,0.0,0.0,0.0,0.0,0.0,0.0,0.0,0.0,0.0
1.1624228954315186,7.8114762795266,-1.8496604235314211,-0.8624723254430595,0.9679090169541553,0.0,0.0,0.0,0.0,0.0,0.0,0.0,0.0,0.0,0.0,0.0,0.0,0.0,0.0,0.0
1.1727588176727295,8.52093816389586,-1.427041152240155,-0.4285710815395044,0.951661769425737,0.0,0.0,0.0,0.0,0.0,0.0,0.0,0.0,0.0,0.0,0.0,0.0,0.0,0.0,0.0
1.1827473640441895,9.324164897702502,-0.9491052015390717,0.0623402093199346,0.9308463475330301,0.0,0.0,0.0,0.0,0.0,0.0,0.0,0.0,0.0,0.0,0.0,0.0,0.0,0.0,0.0
1.1929941177368164,9.744007507387888,-0.6979708757750007,0.3203715552765892,0.9218975194169752,0.0,0.0,0.0,0.0,0.0,0.0,0.0,0.0,0.0,0.0,0.0,0.0,0.0,0.0,0.0
1.203019142150879,10.52507228695276,-0.2398703480659572,0.7954548300781709,0.9028966407727993,0.0,0.0,0.0,0.0,0.0,0.0,0.0,0.0,0.0,0.0,0.0,0.0,0.0,0.0,0.0
1.2131893634796143,10.487224712343473,-0.25800175249452006,0.7728652181667142,0.9055843511082868,0.0,0.0,0.0,0.0,0.0,0.0,0.0,0.0,0.0,0.0,0.0,0.0,0.0,0.0,0.0
1.2234306335449219,10.90926942143597,0.7789028343428948,1.2958682835229562,0.7494767678610944,0.0,0.0,0.0,0.0,0.0,0.0,0.0,0.0,0.0,0.0,0.0,0.0,0.0,0.0,0.0
1.2336018085479736,11.58626318652176,0.3824769041766304,1.4360814476836041,0.8810098559656592,0.0,0.0,0.0,0.0,0.0,0.0,0.0,0.0,0.0,0.0,0.0,0.0,0.0,0.0,0.0
1.2437961101531982,11.858234766947682,0.5348003906340071,1.5965509346785498,0.8753538843261789,0.0,0.0,0.0,0.0,0.0,0.0,0.0,0.0,0.0,0.0,0.0,0.0,0.0,0.0,0.0
1.254225492477417,12.405598697802988,0.8584672546116033,1.9290796267730916,0.8630671563105409,0.0,0.0,0.0,0.0,0.0,0.0,0.0,0.0,0.0,0.0,0.0,0.0,0.0,0.0,0.0
1.2644054889678955,14.563829949150609,2.134133444746836,3.234695940898609,0.804851683024961,0.0,0.0,0.0,0.0,0.0,0.0,0.0,0.0,0.0,0.0,0.0,0.0,0.0,0.0,0.0
1.275033712387085,14.952930461536102,2.358547031124264,3.465133886549114,0.7976087234216365,0.0,0.0,0.0,0.0,0.0,0.0,0.0,0.0,0.0,0.0,0.0,0.0,0.0,0.0,0.0
1.2852914333343506,14.957589639884528,2.3523819958958225,3.4614888336912366,0.7994630165758184,0.0,0.0,0.0,0.0,0.0,0.0,0.0,0.0,0.0,0.0,0.0,0.0,0.0,0.0,0.0
1.2952990531921387,15.650392160821044,2.7601456846408485,3.8775834038462578,0.7842105767373516,0.0,0.0,0.0,0.0,0.0,0.0,0.0,0.0,0.0,0.0,0.0,0.0,0.0,0.0,0.0
1.3056526184082031,13.787280936291484,2.471316213088492,2.9830107534662114,0.7776307613325568,0.0,0.0,0.0,0.0,0.0,0.0,0.0,0.0,0.0,0.0,0.0,0.0,0.0,0.0,0.0
1.3159244060516357,15.944379141915235,2.911616959283148,4.044271099940446,0.7800591007861567,0.0,0.0,0.0,0.0,0.0,0.0,0.0,0.0,0.0,0.0,0.0,0.0,0.0,0.0,0.0
1.3259904384613037,17.039321661941667,3.5489949278142148,4.698171929014404,0.7525735433597924,0.0,0.0,0.0,0.0,0.0,0.0,0.0,0.0,0.0,0.0,0.0,0.0,0.0,0.0,0.0
1.3361945152282715,15.999683489529136,2.9248921648018436,4.064630297705323,0.7860267733602289,0.0,0.0,0.0,0.0,0.0,0.0,0.0,0.0,0.0,0.0,0.0,0.0,0.0,0.0,0.0
1.346571683883667,16.550352316620394,3.2418232343424993,4.391599081698922,0.7725537329043474,0.0,0.0,0.0,0.0,0.0,0.0,0.0,0.0,0.0,0.0,0.0,0.0,0.0,0.0,0.0
1.3567321300506592,18.96797651681983,4.664737459714028,5.846050674417764,0.7078972542314538,0.0,0.0,0.0,0.0,0.0,0.0,0.0,0.0,0.0,0.0,0.0,0.0,0.0,0.0,0.0
1.3665497303009033,19.590105070912934,5.021784494827827,6.216818433421527,0.6942846944209469,0.0,0.0,0.0,0.0,0.0,0.0,0.0,0.0,0.0,0.0,0.0,0.0,0.0,0.0,0.0
1.3767926692962646,15.169633605117221,3.2312946838322287,3.7564051961937657,0.7991112825936966,0.0,0.0,0.0,0.0,0.0,0.0,0.0,0.0,0.0,0.0,0.0,0.0,0.0,0.0,0.0
1.3870370388031006,16.896160349595757,3.403166067999297,4.56962526258932,0.7745550457551301,0.0,0.0,0.0,0.0,0.0,0.0,0.0,0.0,0.0,0.0,0.0,0.0,0.0,0.0,0.0
1.3972761631011963,18.54750323688275,4.36380884111345,5.558145121220652,0.7323777004294253,0.0,0.0,0.0,0.0,0.0,0.0,0.0,0.0,0.0,0.0,0.0,0.0,0.0,0.0,0.0
1.4072699546813965,18.634851675663107,4.403866364556276,5.6027177676939015,0.7319630208294619,0.0,0.0,0.0,0.0,0.0,0.0,0.0,0.0,0.0,0.0,0.0,0.0,0.0,0.0,0.0
1.4175245761871338,15.875812108664716,2.7625921297911833,3.9289161459919644,0.8126331663316829,0.0,0.0,0.0,0.0,0.0,0.0,0.0,0.0,0.0,0.0,0.0,0.0,0.0,0.0,0.0
1.427854061126709,16.847770213886882,3.328985205746473,4.510615939074991,0.7886707086305216,0.0,0.0,0.0,0.0,0.0,0.0,0.0,0.0,0.0,0.0,0.0,0.0,0.0,0.0,0.0
1.4381451606750488,18.843795871197454,4.497631743600513,5.707342120702056,0.7349126363306084,0.0,0.0,0.0,0.0,0.0,0.0,0.0,0.0,0.0,0.0,0.0,0.0,0.0,0.0,0.0
1.4483065605163574,20.044864416710993,5.192247650254357,6.424536513480783,0.7041942806924718,0.0,0.0,0.0,0.0,0.0,0.0,0.0,0.0,0.0,0.0,0.0,0.0,0.0,0.0,0.0
1.4583313465118408,19.110448541744482,4.629943500290989,5.851707687436635,0.7324585927368623,0.0,0.0,0.0,0.0,0.0,0.0,0.0,0.0,0.0,0.0,0.0,0.0,0.0,0.0,0.0
1.468456506729126,16.510551161496647,3.084838013529308,4.273651407867285,0.8095978232099171,0.0,0.0,0.0,0.0,0.0,0.0,0.0,0.0,0.0,0.0,0.0,0.0,0.0,0.0,0.0
1.4788596630096436,16.402844375259136,3.0126128564741994,4.203071364341166,0.8155728098279166,0.0,0.0,0.0,0.0,0.0,0.0,0.0,0.0,0.0,0.0,0.0,0.0,0.0,0.0,0.0
1.48887300491333,19.163738997179045,4.6347811207274,5.86672574891826,0.7421965551873848,0.0,0.0,0.0,0.0,0.0,0.0,0.0,0.0,0.0,0.0,0.0,0.0,0.0,0.0,0.0
1.4991042613983154,16.816162212514467,3.236571134239178,4.438948122048364,0.8096946663458169,0.0,0.0,0.0,0.0,0.0,0.0,0.0,0.0,0.0,0.0,0.0,0.0,0.0,0.0,0.0
1.5092036724090576,17.289226346910695,3.506808607017301,4.718176126722162,0.8001109756301547,0.0,0.0,0.0,0.0,0.0,0.0,0.0,0.0,0.0,0.0,0.0,0.0,0.0,0.0,0.0
1.5195517539978027,16.24010004077746,2.8773817346031065,4.077563094573343,0.8316946520994675,0.0,0.0,0.0,0.0,0.0,0.0,0.0,0.0,0.0,0.0,0.0,0.0,0.0,0.0,0.0
1.529628038406372,18.23842379057308,4.050477208852413,5.280409050727504,0.7800015216723043,0.0,0.0,0.0,0.0,0.0,0.0,0.0,0.0,0.0,0.0,0.0,0.0,0.0,0.0,0.0
1.5400238037109375,16.716498555919742,3.1393552304991634,4.352636412054187,0.824520322447952,0.0,0.0,0.0,0.0,0.0,0.0,0.0,0.0,0.0,0.0,0.0,0.0,0.0,0.0,0.0
1.550032138824463,19.06411538270306,4.516446502537764,5.764175030093462,0.7618393106316781,0.0,0.0,0.0,0.0,0.0,0.0,0.0,0.0,0.0,0.0,0.0,0.0,0.0,0.0,0.0
1.5603229999542236,16.4001241679117,2.9350523261469,4.149488608401216,0.8402661691789647,0.0,0.0,0.0,0.0,0.0,0.0,0.0,0.0,0.0,0.0,0.0,0.0,0.0,0.0,0.0
1.5703165531158447,17.887364000992363,3.8035085358851934,5.041000465615426,0.800945857843403,0.0,0.0,0.0,0.0,0.0,0.0,0.0,0.0,0.0,0.0,0.0,0.0,0.0,0.0,0.0
1.5807139873504639,16.175151400641504,2.7834058743331895,4.000687816472914,0.8516769840362949,0.0,0.0,0.0,0.0,0.0,0.0,0.0,0.0,0.0,0.0,0.0,0.0,0.0,0.0,0.0
1.5908801555633545,18.80770175884179,4.32879057413822,5.5848656118237265,0.780892314055907,0.0,0.0,0.0,0.0,0.0,0.0,0.0,0.0,0.0,0.0,0.0,0.0,0.0,0.0,0.0
1.6011083126068115,18.599252061689555,4.192805247698953,5.450238916972644,0.7897468261947389,0.0,0.0,0.0,0.0,0.0,0.0,0.0,0.0,0.0,0.0,0.0,0.0,0.0,0.0,0.0
1.611180067062378,19.20567325945414,4.542674655928932,5.809157322168479,0.7757248826141993,0.0,0.0,0.0,0.0,0.0,0.0,0.0,0.0,0.0,0.0,0.0,0.0,0.0,0.0,0.0
1.6212916374206543,18.03408802858962,3.838737361860111,5.095314046155387,0.8112684735762729,0.0,0.0,0.0,0.0,0.0,0.0,0.0,0.0,0.0,0.0,0.0,0.0,0.0,0.0,0.0
1.6315186023712158,17.557606949159087,3.5493138583137913,4.801884379254394,0.8289326419594593,0.0,0.0,0.0,0.0,0.0,0.0,0.0,0.0,0.0,0.0,0.0,0.0,0.0,0.0,0.0
1.6418745517730713,17.62653263224354,3.5791493622543133,4.83719569258163,0.8292422626844904,0.0,0.0,0.0,0.0,0.0,0.0,0.0,0.0,0.0,0.0,0.0,0.0,0.0,0.0,0.0
1.6520774364471436,18.192922079543166,3.9046499374710395,5.172279523495599,0.8167950213038416,0.0,0.0,0.0,0.0,0.0,0.0,0.0,0.0,0.0,0.0,0.0,0.0,0.0,0.0,0.0
1.6623749732971191,17.23402384844791,3.328890534415008,4.587766788782417,0.8458267504328594,0.0,0.0,0.0,0.0,0.0,0.0,0.0,0.0,0.0,0.0,0.0,0.0,0.0,0.0,0.0
1.672532558441162,18.38219279247707,3.9943150607673052,5.2730736299310745,0.8170864386683482,0.0,0.0,0.0,0.0,0.0,0.0,0.0,0.0,0.0,0.0,0.0,0.0,0.0,0.0,0.0
1.683518648147583,17.985788472660232,3.752130630522888,5.029182399641899,0.8310900128281226,0.0,0.0,0.0,0.0,0.0,0.0,0.0,0.0,0.0,0.0,0.0,0.0,0.0,0.0,0.0
1.693751573562622,18.059103527507553,3.7907978159315903,5.067477721131844,0.8316145000559939,0.0,0.0,0.0,0.0,0.0,0.0,0.0,0.0,0.0,0.0,0.0,0.0,0.0,0.0,0.0
1.7039456367492676,17.936217579890602,3.7055372690998953,4.9857501840313585,0.8382592706347882,0.0,0.0,0.0,0.0,0.0,0.0,0.0,0.0,0.0,0.0,0.0,0.0,0.0,0.0,0.0
1.7139298915863037,17.476912375276214,3.4237318541830737,4.7018023057835565,0.8543296952125218,0.0,0.0,0.0,0.0,0.0,0.0,0.0,0.0,0.0,0.0,0.0,0.0,0.0,0.0,0.0
1.7249956130981445,15.424397995554193,2.2048463019784226,3.456211280166273,0.9136168328093643,0.0,0.0,0.0,0.0,0.0,0.0,0.0,0.0,0.0,0.0,0.0,0.0,0.0,0.0,0.0
1.7343711853027344,27.512667589234933,9.33049706024176,10.750015536083207,0.5813662860523614,0.0,0.0,0.0,0.0,0.0,0.0,0.0,0.0,0.0,0.0,0.0,0.0,0.0,0.0,0.0
1.7443490028381348,16.956806821499292,3.08013957603368,4.360705201023991,0.8768498821857367,0.0,0.0,0.0,0.0,0.0,0.0,0.0,0.0,0.0,0.0,0.0,0.0,0.0,0.0,0.0
1.7545742988586426,14.879445253004928,1.8509246907939867,3.1015883543341,0.9383280526059389,0.0,0.0,0.0,0.0,0.0,0.0,0.0,0.0,0.0,0.0,0.0,0.0,0.0,0.0,0.0
1.7650198936462402,15.46660640431993,2.1869415027881747,3.451332809504853,0.9250641776460837,0.0,0.0,0.0,0.0,0.0,0.0,0.0,0.0,0.0,0.0,0.0,0.0,0.0,0.0,0.0
1.774839162826538,17.42039640174702,3.3353832565132238,4.628850922758047,0.8727999148381262,0.0,0.0,0.0,0.0,0.0,0.0,0.0,0.0,0.0,0.0,0.0,0.0,0.0,0.0,0.0
1.7851629257202148,14.529621175183351,1.6210056701106075,2.8811605308234514,0.9570972324744553,0.0,0.0,0.0,0.0,0.0,0.0,0.0,0.0,0.0,0.0,0.0,0.0,0.0,0.0,0.0
1.7952516078948975,15.931259945211602,2.443412529803848,3.7240592097085523,0.9199028095107018,0.0,0.0,0.0,0.0,0.0,0.0,0.0,0.0,0.0,0.0,0.0,0.0,0.0,0.0,0.0
1.8055083751678467,15.48777045741182,2.1751511238874217,3.4533214433610224,0.936179094808608,0.0,0.0,0.0,0.0,0.0,0.0,0.0,0.0,0.0,0.0,0.0,0.0,0.0,0.0,0.0
1.8156259059906006,15.971549319378491,2.4543122759511236,3.7387853724461926,0.9250430730433935,0.0,0.0,0.0,0.0,0.0,0.0,0.0,0.0,0.0,0.0,0.0,0.0,0.0,0.0,0.0
1.8258237838745117,15.397695116379861,2.107904233162489,3.390139381806445,0.9443084516673517,0.0,0.0,0.0,0.0,0.0,0.0,0.0,0.0,0.0,0.0,0.0,0.0,0.0,0.0,0.0
1.8359942436218262,15.36246342349025,2.0770110427379445,3.3600289988642906,0.9465844212709139,0.0,0.0,0.0,0.0,0.0,0.0,0.0,0.0,0.0,0.0,0.0,0.0,0.0,0.0,0.0
1.8462944030761719,15.062428736410364,1.8966608191460617,3.179729193547116,0.9585184616825849,0.0,0.0,0.0,0.0,0.0,0.0,0.0,0.0,0.0,0.0,0.0,0.0,0.0,0.0,0.0
1.856513500213623,15.488767649949251,2.1442679822568484,3.432924546892866,0.9499108268416625,0.0,0.0,0.0,0.0,0.0,0.0,0.0,0.0,0.0,0.0,0.0,0.0,0.0,0.0,0.0
1.8668136596679688,15.24045835384496,1.988138466725057,3.2817858100566624,0.9595924258866093,0.0,0.0,0.0,0.0,0.0,0.0,0.0,0.0,0.0,0.0,0.0,0.0,0.0,0.0,0.0
1.8768229484558105,14.829303340622895,1.7418105079436719,3.0286007328306566,0.9744538038440397,0.0,0.0,0.0,0.0,0.0,0.0,0.0,0.0,0.0,0.0,0.0,0.0,0.0,0.0,0.0
1.887021541595459,13.637600193716677,1.0302844007362124,2.3074957570106633,1.0097607581806098,0.0,0.0,0.0,0.0,0.0,0.0,0.0,0.0,0.0,0.0,0.0,0.0,0.0,0.0,0.0
1.8973441123962402,13.621844145207497,1.017696719030245,2.2947607011239555,1.0130822285473748,0.0,0.0,0.0,0.0,0.0,0.0,0.0,0.0,0.0,0.0,0.0,0.0,0.0,0.0,0.0
1.9078922271728516,14.379557174627186,1.4605697260312225,2.754507166533581,0.9958420266282184,0.0,0.0,0.0,0.0,0.0,0.0,0.0,0.0,0.0,0.0,0.0,0.0,0.0,0.0,0.0
1.9177703857421875,16.902881450460107,2.9457067773898555,4.271904416109835,0.9271887163420626,0.0,0.0,0.0,0.0,0.0,0.0,0.0,0.0,0.0,0.0,0.0,0.0,0.0,0.0,0.0
1.9279706478118896,14.356692452202614,1.433873173776668,2.7326468751552606,1.0019240680687884,0.0,0.0,0.0,0.0,0.0,0.0,0.0,0.0,0.0,0.0,0.0,0.0,0.0,0.0,0.0
1.9379675388336182,14.224540891408203,1.3491913975620713,2.6479748775661367,1.0071511386717629,0.0,0.0,0.0,0.0,0.0,0.0,0.0,0.0,0.0,0.0,0.0,0.0,0.0,0.0,0.0
1.9472298622131348,13.240658336281003,0.7669930328445941,2.0557863967203533,1.0378906166387587,0.0,0.0,0.0,0.0,0.0,0.0,0.0,0.0,0.0,0.0,0.0,0.0,0.0,0.0,0.0
1.9585065841674805,10.704609085016312,-0.7390559054578746,0.5212641106505377,1.111001790697692,0.0,0.0,0.0,0.0,0.0,0.0,0.0,0.0,0.0,0.0,0.0,0.0,0.0,0.0,0.0
1.9685637950897217,13.842560655084439,1.1128854048792725,2.417045606949259,1.026634791450517,0.0,0.0,0.0,0.0,0.0,0.0,0.0,0.0,0.0,0.0,0.0,0.0,0.0,0.0,0.0
1.978952169418335,12.950649719401452,0.578589841922783,1.8753867661458161,1.053027946655627,0.0,0.0,0.0,0.0,0.0,0.0,0.0,0.0,0.0,0.0,0.0,0.0,0.0,0.0,0.0
1.9891045093536377,13.632718534918613,0.9763881034899307,2.2883413314339247,1.0383040642803592,0.0,0.0,0.0,0.0,0.0,0.0,0.0,0.0,0.0,0.0,0.0,0.0,0.0,0.0,0.0
1.9990763664245605,13.693659051674004,1.815004758205418,2.5784764965050475,0.9561648744790869,0.0,0.0,0.0,0.0,0.0,0.0,0.0,0.0,0.0,0.0,0.0,0.0,0.0,0.0,0.0
2.0091683864593506,12.741865823245204,0.4412005374370421,1.7470592225945116,1.0673893899673703,0.0,0.0,0.0,0.0,0.0,0.0,0.0,0.0,0.0,0.0,0.0,0.0,0.0,0.0,0.0
2.0194785594940186,12.37315287009045,0.22011740224322804,1.5250796502241388,1.080378071837659,0.0,0.0,0.0,0.0,0.0,0.0,0.0,0.0,0.0,0.0,0.0,0.0,0.0,0.0,0.0
2.02958607673645,12.734141679911692,0.4259741370548637,1.7422849282206183,1.072673313076304,0.0,0.0,0.0,0.0,0.0,0.0,0.0,0.0,0.0,0.0,0.0,0.0,0.0,0.0,0.0
2.0396454334259033,12.431621097177231,0.24412394717259905,1.5580466265308877,1.0836428317391584,0.0,0.0,0.0,0.0,0.0,0.0,0.0,0.0,0.0,0.0,0.0,0.0,0.0,0.0,0.0
2.049832582473755,12.168189599001979,0.08791253175147082,1.4012846974862978,1.0941070189867652,0.0,0.0,0.0,0.0,0.0,0.0,0.0,0.0,0.0,0.0,0.0,0.0,0.0,0.0,0.0
2.0602335929870605,12.135590436371476,0.0666290500309112,1.3805578287262028,1.0976255351643858,0.0,0.0,0.0,0.0,0.0,0.0,0.0,0.0,0.0,0.0,0.0,0.0,0.0,0.0,0.0
2.070517063140869,12.417470588528273,0.22694221823125577,1.5514657243062508,1.091694139456133,0.0,0.0,0.0,0.0,0.0,0.0,0.0,0.0,0.0,0.0,0.0,0.0,0.0,0.0,0.0
2.0806243419647217,12.552393195816759,1.0976372561253203,1.901467350495126,0.9739501066675835,0.0,0.0,0.0,0.0,0.0,0.0,0.0,0.0,0.0,0.0,0.0,0.0,0.0,0.0,0.0
2.0909225940704346,12.208741866891215,0.09575443038972792,1.4241502829466446,1.102228772841285,0.0,0.0,0.0,0.0,0.0,0.0,0.0,0.0,0.0,0.0,0.0,0.0,0.0,0.0,0.0
2.1010732650756836,12.509454352828785,0.2676614199068026,1.607430254559998,1.0976371921308108,0.0,0.0,0.0,0.0,0.0,0.0,0.0,0.0,0.0,0.0,0.0,0.0,0.0,0.0,0.0
2.111022710800171,12.204487198786213,0.0885400892175928,1.4268233411645201,1.1085860663054867,0.0,0.0,0.0,0.0,0.0,0.0,0.0,0.0,0.0,0.0,0.0,0.0,0.0,0.0,0.0
2.121429681777954,11.646164605419163,-0.23974881706713325,1.0888237647281525,1.126469818660146,0.0,0.0,0.0,0.0,0.0,0.0,0.0,0.0,0.0,0.0,0.0,0.0,0.0,0.0,0.0
2.131833553314209,11.962503036972079,-0.05933810363546711,1.2779020043553817,1.1200526221826432,0.0,0.0,0.0,0.0,0.0,0.0,0.0,0.0,0.0,0.0,0.0,0.0,0.0,0.0,0.0
2.1418583393096924,12.187024686236859,0.06727481496463278,1.417000165809683,1.1169354304221986,0.0,0.0,0.0,0.0,0.0,0.0,0.0,0.0,0.0,0.0,0.0,0.0,0.0,0.0,0.0
2.15107798576355,11.78497182175082,-0.16691325138362204,1.178565582392806,1.1317868867748548,0.0,0.0,0.0,0.0,0.0,0.0,0.0,0.0,0.0,0.0,0.0,0.0,0.0,0.0,0.0
2.1611454486846924,10.789010591733106,-0.7492326217980304,0.5726719400594188,1.161004857376103,0.0,0.0,0.0,0.0,0.0,0.0,0.0,0.0,0.0,0.0,0.0,0.0,0.0,0.0,0.0
2.1712822914123535,10.756945315326023,-0.7676342557482981,0.5560938382379071,1.1652648651512587,0.0,0.0,0.0,0.0,0.0,0.0,0.0,0.0,0.0,0.0,0.0,0.0,0.0,0.0,0.0
2.181396722793579,10.745323958039382,-0.7774172482307009,0.551661006217473,1.167090614119787,0.0,0.0,0.0,0.0,0.0,0.0,0.0,0.0,0.0,0.0,0.0,0.0,0.0,0.0,0.0
2.1914968490600586,10.750574412957901,-0.7756034550277274,0.5563733252025672,1.170178000324298,0.0,0.0,0.0,0.0,0.0,0.0,0.0,0.0,0.0,0.0,0.0,0.0,0.0,0.0,0.0
2.2016170024871826,10.736084019749034,-0.7879556241156956,0.5463960464096194,1.1732236777093403,0.0,0.0,0.0,0.0,0.0,0.0,0.0,0.0,0.0,0.0,0.0,0.0,0.0,0.0,0.0
2.2117743492126465,10.724181753959849,-0.7955417651195092,0.5404518886622166,1.176946486456707,0.0,0.0,0.0,0.0,0.0,0.0,0.0,0.0,0.0,0.0,0.0,0.0,0.0,0.0,0.0
2.2218518257141113,10.720153585515172,-0.7978726747412951,0.5412100175755128,1.1780423076697806,0.0,0.0,0.0,0.0,0.0,0.0,0.0,0.0,0.0,0.0,0.0,0.0,0.0,0.0,0.0
2.231904983520508,10.715696207826477,-0.8031399766287018,0.5395055323355136,1.181358235589957,0.0,0.0,0.0,0.0,0.0,0.0,0.0,0.0,0.0,0.0,0.0,0.0,0.0,0.0,0.0
2.242009401321411,10.706365426246588,-0.8116385507206573,0.534438490624037,1.1851225256925446,0.0,0.0,0.0,0.0,0.0,0.0,0.0,0.0,0.0,0.0,0.0,0.0,0.0,0.0,0.0
2.2522506713867188,10.701518824200434,-0.8151845546388062,0.5366848622250796,1.18726709163151,0.0,0.0,0.0,0.0,0.0,0.0,0.0,0.0,0.0,0.0,0.0,0.0,0.0,0.0,0.0
2.26225209236145,10.700355153333891,-0.8195172317197055,0.5345605946577642,1.188579990207338,0.0,0.0,0.0,0.0,0.0,0.0,0.0,0.0,0.0,0.0,0.0,0.0,0.0,0.0,0.0
2.272390127182007,10.690320083448507,-0.8234581103341817,0.5314263972244057,1.1926190250112567,0.0,0.0,0.0,0.0,0.0,0.0,0.0,0.0,0.0,0.0,0.0,0.0,0.0,0.0,0.0
2.2825584411621094,10.68488946505348,-0.8305425591095543,0.5282472393283991,1.1952187610614178,0.0,0.0,0.0,0.0,0.0,0.0,0.0,0.0,0.0,0.0,0.0,0.0,0.0,0.0,0.0
2.292710781097412,10.67882280493299,-0.8353726459553896,0.5270121118791616,1.1981684636607217,0.0,0.0,0.0,0.0,0.0,0.0,0.0,0.0,0.0,0.0,0.0,0.0,0.0,0.0,0.0
2.3027572631835938,10.679370388152064,-0.0604528117855857,0.8147886625072448,1.0273189291233924,0.0,0.0,0.0,0.0,0.0,0.0,0.0,0.0,0.0,0.0,0.0,0.0,0.0,0.0,0.0
2.3129220008850098,10.667964836831944,-0.8418077415322588,0.5240975675431101,1.2022597821885432,0.0,0.0,0.0,0.0,0.0,0.0,0.0,0.0,0.0,0.0,0.0,0.0,0.0,0.0,0.0
2.3229637145996094,10.66111200162324,-0.8486999983175523,0.5203406842214291,1.2059888482912609,0.0,0.0,0.0,0.0,0.0,0.0,0.0,0.0,0.0,0.0,0.0,0.0,0.0,0.0,0.0
2.333132028579712,10.656305617153567,-0.8521126523839788,0.5204361196966075,1.2088373091077027,0.0,0.0,0.0,0.0,0.0,0.0,0.0,0.0,0.0,0.0,0.0,0.0,0.0,0.0,0.0
2.3432910442352295,10.651817097955899,-0.8586359303912392,0.5181924278345172,1.210949178783432,0.0,0.0,0.0,0.0,0.0,0.0,0.0,0.0,0.0,0.0,0.0,0.0,0.0,0.0,0.0
2.3534998893737793,10.646027987514715,-0.8636967264890794,0.5167019630275826,1.2142426162140778,0.0,0.0,0.0,0.0,0.0,0.0,0.0,0.0,0.0,0.0,0.0,0.0,0.0,0.0,0.0
2.3635761737823486,10.628429897252214,-0.8737899211247216,0.5090002613723386,1.2172735610775112,0.0,0.0,0.0,0.0,0.0,0.0,0.0,0.0,0.0,0.0,0.0,0.0,0.0,0.0,0.0
2.3737409114837646,10.635098422600736,-0.8718170470718002,0.5154353250605319,1.2191800605330714,0.0,0.0,0.0,0.0,0.0,0.0,0.0,0.0,0.0,0.0,0.0,0.0,0.0,0.0,0.0
2.383864164352417,10.625929273230676,-0.8777084134585327,0.5113116374493365,1.2218623472586052,0.0,0.0,0.0,0.0,0.0,0.0,0.0,0.0,0.0,0.0,0.0,0.0,0.0,0.0,0.0
2.393986463546753,10.62198924452554,-0.8854580488135667,0.5083253584007674,1.2248893598382677,0.0,0.0,0.0,0.0,0.0,0.0,0.0,0.0,0.0,0.0,0.0,0.0,0.0,0.0,0.0
2.4041433334350586,10.618613117974443,-0.8855733142312521,0.5102326186171102,1.2273904551702788,0.0,0.0,0.0,0.0,0.0,0.0,0.0,0.0,0.0,0.0,0.0,0.0,0.0,0.0,0.0
2.414292335510254,10.613140530133519,-0.8904425208092055,0.5054685000732863,1.229749863858807,0.0,0.0,0.0,0.0,0.0,0.0,0.0,0.0,0.0,0.0,0.0,0.0,0.0,0.0,0.0
2.4244205951690674,10.60644281181672,-0.8963936646120549,0.505106479003057,1.2327552669370856,0.0,0.0,0.0,0.0,0.0,0.0,0.0,0.0,0.0,0.0,0.0,0.0,0.0,0.0,0.0
2.4345545768737793,10.60255769142047,-0.9010599712055521,0.5047468072898496,1.2360288073308985,0.0,0.0,0.0,0.0,0.0,0.0,0.0,0.0,0.0,0.0,0.0,0.0,0.0,0.0,0.0
2.444714307785034,10.59532016125892,-0.9074191411639834,0.49998304037600744,1.2386605469888718,0.0,0.0,0.0,0.0,0.0,0.0,0.0,0.0,0.0,0.0,0.0,0.0,0.0,0.0,0.0
2.4548449516296387,10.59655610576633,-0.14188146277624267,0.782055549636445,1.0666139271349437,0.0,0.0,0.0,0.0,0.0,0.0,0.0,0.0,0.0,0.0,0.0,0.0,0.0,0.0,0.0
2.4650020599365234,10.586737295649588,-0.9129494988848025,0.5001935424547919,1.2431861938546354,0.0,0.0,0.0,0.0,0.0,0.0,0.0,0.0,0.0,0.0,0.0,0.0,0.0,0.0,0.0
2.4751598834991455,10.57925825242201,-0.9214679716733358,0.4968440101458835,1.2467137051238317,0.0,0.0,0.0,0.0,0.0,0.0,0.0,0.0,0.0,0.0,0.0,0.0,0.0,0.0,0.0
2.485344409942627,10.574569045406053,-0.9265107106583937,0.4936714336774786,1.249073381895322,0.0,0.0,0.0,0.0,0.0,0.0,0.0,0.0,0.0,0.0,0.0,0.0,0.0,0.0,0.0
2.495490550994873,10.553234349977906,-0.9417940959464098,0.48288724379248565,1.2524931008713849,0.0,0.0,0.0,0.0,0.0,0.0,0.0,0.0,0.0,0.0,0.0,0.0,0.0,0.0,0.0
2.5055809020996094,10.551861671050943,-0.9427580167684442,0.4860217430130482,1.2546728463024868,0.0,0.0,0.0,0.0,0.0,0.0,0.0,0.0,0.0,0.0,0.0,0.0,0.0,0.0,0.0
2.5157101154327393,10.553043500103215,-0.9406682756503615,0.48897782487808467,1.2562774339180647,0.0,0.0,0.0,0.0,0.0,0.0,0.0,0.0,0.0,0.0,0.0,0.0,0.0,0.0,0.0
2.525838613510132,10.553760567797841,-0.9449024809447908,0.48826468833270015,1.2597197132165379,0.0,0.0,0.0,0.0,0.0,0.0,0.0,0.0,0.0,0.0,0.0,0.0,0.0,0.0,0.0
2.5360281467437744,10.546230674729122,-0.950806494925804,0.4850855630884487,1.2630455457247058,0.0,0.0,0.0,0.0,0.0,0.0,0.0,0.0,0.0,0.0,0.0,0.0,0.0,0.0,0.0
2.546140193939209,10.525451975993382,-0.961875800318816,0.4760694332957402,1.2656560379165323,0.0,0.0,0.0,0.0,0.0,0.0,0.0,0.0,0.0,0.0,0.0,0.0,0.0,0.0,0.0
2.556506872177124,10.536168711298874,-0.9585701739984266,0.4846140261949945,1.268175212311635,0.0,0.0,0.0,0.0,0.0,0.0,0.0,0.0,0.0,0.0,0.0,0.0,0.0,0.0,0.0
2.566436767578125,10.377071636348775,-1.0589314951275273,0.3919230393280742,1.2749362375597293,0.0,0.0,0.0,0.0,0.0,0.0,0.0,0.0,0.0,0.0,0.0,0.0,0.0,0.0,0.0
2.5765998363494873,10.514654718262523,-0.9740487861969791,0.47444554879114315,1.2731322628030084,0.0,0.0,0.0,0.0,0.0,0.0,0.0,0.0,0.0,0.0,0.0,0.0,0.0,0.0,0.0
2.586726665496826,10.500243798509066,-0.9847443941188285,0.468587491333033,1.2775650963205558,0.0,0.0,0.0,0.0,0.0,0.0,0.0,0.0,0.0,0.0,0.0,0.0,0.0,0.0,0.0
2.5968730449676514,10.506757717102088,-0.9779439304543462,0.47542259176356455,1.2791326323063064,0.0,0.0,0.0,0.0,0.0,0.0,0.0,0.0,0.0,0.0,0.0,0.0,0.0,0.0,0.0
2.607011079788208,10.501456262857312,-0.9880766401840323,0.47175180618471013,1.2820480950095139,0.0,0.0,0.0,0.0,0.0,0.0,0.0,0.0,0.0,0.0,0.0,0.0,0.0,0.0,0.0
2.6171798706054688,10.50040373555781,-0.9854145971349518,0.47402945999825985,1.2853479003935944,0.0,0.0,0.0,0.0,0.0,0.0,0.0,0.0,0.0,0.0,0.0,0.0,0.0,0.0,0.0
2.627291679382324,10.474205806019443,-1.0029279503946116,0.4608946924087409,1.2884393885776677,0.0,0.0,0.0,0.0,0.0,0.0,0.0,0.0,0.0,0.0,0.0,0.0,0.0,0.0,0.0
2.637486219406128,10.490918062126816,-0.9965105981318617,0.46917226818049595,1.2897520414865524,0.0,0.0,0.0,0.0,0.0,0.0,0.0,0.0,0.0,0.0,0.0,0.0,0.0,0.0,0.0
2.6475887298583984,10.452976646038078,-1.0194964350825657,0.4535902878284826,1.2937228945570112,0.0,0.0,0.0,0.0,0.0,0.0,0.0,0.0,0.0,0.0,0.0,0.0,0.0,0.0,0.0
2.6577131748199463,10.477929136535808,-1.0094919636813866,0.4651224465384269,1.2961399570805605,0.0,0.0,0.0,0.0,0.0,0.0,0.0,0.0,0.0,0.0,0.0,0.0,0.0,0.0,0.0
2.6679117679595947,10.476838135405904,-1.0091790532902445,0.4693243571784041,1.2979301014953477,0.0,0.0,0.0,0.0,0.0,0.0,0.0,0.0,0.0,0.0,0.0,0.0,0.0,0.0,0.0
2.677973508834839,10.44215657093442,-0.25397938011167626,0.7313573797721485,1.1245113882502211,0.0,0.0,0.0,0.0,0.0,0.0,0.0,0.0,0.0,0.0,0.0,0.0,0.0,0.0,0.0
2.688145637512207,10.45983149051673,-1.0184293482945672,0.46367255958834125,1.3031146341398803,0.0,0.0,0.0,0.0,0.0,0.0,0.0,0.0,0.0,0.0,0.0,0.0,0.0,0.0,0.0
2.6982269287109375,10.441679826163606,-1.0321417371944266,0.4543575006194449,1.3063721907153067,0.0,0.0,0.0,0.0,0.0,0.0,0.0,0.0,0.0,0.0,0.0,0.0,0.0,0.0,0.0
2.7083637714385986,10.441294017023399,-1.0336654840283304,0.45478119668117095,1.3087219184721879,0.0,0.0,0.0,0.0,0.0,0.0,0.0,0.0,0.0,0.0,0.0,0.0,0.0,0.0,0.0
2.718517303466797,10.446814577751484,-1.0346283599174206,0.45891707988992225,1.3109865397145832,0.0,0.0,0.0,0.0,0.0,0.0,0.0,0.0,0.0,0.0,0.0,0.0,0.0,0.0,0.0
2.728675127029419,10.444759117625871,-1.0358466235882309,0.4585957244812765,1.313993351708226,0.0,0.0,0.0,0.0,0.0,0.0,0.0,0.0,0.0,0.0,0.0,0.0,0.0,0.0,0.0
2.7388248443603516,10.437449270182704,-1.0398334092082322,0.45806779807157566,1.3172518514736264,0.0,0.0,0.0,0.0,0.0,0.0,0.0,0.0,0.0,0.0,0.0,0.0,0.0,0.0,0.0
2.748960256576538,10.427010287053573,-1.0490742677113754,0.45226236719658264,1.319976852160552,0.0,0.0,0.0,0.0,0.0,0.0,0.0,0.0,0.0,0.0,0.0,0.0,0.0,0.0,0.0
2.7590932846069336,10.427590718226638,-1.0464269437371476,0.45632622865852357,1.3229914640303613,0.0,0.0,0.0,0.0,0.0,0.0,0.0,0.0,0.0,0.0,0.0,0.0,0.0,0.0,0.0
2.7693123817443848,10.423117221676607,-1.0534827854213376,0.45313172706563704,1.325239334309639,0.0,0.0,0.0,0.0,0.0,0.0,0.0,0.0,0.0,0.0,0.0,0.0,0.0,0.0,0.0
2.7794435024261475,10.369764627641555,-1.0810642834939206,0.42927300839629584,1.3298117119142945,0.0,0.0,0.0,0.0,0.0,0.0,0.0,0.0,0.0,0.0,0.0,0.0,0.0,0.0,0.0
2.789605140686035,10.385173770737516,-1.0779308911716279,0.4378918783789046,1.3311873846949525,0.0,0.0,0.0,0.0,0.0,0.0,0.0,0.0,0.0,0.0,0.0,0.0,0.0,0.0,0.0
2.79974627494812,10.389449728311593,-1.0759741683447885,0.4401684332104914,1.3334661208690748,0.0,0.0,0.0,0.0,0.0,0.0,0.0,0.0,0.0,0.0,0.0,0.0,0.0,0.0,0.0
2.8098580837249756,10.375580547527461,-1.0827229808682832,0.43631670197053807,1.3364143083059858,0.0,0.0,0.0,0.0,0.0,0.0,0.0,0.0,0.0,0.0,0.0,0.0,0.0,0.0,0.0
2.8200228214263916,10.38942339424492,-1.0806619590805364,0.44281173538049146,1.3389882028294047,0.0,0.0,0.0,0.0,0.0,0.0,0.0,0.0,0.0,0.0,0.0,0.0,0.0,0.0,0.0
2.8302149772644043,10.372986958907054,-0.3106114569466098,0.7158810320779797,1.1638835818280382,0.0,0.0,0.0,0.0,0.0,0.0,0.0,0.0,0.0,0.0,0.0,0.0,0.0,0.0,0.0
2.8402860164642334,10.297951798456822,-1.1300136924735766,0.39617648823085116,1.3456316544363536,0.0,0.0,0.0,0.0,0.0,0.0,0.0,0.0,0.0,0.0,0.0,0.0,0.0,0.0,0.0
2.8504161834716797,10.371181717535885,-1.0904010443601304,0.4384376807918015,1.3468993784723442,0.0,0.0,0.0,0.0,0.0,0.0,0.0,0.0,0.0,0.0,0.0,0.0,0.0,0.0,0.0
2.8606178760528564,10.375233981466451,-1.091584344166968,0.44116916533151823,1.34854700505302,0.0,0.0,0.0,0.0,0.0,0.0,0.0,0.0,0.0,0.0,0.0,0.0,0.0,0.0,0.0
2.870720863342285,10.330681788568718,-1.1179517880128516,0.4188760976530567,1.3527617153158933,0.0,0.0,0.0,0.0,0.0,0.0,0.0,0.0,0.0,0.0,0.0,0.0,0.0,0.0,0.0
2.880859613418579,10.361564149892265,-1.101855343172273,0.4367306661482851,1.3539268445907346,0.0,0.0,0.0,0.0,0.0,0.0,0.0,0.0,0.0,0.0,0.0,0.0,0.0,0.0,0.0
2.8910233974456787,10.358433023505526,-1.1032757110761138,0.4382687252650761,1.3576396414088365,0.0,0.0,0.0,0.0,0.0,0.0,0.0,0.0,0.0,0.0,0.0,0.0,0.0,0.0,0.0
2.901169538497925,10.33918655122291,-1.1172122729432243,0.43021103124391347,1.360244763402606,0.0,0.0,0.0,0.0,0.0,0.0,0.0,0.0,0.0,0.0,0.0,0.0,0.0,0.0,0.0
2.9113032817840576,10.344169540725396,-1.11743738519486,0.4319347351565555,1.3625602380189545,0.0,0.0,0.0,0.0,0.0,0.0,0.0,0.0,0.0,0.0,0.0,0.0,0.0,0.0,0.0
2.9214770793914795,10.342983924149827,-1.1216178093844766,0.43292138435986616,1.3654992629644704,0.0,0.0,0.0,0.0,0.0,0.0,0.0,0.0,0.0,0.0,0.0,0.0,0.0,0.0,0.0
2.9315974712371826,10.287879488568615,-1.1510964977633176,0.40688976395329185,1.3701826541839086,0.0,0.0,0.0,0.0,0.0,0.0,0.0,0.0,0.0,0.0,0.0,0.0,0.0,0.0,0.0
2.941732168197632,10.308420454772945,-1.1398099896417382,0.42041765800515535,1.3718760704378572,0.0,0.0,0.0,0.0,0.0,0.0,0.0,0.0,0.0,0.0,0.0,0.0,0.0,0.0,0.0
2.9518911838531494,10.327056229485171,-1.1332082950453992,0.429564803057805,1.3725246982138017,0.0,0.0,0.0,0.0,0.0,0.0,0.0,0.0,0.0,0.0,0.0,0.0,0.0,0.0,0.0
2.962026357650757,10.313848728591935,-1.1402025708667913,0.4254529049230925,1.3771711767267047,0.0,0.0,0.0,0.0,0.0,0.0,0.0,0.0,0.0,0.0,0.0,0.0,0.0,0.0,0.0
2.972163438796997,10.30894338838449,-1.1448537310564282,0.4222846435759065,1.3788497606977301,0.0,0.0,0.0,0.0,0.0,0.0,0.0,0.0,0.0,0.0,0.0,0.0,0.0,0.0,0.0
2.982342004776001,10.304308131970481,-1.1499727924563221,0.42307918558277025,1.3820090791427397,0.0,0.0,0.0,0.0,0.0,0.0,0.0,0.0,0.0,0.0,0.0,0.0,0.0,0.0,0.0
2.9924590587615967,10.254227115975734,-1.1787956252897567,0.39647302100038007,1.385424673557051,0.0,0.0,0.0,0.0,0.0,0.0,0.0,0.0,0.0,0.0,0.0,0.0,0.0,0.0,0.0
3.0025887489318848,10.281631484697252,-1.1659665152500431,0.41164443398093964,1.3882893436592243,0.0,0.0,0.0,0.0,0.0,0.0,0.0,0.0,0.0,0.0,0.0,0.0,0.0,0.0,0.0
3.012723922729492,10.294816270285098,-1.1617837511079874,0.4193838910522156,1.3907357321052771,0.0,0.0,0.0,0.0,0.0,0.0,0.0,0.0,0.0,0.0,0.0,0.0,0.0,0.0,0.0
3.0228688716888428,10.287499778070984,-1.1698499982496633,0.4157038665613253,1.3930076723001454,0.0,0.0,0.0,0.0,0.0,0.0,0.0,0.0,0.0,0.0,0.0,0.0,0.0,0.0,0.0
3.032998561859131,10.275281634024697,-1.1725946922437527,0.41595258012334785,1.3955738421343267,0.0,0.0,0.0,0.0,0.0,0.0,0.0,0.0,0.0,0.0,0.0,0.0,0.0,0.0,0.0
3.043135643005371,10.286700183978217,-0.4021217378184263,0.690608788760236,1.2192188669015265,0.0,0.0,0.0,0.0,0.0,0.0,0.0,0.0,0.0,0.0,0.0,0.0,0.0,0.0,0.0
3.0532889366149902,10.27495353232511,-1.1810490625630394,0.41249369511840206,1.3999194286601715,0.0,0.0,0.0,0.0,0.0,0.0,0.0,0.0,0.0,0.0,0.0,0.0,0.0,0.0,0.0
3.06343936920166,10.260782075568915,-1.1896467391918744,0.40694559890469506,1.4035940772400475,0.0,0.0,0.0,0.0,0.0,0.0,0.0,0.0,0.0,0.0,0.0,0.0,0.0,0.0,0.0
3.0736374855041504,10.265596165438287,-1.1877455897646214,0.41220054890390234,1.406367000077671,0.0,0.0,0.0,0.0,0.0,0.0,0.0,0.0,0.0,0.0,0.0,0.0,0.0,0.0,0.0
3.0837960243225098,10.255051173186573,-1.1958576219584125,0.406669474945811,1.4096134638887798,0.0,0.0,0.0,0.0,0.0,0.0,0.0,0.0,0.0,0.0,0.0,0.0,0.0,0.0,0.0
3.093869924545288,10.244728222375151,-1.1999894280980101,0.4045007763750241,1.4116081611616877,0.0,0.0,0.0,0.0,0.0,0.0,0.0,0.0,0.0,0.0,0.0,0.0,0.0,0.0,0.0
3.1040470600128174,10.250982139118062,-1.2015084759490497,0.41075930916419373,1.4150930452560988,0.0,0.0,0.0,0.0,0.0,0.0,0.0,0.0,0.0,0.0,0.0,0.0,0.0,0.0,0.0
3.1141865253448486,10.2420396554111,-1.20855014413799,0.40380160406325866,1.4182876291962534,0.0,0.0,0.0,0.0,0.0,0.0,0.0,0.0,0.0,0.0,0.0,0.0,0.0,0.0,0.0
3.1243276596069336,10.230372111368471,-1.215806474504853,0.3978253724940245,1.420247856310753,0.0,0.0,0.0,0.0,0.0,0.0,0.0,0.0,0.0,0.0,0.0,0.0,0.0,0.0,0.0
3.134474039077759,10.234866540877949,-1.2158050252091053,0.4039288524440445,1.4225263611552306,0.0,0.0,0.0,0.0,0.0,0.0,0.0,0.0,0.0,0.0,0.0,0.0,0.0,0.0,0.0
3.1445388793945312,10.22800662806656,-1.221789892125084,0.3986123281810959,1.425904230949759,0.0,0.0,0.0,0.0,0.0,0.0,0.0,0.0,0.0,0.0,0.0,0.0,0.0,0.0,0.0
3.154705762863159,10.22127135517828,-1.2267105887749026,0.4028940707038462,1.4285441667258083,0.0,0.0,0.0,0.0,0.0,0.0,0.0,0.0,0.0,0.0,0.0,0.0,0.0,0.0,0.0
3.164910078048706,10.204760978327013,-1.2373357122123627,0.39233730444650633,1.4315956195475705,0.0,0.0,0.0,0.0,0.0,0.0,0.0,0.0,0.0,0.0,0.0,0.0,0.0,0.0,0.0
3.1750476360321045,10.186214708645648,-1.248708187521872,0.38051013048316173,1.4347533274429916,0.0,0.0,0.0,0.0,0.0,0.0,0.0,0.0,0.0,0.0,0.0,0.0,0.0,0.0,0.0
3.185203790664673,10.202303672400152,-1.240071550322381,0.3933842171897715,1.4361412950777774,0.0,0.0,0.0,0.0,0.0,0.0,0.0,0.0,0.0,0.0,0.0,0.0,0.0,0.0,0.0
3.195326805114746,10.192813900820667,-1.2506457609052353,0.39033588312044776,1.4397520930482315,0.0,0.0,0.0,0.0,0.0,0.0,0.0,0.0,0.0,0.0,0.0,0.0,0.0,0.0,0.0
3.205496072769165,10.19478108371859,-1.2476923876045722,0.3915469360958974,1.4415694954543452,0.0,0.0,0.0,0.0,0.0,0.0,0.0,0.0,0.0,0.0,0.0,0.0,0.0,0.0,0.0
3.2156102657318115,10.160763382041312,-1.2710150908821476,0.3716683048853857,1.4456157030003645,0.0,0.0,0.0,0.0,0.0,0.0,0.0,0.0,0.0,0.0,0.0,0.0,0.0,0.0,0.0
3.2257375717163086,10.18223468003498,-1.2623966590672275,0.3872773852082304,1.4471711452097036,0.0,0.0,0.0,0.0,0.0,0.0,0.0,0.0,0.0,0.0,0.0,0.0,0.0,0.0,0.0
3.235870361328125,10.179101847829205,-1.2637044479649837,0.3873312412830909,1.4500300468337777,0.0,0.0,0.0,0.0,0.0,0.0,0.0,0.0,0.0,0.0,0.0,0.0,0.0,0.0,0.0
3.246035575866699,10.177108491020695,-1.2645462206589664,0.3890263518828977,1.4532131092937932,0.0,0.0,0.0,0.0,0.0,0.0,0.0,0.0,0.0,0.0,0.0,0.0,0.0,0.0,0.0
3.2561633586883545,10.138055398058823,-1.2923821096861534,0.3677927099293135,1.4561709357371648,0.0,0.0,0.0,0.0,0.0,0.0,0.0,0.0,0.0,0.0,0.0,0.0,0.0,0.0,0.0
3.266292095184326,10.163832667686124,-1.274902171111294,0.38617829133437437,1.4579423607860795,0.0,0.0,0.0,0.0,0.0,0.0,0.0,0.0,0.0,0.0,0.0,0.0,0.0,0.0,0.0
3.2764344215393066,10.163035792390382,-1.2788066026713867,0.3877061107678412,1.4607575695604909,0.0,0.0,0.0,0.0,0.0,0.0,0.0,0.0,0.0,0.0,0.0,0.0,0.0,0.0,0.0
3.2865774631500244,10.151931661327001,-1.2847437005393902,0.38331056000455366,1.4635819327738409,0.0,0.0,0.0,0.0,0.0,0.0,0.0,0.0,0.0,0.0,0.0,0.0,0.0,0.0,0.0
3.296726942062378,10.14866059223108,-1.2911843247252952,0.3790612499445372,1.4664632624537364,0.0,0.0,0.0,0.0,0.0,0.0,0.0,0.0,0.0,0.0,0.0,0.0,0.0,0.0,0.0
3.306873083114624,10.14492870239249,-1.2949628569264786,0.3792357172442774,1.4691201318526483,0.0,0.0,0.0,0.0,0.0,0.0,0.0,0.0,0.0,0.0,0.0,0.0,0.0,0.0,0.0
3.3169667720794678,10.082371130335211,-1.3337266105149705,0.3450010433655662,1.4735380167692127,0.0,0.0,0.0,0.0,0.0,0.0,0.0,0.0,0.0,0.0,0.0,0.0,0.0,0.0,0.0
3.327112913131714,10.132257831259574,-1.3049755494688182,0.3750384690403985,1.4738447544419762,0.0,0.0,0.0,0.0,0.0,0.0,0.0,0.0,0.0,0.0,0.0,0.0,0.0,0.0,0.0
3.337265968322754,10.139719329206685,-0.5185044665547924,0.6958560839479766,1.2958439783346207,0.0,0.0,0.0,0.0,0.0,0.0,0.0,0.0,0.0,0.0,0.0,0.0,0.0,0.0,0.0
3.3474016189575195,10.120831130761545,-1.3117815816722684,0.37153187782476993,1.4791890299198698,0.0,0.0,0.0,0.0,0.0,0.0,0.0,0.0,0.0,0.0,0.0,0.0,0.0,0.0,0.0
3.357606887817383,10.119121177706292,-1.3155590250900078,0.37247391743851105,1.4821519216646382,0.0,0.0,0.0,0.0,0.0,0.0,0.0,0.0,0.0,0.0,0.0,0.0,0.0,0.0,0.0
3.367732286453247,10.084602058491573,-1.336497195354999,0.35550356900483054,1.4849903225085461,0.0,0.0,0.0,0.0,0.0,0.0,0.0,0.0,0.0,0.0,0.0,0.0,0.0,0.0,0.0
3.3777902126312256,10.024754217193898,-1.3741574479275827,0.3226009181194449,1.4891864016531562,0.0,0.0,0.0,0.0,0.0,0.0,0.0,0.0,0.0,0.0,0.0,0.0,0.0,0.0,0.0
3.3879342079162598,10.076937830795076,-1.3443555568764187,0.3539377707210463,1.4902895613150313,0.0,0.0,0.0,0.0,0.0,0.0,0.0,0.0,0.0,0.0,0.0,0.0,0.0,0.0,0.0
3.39805006980896,10.091513417121833,-1.3396654039966425,0.36479551114364894,1.4947645790249369,0.0,0.0,0.0,0.0,0.0,0.0,0.0,0.0,0.0,0.0,0.0,0.0,0.0,0.0,0.0
3.408201217651367,10.098311874980908,-1.333653884367668,0.36952742764377644,1.496344828718631,0.0,0.0,0.0,0.0,0.0,0.0,0.0,0.0,0.0,0.0,0.0,0.0,0.0,0.0,0.0
3.4183013439178467,10.082636530056433,-1.3471610584763174,0.36176561963932213,1.4990251853362804,0.0,0.0,0.0,0.0,0.0,0.0,0.0,0.0,0.0,0.0,0.0,0.0,0.0,0.0,0.0
3.428428888320923,10.087827936855623,-1.3462413191120812,0.3647510115687073,1.5014185779205032,0.0,0.0,0.0,0.0,0.0,0.0,0.0,0.0,0.0,0.0,0.0,0.0,0.0,0.0,0.0
3.4385595321655273,10.08465520148369,-1.3497319144272903,0.3644386953671727,1.5040210719337965,0.0,0.0,0.0,0.0,0.0,0.0,0.0,0.0,0.0,0.0,0.0,0.0,0.0,0.0,0.0
3.448651075363159,10.070314355101802,-1.3549902484246847,0.36096004268633364,1.5071133767597267,0.0,0.0,0.0,0.0,0.0,0.0,0.0,0.0,0.0,0.0,0.0,0.0,0.0,0.0,0.0
3.4587483406066895,10.071297934248205,-1.3564481771681394,0.363112795975145,1.5092113190825938,0.0,0.0,0.0,0.0,0.0,0.0,0.0,0.0,0.0,0.0,0.0,0.0,0.0,0.0,0.0
3.4689133167266846,10.07199834150307,-1.360991984510611,0.36314383003789674,1.5124587862339858,0.0,0.0,0.0,0.0,0.0,0.0,0.0,0.0,0.0,0.0,0.0,0.0,0.0,0.0,0.0
3.478961706161499,10.046860426622954,-1.3735612292681902,0.3508637611309793,1.5154373396648064,0.0,0.0,0.0,0.0,0.0,0.0,0.0,0.0,0.0,0.0,0.0,0.0,0.0,0.0,0.0
3.4891040325164795,10.065747117780013,-0.5850049645108991,0.6341984716137139,1.3352353972008637,0.0,0.0,0.0,0.0,0.0,0.0,0.0,0.0,0.0,0.0,0.0,0.0,0.0,0.0,0.0
3.4992191791534424,10.052895735920119,-1.3729536850907638,0.3603950364122395,1.5191093680210763,0.0,0.0,0.0,0.0,0.0,0.0,0.0,0.0,0.0,0.0,0.0,0.0,0.0,0.0,0.0
3.509314775466919,10.03535180251257,-1.3865466923108123,0.34769976413731984,1.5231761607865173,0.0,0.0,0.0,0.0,0.0,0.0,0.0,0.0,0.0,0.0,0.0,0.0,0.0,0.0,0.0
3.519444704055786,10.03176158777765,-1.3891228676793472,0.3498094164006089,1.5254287502268853,0.0,0.0,0.0,0.0,0.0,0.0,0.0,0.0,0.0,0.0,0.0,0.0,0.0,0.0,0.0
3.5295345783233643,10.040263757806516,-1.387475239784855,0.354227232863738,1.5278677814915933,0.0,0.0,0.0,0.0,0.0,0.0,0.0,0.0,0.0,0.0,0.0,0.0,0.0,0.0,0.0
3.5396158695220947,10.026452170485546,-1.3956276808800958,0.34835171592519476,1.5305536474721788,0.0,0.0,0.0,0.0,0.0,0.0,0.0,0.0,0.0,0.0,0.0,0.0,0.0,0.0,0.0
3.549652338027954,9.996581959748482,-1.4165180119423824,0.33176267236034507,1.5342522098622557,0.0,0.0,0.0,0.0,0.0,0.0,0.0,0.0,0.0,0.0,0.0,0.0,0.0,0.0,0.0
3.5599160194396973,10.024648166696027,-1.400562243259216,0.35079864209408795,1.5363548575944315,0.0,0.0,0.0,0.0,0.0,0.0,0.0,0.0,0.0,0.0,0.0,0.0,0.0,0.0,0.0
3.5699076652526855,9.816538651273769,-1.527189700729776,0.23709032337695168,1.5445359958126308,0.0,0.0,0.0,0.0,0.0,0.0,0.0,0.0,0.0,0.0,0.0,0.0,0.0,0.0,0.0
3.580038070678711,9.944323133944904,-1.4502118641796515,0.3095626249417439,1.5438965229745008,0.0,0.0,0.0,0.0,0.0,0.0,0.0,0.0,0.0,0.0,0.0,0.0,0.0,0.0,0.0
3.590101480484009,9.969647718972606,-1.4372809901521546,0.3244120046046637,1.5454831357671373,0.0,0.0,0.0,0.0,0.0,0.0,0.0,0.0,0.0,0.0,0.0,0.0,0.0,0.0,0.0
3.6002721786499023,9.99626223921212,-1.4227026681447223,0.3419685158325013,1.5464637036494513,0.0,0.0,0.0,0.0,0.0,0.0,0.0,0.0,0.0,0.0,0.0,0.0,0.0,0.0,0.0
3.610369920730591,9.952189019805507,-1.450702793938057,0.31675339650205686,1.5511094332307809,0.0,0.0,0.0,0.0,0.0,0.0,0.0,0.0,0.0,0.0,0.0,0.0,0.0,0.0,0.0
3.6205594539642334,9.99351266298563,-1.426650812482414,0.342439094103538,1.5525487604697676,0.0,0.0,0.0,0.0,0.0,0.0,0.0,0.0,0.0,0.0,0.0,0.0,0.0,0.0,0.0
3.630692481994629,9.93628568897073,-1.4626555987575969,0.3138356842376479,1.5561107504495109,0.0,0.0,0.0,0.0,0.0,0.0,0.0,0.0,0.0,0.0,0.0,0.0,0.0,0.0,0.0
3.640789270401001,9.936834929549049,-1.4649937510241078,0.3141444150772948,1.5596220632583584,0.0,0.0,0.0,0.0,0.0,0.0,0.0,0.0,0.0,0.0,0.0,0.0,0.0,0.0,0.0
3.650918483734131,9.97718836919804,-1.4412604386202956,0.33769456046841,1.5602316290455485,0.0,0.0,0.0,0.0,0.0,0.0,0.0,0.0,0.0,0.0,0.0,0.0,0.0,0.0,0.0
3.6611006259918213,9.978026119080276,-1.4418553886198844,0.34189097048787437,1.5631215562164114,0.0,0.0,0.0,0.0,0.0,0.0,0.0,0.0,0.0,0.0,0.0,0.0,0.0,0.0,0.0
3.6712119579315186,9.92758734743859,-1.474815010124021,0.3120369949467693,1.5677388760713316,0.0,0.0,0.0,0.0,0.0,0.0,0.0,0.0,0.0,0.0,0.0,0.0,0.0,0.0,0.0
3.6825294494628906,9.96234827781063,-1.4562003632038376,0.33515329666351157,1.5688712190535132,0.0,0.0,0.0,0.0,0.0,0.0,0.0,0.0,0.0,0.0,0.0,0.0,0.0,0.0,0.0
3.692599296569824,4.9,-4.927059725911339,-2.931751236316959,1.7222453670934248,0.0,0.0,0.0,0.0,0.0,0.0,0.0,0.0,0.0,0.0,0.0,0.0,0.0,0.0,0.0
3.702648162841797,5.910930496796306,-3.8508658354091674,-1.9132657747998594,1.6785088187623525,0.0,0.0,0.0,0.0,0.0,0.0,0.0,0.0,0.0,0.0,0.0,0.0,0.0,0.0,0.0
3.713092088699341,6.365018273002714,-3.5804969662411694,-1.655209762832857,1.6686325931079256,0.0,0.0,0.0,0.0,0.0,0.0,0.0,0.0,0.0,0.0,0.0,0.0,0.0,0.0,0.0
3.7230894565582275,4.9,-4.7037664451096015,-2.705780224863699,1.7187286148589234,0.0,0.0,0.0,0.0,0.0,0.0,0.0,0.0,0.0,0.0,0.0,0.0,0.0,0.0,0.0
3.7334625720977783,5.596441903816149,-4.029448894170707,-2.065988711775726,1.6935789111767545,0.0,0.0,0.0,0.0,0.0,0.0,0.0,0.0,0.0,0.0,0.0,0.0,0.0,0.0,0.0
3.743645191192627,4.9,-4.49984898310709,-2.5045955336757606,1.7160274678898684,0.0,0.0,0.0,0.0,0.0,0.0,0.0,0.0,0.0,0.0,0.0,0.0,0.0,0.0,0.0
3.7539849281311035,4.965563370500943,-4.397686974174755,-2.4042001679725957,1.7137993899376096,0.0,0.0,0.0,0.0,0.0,0.0,0.0,0.0,0.0,0.0,0.0,0.0,0.0,0.0,0.0
3.7639739513397217,4.9,-4.758948622846847,-3.016112431940008,1.3995012655689674,0.0,0.0,0.0,0.0,0.0,0.0,0.0,0.0,0.0,0.0,0.0,0.0,0.0,0.0,0.0
3.7740731239318848,4.989116806711343,-4.383136426219644,-2.375825128944146,1.7184110595409237,0.0,0.0,0.0,0.0,0.0,0.0,0.0,0.0,0.0,0.0,0.0,0.0,0.0,0.0,0.0
3.784482955932617,5.647827471073347,-3.9884480459216753,-2.005101560811212,1.702802644590272,0.0,0.0,0.0,0.0,0.0,0.0,0.0,0.0,0.0,0.0,0.0,0.0,0.0,0.0,0.0
3.794403553009033,4.9,-5.026369051353075,-2.969863523487493,1.7497877380547129,0.0,0.0,0.0,0.0,0.0,0.0,0.0,0.0,0.0,0.0,0.0,0.0,0.0,0.0,0.0
3.804722309112549,6.053343786298621,-3.735706502552351,-1.761458945393634,1.6968618163457234,0.0,0.0,0.0,0.0,0.0,0.0,0.0,0.0,0.0,0.0,0.0,0.0,0.0,0.0,0.0
3.8147268295288086,5.079613048547024,-4.304333142028158,-2.291300772991891,1.722861119715147,0.0,0.0,0.0,0.0,0.0,0.0,0.0,0.0,0.0,0.0,0.0,0.0,0.0,0.0,0.0
3.825026512145996,6.316524092551628,-3.5719475294180283,-1.600085786689023,1.694631210628629,0.0,0.0,0.0,0.0,0.0,0.0,0.0,0.0,0.0,0.0,0.0,0.0,0.0,0.0,0.0
3.8350892066955566,5.584190325722007,-4.0004322879187235,-1.9971109328934107,1.7169092370001506,0.0,0.0,0.0,0.0,0.0,0.0,0.0,0.0,0.0,0.0,0.0,0.0,0.0,0.0,0.0
3.845801591873169,6.368468429579963,-3.5322184266278427,-1.5564761972878376,1.6983122778620106,0.0,0.0,0.0,0.0,0.0,0.0,0.0,0.0,0.0,0.0,0.0,0.0,0.0,0.0,0.0
3.8555142879486084,4.9,-5.906009509733375,-3.767277082940184,1.8033136997506893,0.0,0.0,0.0,0.0,0.0,0.0,0.0,0.0,0.0,0.0,0.0,0.0,0.0,0.0,0.0
3.865938425064087,5.993917835329496,-3.7436282329265276,-1.7465175039799297,1.7131476009071456,0.0,0.0,0.0,0.0,0.0,0.0,0.0,0.0,0.0,0.0,0.0,0.0,0.0,0.0,0.0
3.876120090484619,4.9,-4.592305234123304,-2.536310603043018,1.7515816386238612,0.0,0.0,0.0,0.0,0.0,0.0,0.0,0.0,0.0,0.0,0.0,0.0,0.0,0.0,0.0
3.8861119747161865,4.9,-4.528478782836334,-2.474680589251207,1.7522054410338195,0.0,0.0,0.0,0.0,0.0,0.0,0.0,0.0,0.0,0.0,0.0,0.0,0.0,0.0,0.0
3.896456003189087,5.972412998760896,-3.7376983684052854,-1.7357451070537455,1.7183346477527213,0.0,0.0,0.0,0.0,0.0,0.0,0.0,0.0,0.0,0.0,0.0,0.0,0.0,0.0,0.0
3.906667470932007,5.049597644913969,-4.27787502206484,-2.232485099097678,1.7460388679686134,0.0,0.0,0.0,0.0,0.0,0.0,0.0,0.0,0.0,0.0,0.0,0.0,0.0,0.0,0.0
3.916757345199585,5.084645415655628,-4.2561798611354495,-2.2089660346251008,1.7485464419927785,0.0,0.0,0.0,0.0,0.0,0.0,0.0,0.0,0.0,0.0,0.0,0.0,0.0,0.0,0.0
3.9270174503326416,5.704768997321543,-3.886803311618311,-1.8629915892451445,1.7342558454012296,0.0,0.0,0.0,0.0,0.0,0.0,0.0,0.0,0.0,0.0,0.0,0.0,0.0,0.0,0.0
3.9365594387054443,5.212892463110984,-4.171328775113785,-2.1229369971146848,1.7487058345268331,0.0,0.0,0.0,0.0,0.0,0.0,0.0,0.0,0.0,0.0,0.0,0.0,0.0,0.0,0.0
3.9462528228759766,8.38741335009243,-2.305266579416773,-0.3835875546144784,1.6713713573831745,0.0,0.0,0.0,0.0,0.0,0.0,0.0,0.0,0.0,0.0,0.0,0.0,0.0,0.0,0.0
3.957089424133301,9.237391374580984,-1.8102741238487827,0.0817134538340908,1.6514164822250907,0.0,0.0,0.0,0.0,0.0,0.0,0.0,0.0,0.0,0.0,0.0,0.0,0.0,0.0,0.0
3.9675638675689697,7.412243198745509,-2.1563518752160737,-0.6229220735741684,1.4561609705906866,0.0,0.0,0.0,0.0,0.0,0.0,0.0,0.0,0.0,0.0,0.0,0.0,0.0,0.0,0.0
3.978091239929199,6.025571294682976,-3.6882073187353788,-1.661209250110868,1.7371901490406552,0.0,0.0,0.0,0.0,0.0,0.0,0.0,0.0,0.0,0.0,0.0,0.0,0.0,0.0,0.0
3.9878334999084473,4.9,-4.945002443594975,-2.824443599095662,1.7931020937612205,0.0,0.0,0.0,0.0,0.0,0.0,0.0,0.0,0.0,0.0,0.0,0.0,0.0,0.0,0.0
3.9982120990753174,6.707342233413407,-3.2887472861655116,-1.2781168268811456,1.7250417771015834,0.0,0.0,0.0,0.0,0.0,0.0,0.0,0.0,0.0,0.0,0.0,0.0,0.0,0.0,0.0
4.008435487747192,5.815441329718947,-3.808847209425069,-1.7591317371180344,1.750412921211992,0.0,0.0,0.0,0.0,0.0,0.0,0.0,0.0,0.0,0.0,0.0,0.0,0.0,0.0,0.0
4.018468379974365,5.783617603203375,-3.82407884537197,-1.7680522664335043,1.7531847081502905,0.0,0.0,0.0,0.0,0.0,0.0,0.0,0.0,0.0,0.0,0.0,0.0,0.0,0.0,0.0
4.028712749481201,6.376321427393469,-3.4759463327872413,-1.4407757926573652,1.7414859356794212,0.0,0.0,0.0,0.0,0.0,0.0,0.0,0.0,0.0,0.0,0.0,0.0,0.0,0.0,0.0
4.038636684417725,6.362856881233505,-3.483825510268731,-1.444296248478998,1.7436347910768777,0.0,0.0,0.0,0.0,0.0,0.0,0.0,0.0,0.0,0.0,0.0,0.0,0.0,0.0,0.0
4.048862934112549,7.21569669053604,-2.9822629855489264,-0.975200648082456,1.7246182134534391,0.0,0.0,0.0,0.0,0.0,0.0,0.0,0.0,0.0,0.0,0.0,0.0,0.0,0.0,0.0
