T,input Acc,input Wb1,input Wb2,input Wb3,Px,Py,Pz,Vx,Vy,Vz,Roll,Pitch,Yaw,R_rate,P_rate,Y_rate,Wb1,Wb2,Wb3
0,0.0,0.0,0.0,0.0,0.0,0.0,0.4,0.0,0.0,0.0,0.0,0.0,0.0,0.0,0.0,0.0,0.0,0.0,0.0
0.00020384788513183594,9.186350213214755,0.052234747580914016,-0.048040635135738724,-0.12755268543012482,0.0,0.0,0.4,-0.11165612563490868,-0.20806299895048141,0.5931751066073776,0.020053916515889343,-0.012466493156233079,0.0,0.0,0.0,0.0,0.0,0.0,0.0
0.005644559860229492,9.613727735636536,0.000525118506405416,-0.00039920092853506156,-0.0007092815535831917,0.0,0.0,0.4,-0.000619089250865966,-0.0011530611677467476,0.8075104616638017,0.00020048248340529546,-0.00010773251852509231,0.0,0.0,0.0,0.0,0.0,0.0,0.0
0.011052608489990234,9.606363438948623,0.0027443953715890423,-0.001926547984868859,-0.0033935636785170074,0.0,0.0,0.4,-0.0029584335131889114,-0.005509701529336624,0.8080679873016149,0.0011938426348398863,-0.0006436359248278556,0.0,0.0,0.0,0.0,0.0,0.0,0.0
0.016423702239990234,9.57346290734725,0.008263992709746003,-0.00552834381967478,-0.008310524458280672,0.0,0.0,0.4,-0.00724235315202374,-0.01348804333193536,0.8049110615953132,0.0037363254452604275,-0.002026241603436844,0.0,0.0,0.0,0.0,0.0,0.0,0.0
0.021785974502563477,9.506233205504042,0.018236440233066153,-0.011826630822276512,-0.014902883786709707,0.0,0.0,0.4,-0.012988203291490223,-0.024190237243910773,0.7989306414122845,0.008422855934142907,-0.0046036464554367156,0.0,0.0,0.0,0.0,0.0,0.0,0.0
0.0271759033203125,9.4008106457799,0.03316432027532414,-0.02108910400071987,-0.022701636872817336,0.0,0.0,0.4,-0.019777995989961463,-0.03683650148587203,0.7909021569733277,0.015514187403787839,-0.008557996388495494,0.0,0.0,0.0,0.0,0.0,0.0,0.0
0.03248000144958496,9.258450504190687,0.052867758714911506,-0.03322892743167583,-0.03130693095215297,0.0,0.0,0.4,-0.027253881778763034,-0.05075898010721356,0.7814925192698436,0.024928705220596585,-0.013891089741141593,0.0,0.0,0.0,0.0,0.0,0.0,0.0
0.037825822830200195,9.083982152994114,0.07667062398024246,-0.04794060984068974,-0.04036791491185368,0.0,0.0,0.4,-0.035112975996377,-0.06539486649360408,0.7712678517748631,0.036349378643709365,-0.0204706279428452,0.0,0.0,0.0,0.0,0.0,0.0,0.0
0.043174028396606445,8.884524335120725,0.10360782573685741,-0.06473045790432456,-0.049598133426106604,0.0,0.0,0.4,-0.04310445920132019,-0.08027737382042424,0.7607001468454805,0.049312188175660146,-0.028069807290095353,0.0,0.0,0.0,0.0,0.0,0.0,0.0
0.04854297637939453,8.668440955549345,0.13257469960916235,-0.08297300051635444,-0.05876821984940627,0.0,0.0,0.4,-0.051025045368332134,-0.09502680683254161,0.7501750452961935,0.06327698491480367,-0.03640149670551923,0.0,0.0,0.0,0.0,0.0,0.0,0.0
0.053933143615722656,8.44451126314811,0.1624320002082648,-0.10201338959033894,-0.06768480139126098,0.0,0.0,0.4,-0.058713149195324235,-0.10934277708911591,0.7399992973738597,0.07768277364437601,-0.045146988314022994,0.0,0.0,0.0,0.0,0.0,0.0,0.0
0.05930757522583008,8.221294870147105,0.19209714938650513,-0.12119982139521066,-0.07619648376170304,0.0,0.0,0.4,-0.06604446185242947,-0.12299504543040189,0.7304093839309742,0.09198855243208552,-0.05398066424765358,0.0,0.0,0.0,0.0,0.0,0.0,0.0
0.06467437744140625,8.006669922072739,0.22060584261398347,-0.13986326840263352,-0.0842209625764295,0.0,0.0,0.4,-0.07292849582006404,-0.1358137601580398,0.7215809584608346,0.10570099396091466,-0.06259176540259745,0.0,0.0,0.0,0.0,0.0,0.0,0.0
0.07006239891052246,7.807524151892,0.24710846531991654,-0.15738741233896922,-0.09170614665717572,0.0,0.0,0.4,-0.07930272130166861,-0.14768077614118663,0.7136389476077893,0.11839339082154256,-0.07069893025497628,0.0,0.0,0.0,0.0,0.0,0.0,0.0
0.07542181015014648,7.629572236739879,0.27085592620962423,-0.17330811066492197,-0.0985707753434507,0.0,0.0,0.4,-0.08512625082734038,-0.1585219803320071,0.7066662150484009,0.1297180661017364,-0.0780573944892878,0.0,0.0,0.0,0.0,0.0,0.0,0.0
0.08079075813293457,7.477260907171276,0.2912792303314049,-0.18727372842976903,-0.10475630731388802,0.0,0.0,0.4,-0.09037856550583391,-0.1683013202254493,0.7007066113598963,0.13940938697654315,-0.08446801534006124,0.0,0.0,0.0,0.0,0.0,0.0,0.0
0.08615326881408691,7.353755052036236,0.30800134308811855,-0.19897760656163355,-0.11026094085691199,0.0,0.0,0.4,-0.09505731952903637,-0.17701328360615654,0.695772428702742,0.14728139370133309,-0.08978366247219705,0.0,0.0,0.0,0.0,0.0,0.0,0.0
0.09154248237609863,7.2609918986871715,0.3210192582068576,-0.2082089784746625,-0.11499301303731663,0.0,0.0,0.4,-0.09916850446268849,-0.18466628198384188,0.691853876695979,0.1532289697393815,-0.09389704082999001,0.0,0.0,0.0,0.0,0.0,0.0,0.0
0.09690165519714355,7.199765043605423,0.33042857297092143,-0.21488555516826996,-0.11888834655238587,0.0,0.0,0.4,-0.10272893346384236,-0.19129159407341123,0.6889189640824167,0.157215463784592,-0.09674853988426249,0.0,0.0,0.0,0.0,0.0,0.0,0.0
0.10226058959960938,7.169832214750105,0.3359599405853186,-0.21900362604410797,-0.12212746269491792,0.0,0.0,0.4,-0.1057738492058813,-0.1969581653836964,0.6869151301622116,0.15925411038488124,-0.09834681654773691,0.0,0.0,0.0,0.0,0.0,0.0,0.0
0.10765576362609863,7.170058795903371,0.3375203500236877,-0.22061285010288612,-0.12488071963117452,0.0,0.0,0.4,-0.10834360743125918,-0.2017416256650337,0.6857801195576337,0.1594139069842239,-0.09874059396387626,0.0,0.0,0.0,0.0,0.0,0.0,0.0
0.11303114891052246,7.198577904846942,0.33538023625932256,-0.21984907659620323,-0.12718321759512605,0.0,0.0,0.4,-0.11047607143622386,-0.2057116719120458,0.6854474487527069,0.15781708995472235,-0.09799849191678137,0.0,0.0,0.0,0.0,0.0,0.0,0.0
0.1184394359588623,7.25295140497635,0.32985634610754144,-0.216931445440553,-0.12905457261345765,0.0,0.0,0.4,-0.11221041009998663,-0.20894264198865184,0.6858467964495439,0.15462120890898692,-0.09621330304217421,0.0,0.0,0.0,0.0,0.0,0.0,0.0
0.12386322021484375,7.330322394885132,0.32132239895888537,-0.21209341782987773,-0.13053109550601547,0.0,0.0,0.4,-0.11358729576771184,-0.21151016203659448,0.686905505926804,0.1500074918581383,-0.09349755622676532,0.0,0.0,0.0,0.0,0.0,0.0,0.0
0.12922430038452148,7.42755635905973,0.31018848625003864,-0.205566408574331,-0.1316734152258766,0.0,0.0,0.4,-0.11464777952454258,-0.21348923644784165,0.6885513050662914,0.14417211746195305,-0.08997818978324246,0.0,0.0,0.0,0.0,0.0,0.0,0.0
0.13459229469299316,7.541366866460846,0.2968782287863355,-0.1976111176779864,-0.1325360697392944,0.0,0.0,0.4,-0.11543140382254954,-0.21495332701098507,0.6907133245684648,0.13732014107829799,-0.08578873430601575,0.0,0.0,0.0,0.0,0.0,0.0,0.0
0.1399989128112793,7.668422834780735,0.2818365153254208,-0.18850905230664128,-0.13314773698770202,0.0,0.0,0.4,-0.1159755958910837,-0.215972550543482,0.6933219615430263,0.12965965468000046,-0.0810630223973674,0.0,0.0,0.0,0.0,0.0,0.0,0.0
0.1453537940979004,7.805443752172991,0.2655010652030653,-0.17854568583978067,-0.1335255228976192,0.0,0.0,0.4,-0.1163159629191069,-0.21661268571598052,0.696311227261722,0.1213950974957605,-0.07593252496461021,0.0,0.0,0.0,0.0,0.0,0.0,0.0
0.1507260799407959,7.949280431377353,0.2482758300232721,-0.16800010817989966,-0.13369525213866978,0.0,0.0,0.4,-0.11648587680570598,-0.21693525898212065,0.6996201216503181,0.11272161032303236,-0.07052444072626904,0.0,0.0,0.0,0.0,0.0,0.0,0.0
0.1561594009399414,8.096982579893345,0.2305285357052318,-0.15711868874905432,-0.1336962393517915,0.0,0.0,0.4,-0.11651562086074549,-0.21699681107922048,0.7031933695131394,0.10382126327134553,-0.06495891020530606,0.0,0.0,0.0,0.0,0.0,0.0,0.0
0.16153979301452637,8.245850941141603,0.21259548715569793,-0.14612021686941773,-0.13357201212246927,0.0,0.0,0.4,-0.11643271354317103,-0.216848374090896,0.7069815408583078,0.09486068139177485,-0.05934609736395368,0.0,0.0,0.0,0.0,0.0,0.0,0.0
0.1668860912322998,8.39347032449807,0.19478905716828368,-0.13518223843799965,-0.13338228970095295,0.0,0.0,0.4,-0.11626166853507355,-0.21653540672998906,0.7109397166147027,0.08598872470772018,-0.053785023516483454,0.0,0.0,0.0,0.0,0.0,0.0,0.0
0.17216897010803223,8.537732906838347,0.17739047789563697,-0.12444553433506898,-0.13318823949739958,0.0,0.0,0.4,-0.11602416612778724,-0.2160978994056806,0.7150287070239008,0.07733569896339185,-0.048361767001676804,0.0,0.0,0.0,0.0,0.0,0.0,0.0
0.17756891250610352,8.676849224148114,0.1606323337423638,-0.11407854790375184,-0.13300753389001285,0.0,0.0,0.4,-0.11573843951964699,-0.2155711442863691,0.7192149802939037,0.06901375445284579,-0.043147415115841255,0.0,0.0,0.0,0.0,0.0,0.0,0.0
0.18290925025939941,8.809339105058182,0.14471650190790264,-0.10420450471177017,-0.13285443717124973,0.0,0.0,0.4,-0.1154194017407648,-0.21498505878377971,0.723466727709687,0.061115487893594264,-0.038200018400369004,0.0,0.0,0.0,0.0,0.0,0.0,0.0
0.18819069862365723,8.934023627731015,0.12981217443765505,-0.0948710993244182,-0.13274739102155128,0.0,0.0,0.4,-0.11508117777738043,-0.21436341284887594,0.7277566298157685,0.05371395957730062,-0.03356544994057602,0.0,0.0,0.0,0.0,0.0,0.0,0.0
0.19356203079223633,9.050010225827208,0.1160384924655372,-0.08616000401569945,-0.13268815859238262,0.0,0.0,0.4,-0.11473631146957503,-0.21372748500779487,0.7320621131483225,0.04686413299882711,-0.0292776762061942,0.0,0.0,0.0,0.0,0.0,0.0,0.0
0.1989576816558838,9.15666854743225,0.1034924439400768,-0.0781476529189084,-0.13269773289041203,0.0,0.0,0.4,-0.11439457777895294,-0.21309697380776632,0.7363623949251776,0.04060390259919463,-0.02536058287875032,0.0,0.0,0.0,0.0,0.0,0.0,0.0
0.20424580574035645,9.253611135938822,0.09226460634724587,-0.07084467694658068,-0.13278131913138075,0.0,0.0,0.4,-0.114064563578048,-0.21248645485326476,0.7406408544450491,0.03495604006404295,-0.021828105794397496,0.0,0.0,0.0,0.0,0.0,0.0,0.0
0.20960307121276855,9.340662197056885,0.08245277624429756,-0.06421691705303877,-0.13287380891733055,0.0,0.0,0.4,-0.11375139001903421,-0.21190367653312508,0.744882246436757,0.029929546084527636,-0.01868428567235031,0.0,0.0,0.0,0.0,0.0,0.0,0.0
0.21496295928955078,9.41783234009637,0.07409589694843927,-0.058223624394486265,-0.13289552527739742,0.0,0.0,0.4,-0.11345573819862421,-0.21135303668001587,0.7490738394334124,0.02552004730017826,-0.015925279799520468,0.0,0.0,0.0,0.0,0.0,0.0,0.0
0.2203216552734375,9.48530532695145,0.0671125162733407,-0.05285647490174497,-0.1328272898585457,0.0,0.0,0.4,-0.11317975436053712,-0.21084082881727326,0.7532097521298863,0.021711668679169873,-0.013541521009575553,0.0,0.0,0.0,0.0,0.0,0.0,0.0
0.22568583488464355,9.543415687556724,0.06140171926005249,-0.04811510593959688,-0.13267008996893034,0.0,0.0,0.4,-0.11292781245407424,-0.2103724298347307,0.7572870818954804,0.01847995337021244,-0.011518332659608456,0.0,0.0,0.0,0.0,0.0,0.0,0.0
0.23107290267944336,9.592625718226191,0.05686962007508228,-0.04400797255142263,-0.13239868652115827,0.0,0.0,0.4,-0.11270274726530537,-0.20994933278725847,0.7613045571458898,0.015793837978642547,-0.009836740989740139,0.0,0.0,0.0,0.0,0.0,0.0,0.0
0.23640012741088867,9.633543079898487,0.05353002699946956,-0.04062386530042754,-0.131901330261527,0.0,0.0,0.4,-0.11249897997619912,-0.2095600377405071,0.7652767085536056,0.013615370589908528,-0.008472862016872059,0.0,0.0,0.0,0.0,0.0,0.0,0.0
0.24175620079040527,9.666884053186223,0.05138001759497489,-0.038013152476594717,-0.1311386676342628,0.0,0.0,0.4,-0.112312255288472,-0.20919688176717258,0.7692160700077523,0.011900696902099892,-0.007400089542132088,0.0,0.0,0.0,0.0,0.0,0.0,0.0
0.2470693588256836,9.693361575259297,0.05012385592066893,-0.03607046736773899,-0.13027407211815395,0.0,0.0,0.4,-0.11215270159153325,-0.20887624059108573,0.7731058611031739,0.010605281510085574,-0.006592822992823087,0.0,0.0,0.0,0.0,0.0,0.0,0.0
0.2523624897003174,9.713660897495483,0.04951518696686223,-0.03473059469708234,-0.12938868473393825,0.0,0.0,0.4,-0.11202799587346192,-0.20860739376701765,0.7769330236222444,0.009686768023792617,-0.006025831888723309,0.0,0.0,0.0,0.0,0.0,0.0,0.0
0.2577190399169922,9.728451734223528,0.049493928259866295,-0.03400975087011072,-0.1284826351294944,0.0,0.0,0.4,-0.11193781157749064,-0.20838608590631935,0.7807013400199139,0.009104317680144264,-0.0056744575844232155,0.0,0.0,0.0,0.0,0.0,0.0,0.0
0.26303672790527344,9.738382458340364,0.04997407729778045,-0.03389991098572657,-0.12755853680962778,0.0,0.0,0.4,-0.11188026835220846,-0.20820829510968925,0.7844117839999752,0.008817572932799847,-0.00551444167755752,0.0,0.0,0.0,0.0,0.0,0.0,0.0
0.2683577537536621,9.744077588435268,0.05086383152455819,-0.034357839173665035,-0.12655874397124053,0.0,0.0,0.4,-0.11185104460630584,-0.2080671786388962,0.7880623258418453,0.008786218149206836,-0.005520895161634388,0.0,0.0,0.0,0.0,0.0,0.0,0.0
0.27371764183044434,9.746127656623548,0.052084610303114655,-0.0352950658952551,-0.12545890611428345,0.0,0.0,0.4,-0.11184575235186507,-0.2079565947305454,0.7916522220140937,0.008970605508965546,-0.005669013004053858,0.0,0.0,0.0,0.0,0.0,0.0,0.0
0.2790076732635498,9.74508879398219,0.0535505075884511,-0.036618381495126535,-0.12427944216967506,0.0,0.0,0.4,-0.11186054537954863,-0.20787201058617402,0.7951834564597167,0.009332571431382964,-0.005934575849770429,0.0,0.0,0.0,0.0,0.0,0.0,0.0
0.2844359874725342,9.741470699193636,0.05515385183404525,-0.038254296367362814,-0.12305643876293218,0.0,0.0,0.4,-0.1118916890154698,-0.20780909191368563,0.7986548856230876,0.009836199617296398,-0.006294370584189958,0.0,0.0,0.0,0.0,0.0,0.0,0.0
0.28983497619628906,9.735714060474612,0.05680153605140985,-0.04010516992788732,-0.12183148885871295,0.0,0.0,0.4,-0.11193603362790733,-0.2077645173117903,0.8020584101198284,0.010448445670554753,-0.006726680057365267,0.0,0.0,0.0,0.0,0.0,0.0,0.0
0.29523324966430664,9.72818879556322,0.05845556716138465,-0.042042333586034555,-0.12061223549032637,0.0,0.0,0.4,-0.11199194515798655,-0.20773536660292363,0.8053866418679017,0.011139532870843998,-0.0072116081900007725,0.0,0.0,0.0,0.0,0.0,0.0,0.0
0.30055785179138184,9.719189113212558,0.060022712505963235,-0.04390203944430332,-0.11938074504938606,0.0,0.0,0.4,-0.11205886464216393,-0.20771757884064915,0.8086310866783698,0.011882846921279734,-0.00773147153944243,0.0,0.0,0.0,0.0,0.0,0.0,0.0
0.3059194087982178,9.708934144618919,0.06131705372668506,-0.045510740793229365,-0.11812530150126495,0.0,0.0,0.4,-0.1121354851703674,-0.20770728943991737,0.811780712525904,0.01265478419353683,-0.008270938642816012,0.0,0.0,0.0,0.0,0.0,0.0,0.0
0.3112924098968506,9.697598244081064,0.06223659663403992,-0.04677183149880886,-0.1168480739915704,0.0,0.0,0.4,-0.11221981104037798,-0.20770108921389907,0.814831970087744,0.013434654113541522,-0.00881684844602248,0.0,0.0,0.0,0.0,0.0,0.0,0.0
0.31657910346984863,9.685332722663848,0.06280593463953904,-0.0476475219664058,-0.11556964885280482,0.0,0.0,0.4,-0.11231105507782159,-0.2076958636744729,0.817786117534082,0.014204600303175998,-0.009358239348389537,0.0,0.0,0.0,0.0,0.0,0.0,0.0
0.3219451904296875,9.672256803118241,0.06307324825864444,-0.048190582087394886,-0.11428756588740546,0.0,0.0,0.4,-0.11240702596035808,-0.20768978830053253,0.820637457875574,0.01494987339827401,-0.009885714105274918,0.0,0.0,0.0,0.0,0.0,0.0,0.0
0.32730698585510254,9.658448592034462,0.06308141466627203,-0.048539109252662554,-0.11296604711196659,0.0,0.0,0.4,-0.11250266908967366,-0.20768112958837515,0.8233758883611277,0.015658789238197954,-0.010390685446574953,0.0,0.0,0.0,0.0,0.0,0.0,0.0
0.33268141746520996,9.643972898823197,0.06290671730394388,-0.04874419726242233,-0.11161684973229997,0.0,0.0,0.4,-0.11259563583006107,-0.20766958589150158,0.8260016230732555,0.016322349719368155,-0.010866134618624334,0.0,0.0,0.0,0.0,0.0,0.0,0.0
0.33803725242614746,9.62887230534242,0.06265524779915359,-0.04878038661313278,-0.11028875535691526,0.0,0.0,0.4,-0.1126877734620234,-0.20765682085723847,0.8285111152948311,0.01693426841012805,-0.011307232862588753,0.0,0.0,0.0,0.0,0.0,0.0,0.0
0.34340810775756836,9.613142995783015,0.06243066208275382,-0.04863502840193533,-0.10899212589099097,0.0,0.0,0.4,-0.11278109437317616,-0.20764526583171797,0.8308889950475942,0.01749127393965114,-0.011711010561180256,0.0,0.0,0.0,0.0,0.0,0.0,0.0
0.3487706184387207,9.596775380907129,0.0623160997632109,-0.04833399352020979,-0.10770614599489953,0.0,0.0,0.4,-0.1128758502472472,-0.20763768594201087,0.8331337888845523,0.017992876636775252,-0.012076036999545587,0.0,0.0,0.0,0.0,0.0,0.0,0.0
0.35413360595703125,9.579789959455473,0.06235457379665182,-0.04799962432951526,-0.10641523605907081,0.0,0.0,0.4,-0.11297202746256907,-0.20763467077695044,0.8352565979491333,0.01844038147808864,-0.012402217087875955,0.0,0.0,0.0,0.0,0.0,0.0,0.0
0.3599569797515869,9.562211888055081,0.06263306978035464,-0.047798249704075375,-0.10512538320756512,0.0,0.0,0.4,-0.11307129116588235,-0.2076366843178508,0.8372548601452491,0.018836249951313323,-0.01269081290864408,0.0,0.0,0.0,0.0,0.0,0.0,0.0
0.3656315803527832,9.544049128784922,0.06324763807145442,-0.04786551300364451,-0.10383967029727008,0.0,0.0,0.4,-0.11317511569209765,-0.20764401425872836,0.8391177146702412,0.019183726344751743,-0.012944031036340313,0.0,0.0,0.0,0.0,0.0,0.0,0.0
0.3716890811920166,9.525318174351986,0.06419933884722649,-0.048257233961425484,-0.10254308277568587,0.0,0.0,0.4,-0.11328295520833495,-0.20765347964112493,0.8408481611359662,0.019486090527403934,-0.01316438325940237,0.0,0.0,0.0,0.0,0.0,0.0,0.0
0.37778210639953613,9.50602165988913,0.06538564657430933,-0.04895694112381316,-0.10119214942763984,0.0,0.0,0.4,-0.11339508280477767,-0.2076611092655496,0.8424428220525786,0.019746286604379534,-0.013354395837303886,0.0,0.0,0.0,0.0,0.0,0.0,0.0
0.38398075103759766,9.486124878829223,0.06660097050255186,-0.04995864258225177,-0.0997332093294729,0.0,0.0,0.4,-0.11351302998126234,-0.2076651737942566,0.843886228254118,0.019966918083697452,-0.013516789510351488,0.0,0.0,0.0,0.0,0.0,0.0,0.0
0.3905928134918213,9.465551037159376,0.06770943344156538,-0.051236794011703564,-0.09819305360772639,0.0,0.0,0.4,-0.11363947837726228,-0.20766569116833866,0.8451635305090214,0.020150060663883338,-0.01365559929440634,0.0,0.0,0.0,0.0,0.0,0.0,0.0
0.3973062038421631,9.445139452459426,0.06886360860541718,-0.052639890871465145,-0.09670625291706543,0.0,0.0,0.4,-0.11375120330088459,-0.20765507548677706,0.846569844207552,0.020296204971560306,-0.01377187554062933,0.0,0.0,0.0,0.0,0.0,0.0,0.0
0.4042479991912842,9.42644276807858,0.07012953583774381,-0.05403596820223505,-0.09534308178286466,0.0,0.0,0.4,-0.1138278624121293,-0.2076262587606318,0.8483357274950849,0.0204052461042267,-0.013861616830669332,0.0,0.0,0.0,0.0,0.0,0.0,0.0
0.4106874465942383,9.40968672951475,0.07110661727889377,-0.05547796199983998,-0.09399165031619726,0.0,0.0,0.4,-0.11390577343735137,-0.20758839613898655,0.8499917794797266,0.020479334734433228,-0.013923811458765823,0.0,0.0,0.0,0.0,0.0,0.0,0.0
0.41725778579711914,9.393786029785415,0.07148291623467358,-0.05697746438749078,-0.09257079424022972,0.0,0.0,0.4,-0.11401398098770561,-0.20755074145947852,0.8511561601724061,0.020522312995620736,-0.013964433494498808,0.0,0.0,0.0,0.0,0.0,0.0,0.0
0.4236466884613037,9.37716997124701,0.0712896238924132,-0.05840464903087761,-0.0911101108332499,0.0,0.0,0.4,-0.11414835239762836,-0.20751368574482593,0.8518559429669766,0.0205385397644871,-0.013993697487525969,0.0,0.0,0.0,0.0,0.0,0.0,0.0
0.4301159381866455,9.358264787691379,0.07060841223911687,-0.059617586629213466,-0.08966840091941045,0.0,0.0,0.4,-0.11430491705649787,-0.2074787954925464,0.8521178338073014,0.020532811470444924,-0.014021655202444269,0.0,0.0,0.0,0.0,0.0,0.0,0.0
0.43660426139831543,9.335980600952267,0.06954414715801463,-0.06050509746539049,-0.08829262695692115,0.0,0.0,0.4,-0.11447959001216776,-0.20744983781749154,0.8519678978133545,0.020510329628417073,-0.014055171823853713,0.0,0.0,0.0,0.0,0.0,0.0,0.0
0.4433290958404541,9.30957102552347,0.06825950446737743,-0.060981407745235514,-0.08693956492673396,0.0,0.0,0.4,-0.11466933360445629,-0.20742872277147265,0.8514103635697292,0.020476983525090482,-0.014097745709780037,0.0,0.0,0.0,0.0,0.0,0.0,0.0
0.4499523639678955,9.278588156682499,0.0669353716292692,-0.06105152676274468,-0.08555522755379533,0.0,0.0,0.4,-0.11487154832666605,-0.20741636426159277,0.850456282011719,0.02043851747781232,-0.014150855071029662,0.0,0.0,0.0,0.0,0.0,0.0,0.0
0.4564056396484375,9.242897384231284,0.06572544125158811,-0.06079471852805502,-0.08415516228802894,0.0,0.0,0.4,-0.11508389816736758,-0.20741487736670045,0.8491438445847492,0.020399875110839828,-0.014215277832456108,0.0,0.0,0.0,0.0,0.0,0.0,0.0
0.4631998538970947,9.202637637494345,0.06474995852406994,-0.060289955187290946,-0.08277496777092659,0.0,0.0,0.4,-0.11530488711488218,-0.20742601214890682,0.847509512886356,0.020365425404218946,-0.014291045295311609,0.0,0.0,0.0,0.0,0.0,0.0,0.0
0.4698655605316162,9.158183302107508,0.06407342313856951,-0.05963955306801877,-0.08143897126701183,0.0,0.0,0.4,-0.11553505687225495,-0.2074497659328759,0.8455864985367292,0.020338904114399904,-0.01437774286696535,0.0,0.0,0.0,0.0,0.0,0.0,0.0
0.4767017364501953,9.110006045438656,0.063684267351891,-0.058957054122139245,-0.08014186562228282,0.0,0.0,0.4,-0.11577801739257983,-0.20748479618494312,0.843382369036616,0.020323187209939954,-0.01447513303794913,0.0,0.0,0.0,0.0,0.0,0.0,0.0
0.483184814453125,9.058634026269363,0.06352182653354711,-0.05836057482978818,-0.07886730865793021,0.0,0.0,0.4,-0.11603569772108879,-0.20752930713573178,0.8409074407639379,0.02032001221576173,-0.014583312575533665,0.0,0.0,0.0,0.0,0.0,0.0,0.0
0.49019813537597656,9.004677215388734,0.06352174219957987,-0.05799115022378511,-0.07758698519973134,0.0,0.0,0.4,-0.11630539990016857,-0.207580644179579,0.8381961685324966,0.02032994962097637,-0.014701899442655094,0.0,0.0,0.0,0.0,0.0,0.0,0.0
0.49672961235046387,8.951356355825524,0.0638349160307288,-0.057897510485262864,-0.07640270502909582,0.0,0.0,0.4,-0.11653639586146843,-0.20762469327353456,0.8361019791015823,0.02034988658261988,-0.014822621983995522,0.0,0.0,0.0,0.0,0.0,0.0,0.0
0.5032422542572021,8.903904273809292,0.06452125515476753,-0.05805271229590765,-0.07542796312749124,0.0,0.0,0.4,-0.1166906679199412,-0.2076501964832514,0.8352983885212227,0.020374071139261856,-0.014928735149254472,0.0,0.0,0.0,0.0,0.0,0.0,0.0
0.5099153518676758,8.86416770147885,0.06513091064839817,-0.05852891471668147,-0.07446585374745421,0.0,0.0,0.4,-0.11683768755385303,-0.2076699316722434,0.8346248376826316,0.020399942208760773,-0.015010016781118017,0.0,0.0,0.0,0.0,0.0,0.0,0.0
0.5167720317840576,8.830555256237277,0.06530611340254226,-0.0593666741575848,-0.07331450159091915,0.0,0.0,0.4,-0.11703222387227141,-0.20769223504081868,0.833138289390655,0.02042680256694447,-0.015069834045148583,0.0,0.0,0.0,0.0,0.0,0.0,0.0
0.5234382152557373,8.800091974544289,0.06502962289182343,-0.06049830976875589,-0.07197170800148615,0.0,0.0,0.4,-0.11726725135296195,-0.20771344669484929,0.830942878253517,0.020453571413603492,-0.015120625822040145,0.0,0.0,0.0,0.0,0.0,0.0,0.0
0.5304205417633057,8.769634645087704,0.06435379827476775,-0.06183770236800159,-0.0704989919736326,0.0,0.0,0.4,-0.11753698763089523,-0.20773478389161307,0.8281360498405221,0.02047945312411653,-0.015175821654742442,0.0,0.0,0.0,0.0,0.0,0.0,0.0
0.5369174480438232,8.737106711488664,0.06335157116839564,-0.06331474794270196,-0.0689441215035167,0.0,0.0,0.4,-0.11783420243079187,-0.20775670894964304,0.82480670837532,0.020503862079463066,-0.015243937543017741,0.0,0.0,0.0,0.0,0.0,0.0,0.0
0.5438861846923828,8.701207478821797,0.062086645831389474,-0.06485611906652422,-0.06730153564722707,0.0,0.0,0.4,-0.11815313435085878,-0.20777769965949514,0.8210073191908457,0.020526656990450965,-0.015329180389499297,0.0,0.0,0.0,0.0,0.0,0.0,0.0
0.5505070686340332,8.661242801968367,0.06063648912559726,-0.06635230462096973,-0.0655790611264913,0.0,0.0,0.4,-0.11849036289456015,-0.20779834807261544,0.8167863982833309,0.020547793679556895,-0.015433169553421075,0.0,0.0,0.0,0.0,0.0,0.0,0.0
0.5572550296783447,8.617053241246257,0.05911346470927248,-0.06771703176319209,-0.06382537614785737,0.0,0.0,0.4,-0.11884309895359557,-0.20782081335664299,0.812216867873682,0.020567330698761693,-0.015556093592291887,0.0,0.0,0.0,0.0,0.0,0.0,0.0
0.5641076564788818,8.568905815510481,0.057628247758432234,-0.06891793169883989,-0.06210695999870574,0.0,0.0,0.4,-0.11920939993482618,-0.2078470407481557,0.8073660909824887,0.020585710313763883,-0.01569722115943509,0.0,0.0,0.0,0.0,0.0,0.0,0.0
0.5707542896270752,8.517404404580267,0.05625786553000303,-0.0699486341713013,-0.06044573243554989,0.0,0.0,0.4,-0.11958611351351381,-0.20787669307799064,0.8022938853026391,0.020603814020244665,-0.01585440092848357,0.0,0.0,0.0,0.0,0.0,0.0,0.0
0.5774610042572021,8.463281462725226,0.05502525290419651,-0.07077960598708834,-0.058831457148463,0.0,0.0,0.4,-0.1199724143302102,-0.2079092084671353,0.7970220559582631,0.020622600028432896,-0.016024813296080343,0.0,0.0,0.0,0.0,0.0,0.0,0.0
0.5839948654174805,8.407312954472474,0.05388528045721055,-0.07138118136199735,-0.057294993130638926,0.0,0.0,0.4,-0.1203703623303204,-0.20794594099344965,0.7915686919217244,0.02064265959728117,-0.016206434588167964,0.0,0.0,0.0,0.0,0.0,0.0,0.0
0.5907809734344482,8.350335909636037,0.05278915704116234,-0.07180639213341079,-0.05584242337519449,0.0,0.0,0.4,-0.12077954370318802,-0.20798499352304484,0.7859801249408693,0.020664291211166023,-0.016397249736627175,0.0,0.0,0.0,0.0,0.0,0.0,0.0
0.5976781845092773,8.293218263551509,0.05172494730722199,-0.07215540567537572,-0.0544578912119214,0.0,0.0,0.4,-0.12119803183246473,-0.2080228508218231,0.7802982849457715,0.020687229086321268,-0.016595033804693092,0.0,0.0,0.0,0.0,0.0,0.0,0.0
0.60420823097229,8.236843848574797,0.05070503051686834,-0.07250306741650418,-0.05314444099698625,0.0,0.0,0.4,-0.12162385243279338,-0.20805605116540898,0.774559018711668,0.020710127052216705,-0.01679751153654428,0.0,0.0,0.0,0.0,0.0,0.0,0.0
0.6108758449554443,8.181986598727828,0.04967276181275376,-0.07292952899372701,-0.05188477267730889,0.0,0.0,0.4,-0.12205669588165469,-0.20808128055248137,0.7687675563065726,0.02073096581421178,-0.017002255524794587,0.0,0.0,0.0,0.0,0.0,0.0,0.0
0.6173200607299805,8.129291974722973,0.04853658071470719,-0.07349515055920824,-0.050658682667123506,0.0,0.0,0.4,-0.12249713768960784,-0.20809860752410303,0.76292990323072,0.020747721200935515,-0.017207177748656183,0.0,0.0,0.0,0.0,0.0,0.0,0.0
0.6238312721252441,8.079333397357672,0.04727204172669736,-0.07420203603129723,-0.04945565308920451,0.0,0.0,0.4,-0.12294383436743914,-0.2081069604657983,0.7570773768794612,0.020758388007995378,-0.017410443595609115,0.0,0.0,0.0,0.0,0.0,0.0,0.0
0.6306695938110352,8.032520989218476,0.04591519157232628,-0.07506306324613296,-0.048300284870234335,0.0,0.0,0.4,-0.12339792613505063,-0.20810528374187093,0.7512058180717776,0.020760943875427214,-0.017611112611426005,0.0,0.0,0.0,0.0,0.0,0.0,0.0
0.637110710144043,7.9891300666101035,0.04454133721518284,-0.07608213604088687,-0.04721913155636733,0.0,0.0,0.4,-0.12386079049494729,-0.20809478148349614,0.7453107908111792,0.02075391569006095,-0.01780879433835961,0.0,0.0,0.0,0.0,0.0,0.0,0.0
0.6435685157775879,7.9493769540078905,0.04317892703957237,-0.0771990859628195,-0.04616900195511512,0.0,0.0,0.4,-0.12432939507554126,-0.20807495636358433,0.7394183698982745,0.020736791318878213,-0.018002269375170507,0.0,0.0,0.0,0.0,0.0,0.0,0.0
0.6500122547149658,7.913425616228901,0.041828799514148536,-0.07834186464675,-0.045139742091470064,0.0,0.0,0.4,-0.1248016304675752,-0.20804760226849256,0.733548359663792,0.020709522329627052,-0.018190475339398573,0.0,0.0,0.0,0.0,0.0,0.0,0.0
0.6566226482391357,7.881409328199016,0.04049978092323118,-0.07949332264751698,-0.04421304040138549,0.0,0.0,0.4,-0.12527844186424764,-0.20801718203806518,0.7277156037139467,0.020672317780031618,-0.018373438685024116,0.0,0.0,0.0,0.0,0.0,0.0,0.0
0.6631150245666504,7.853413846509258,0.03924279607951834,-0.08064108534047304,-0.04345742053793447,0.0,0.0,0.4,-0.1257603812771393,-0.20798606974508008,0.7219316538348088,0.020626345009265683,-0.018551361370783656,0.0,0.0,0.0,0.0,0.0,0.0,0.0
0.669553279876709,7.829472723914396,0.03815193233780341,-0.0817412216087729,-0.042853775946225914,0.0,0.0,0.4,-0.12624524495283704,-0.20795254388517093,0.716206478570835,0.02057358671211958,-0.018723497365853416,0.0,0.0,0.0,0.0,0.0,0.0,0.0
0.6764140129089355,7.809567925732274,0.03726586995706411,-0.08275671776559455,-0.0422992728700282,0.0,0.0,0.4,-0.1267281613683404,-0.20791192123832075,0.7105485671636346,0.020515828772404314,-0.018887556632796645,0.0,0.0,0.0,0.0,0.0,0.0,0.0
0.683185338973999,7.793626088942373,0.03654972928030185,-0.08366021391202137,-0.0416960141248304,0.0,0.0,0.4,-0.12720496352551933,-0.20785947125915427,0.7049625715458807,0.02045349808933004,-0.019040520235540103,0.0,0.0,0.0,0.0,0.0,0.0,0.0
0.689624547958374,7.781454464669006,0.03593984048441808,-0.08447119342416448,-0.04102120177914619,0.0,0.0,0.4,-0.12767567203086932,-0.2077914684747404,0.6994296804141448,0.02038519639595092,-0.019180122184750386,0.0,0.0,0.0,0.0,0.0,0.0,0.0
0.6964290142059326,7.772755066478624,0.035421418626753645,-0.08519552320309068,-0.040326409769915146,0.0,0.0,0.4,-0.1281451674074102,-0.20771139137403127,0.6939327740561025,0.020309254487171215,-0.01930605650781744,0.0,0.0,0.0,0.0,0.0,0.0,0.0
0.702916145324707,7.767214055114636,0.03497627916844303,-0.08581771940790503,-0.039683810348228585,0.0,0.0,0.4,-0.1286190917110551,-0.20762542156910208,0.6884827960632995,0.020225178605831243,-0.01942001874023287,0.0,0.0,0.0,0.0,0.0,0.0,0.0
0.7096569538116455,7.76454071854002,0.03456403989057543,-0.0863683831283437,-0.03908013834948651,0.0,0.0,0.4,-0.12909804720864032,-0.20753283127998187,0.6830936962087892,0.020133926213318134,-0.019523802943661933,0.0,0.0,0.0,0.0,0.0,0.0,0.0
0.7161769866943359,7.764495910318497,0.03414712577936234,-0.08687342396999118,-0.03847393546037076,0.0,0.0,0.4,-0.1295814013948705,-0.20743140406609445,0.6777772864679972,0.020036718620657926,-0.01961913415442111,0.0,0.0,0.0,0.0,0.0,0.0,0.0
0.7225980758666992,7.766817355824195,0.03366999302282187,-0.08739594667901135,-0.03793138875243329,0.0,0.0,0.4,-0.1300741150984283,-0.20732200723803462,0.6725221839370514,0.019933589877592375,-0.019709467420012852,0.0,0.0,0.0,0.0,0.0,0.0,0.0
0.7291781902313232,7.7712203940995686,0.03312294676637099,-0.08801648107285145,-0.037535362488498925,0.0,0.0,0.4,-0.13057878152379432,-0.2072067188401813,0.6673193585551049,0.01982461441597466,-0.019798733306991056,0.0,0.0,0.0,0.0,0.0,0.0,0.0
0.7356846332550049,7.777461174169607,0.03255123808133294,-0.08870537907109875,-0.03729008140492356,0.0,0.0,0.4,-0.13109310575234417,-0.20708601752026917,0.6621845436931907,0.01971085857021933,-0.019889645843865524,0.0,0.0,0.0,0.0,0.0,0.0,0.0
0.7422082424163818,7.785350738172059,0.03198223734765915,-0.0894128304125272,-0.03714659592941651,0.0,0.0,0.4,-0.13161562813848166,-0.2069583762906323,0.65713299044532,0.01959368066737836,-0.019983658574601885,0.0,0.0,0.0,0.0,0.0,0.0,0.0
0.7487008571624756,7.794757482194432,0.03140994609777442,-0.09014220538842865,-0.03703540511022162,0.0,0.0,0.4,-0.1321450801725351,-0.20682196006738485,0.6521740755573634,0.01947412061689685,-0.020081137338131706,0.0,0.0,0.0,0.0,0.0,0.0,0.0
0.7550766468048096,7.805580999403867,0.030838031434606977,-0.09088802160348332,-0.03690904922644844,0.0,0.0,0.4,-0.1326809979423283,-0.20667561861633613,0.6473127788024606,0.01935253744839995,-0.020182124035770396,0.0,0.0,0.0,0.0,0.0,0.0,0.0
0.7610194683074951,7.817741864756718,0.03029064900497301,-0.09164963870104931,-0.03675083432886563,0.0,0.0,0.4,-0.13322231900370685,-0.2065204945996369,0.6425550198286359,0.019229037394632276,-0.02028648116166376,0.0,0.0,0.0,0.0,0.0,0.0,0.0
0.7672665119171143,7.831168565339804,0.02978616997499835,-0.09240633113620057,-0.036552949498650594,0.0,0.0,0.4,-0.13376668451041962,-0.20635747007258534,0.63790462752666,0.01910384143018784,-0.020393571026474926,0.0,0.0,0.0,0.0,0.0,0.0,0.0
0.7737045288085938,7.84578960641433,0.02929277009077776,-0.09311292426748602,-0.03629999748736902,0.0,0.0,0.4,-0.13431297622971888,-0.206184412567646,0.6333629376990096,0.01897701685003406,-0.020502316689394354,0.0,0.0,0.0,0.0,0.0,0.0,0.0
0.7805166244506836,7.861527811178464,0.02875713948903056,-0.09372692099500603,-0.03596411052777326,0.0,0.0,0.4,-0.13486224452055517,-0.20599916374798644,0.6289301707259924,0.01884834365991782,-0.020611605945146206,0.0,0.0,0.0,0.0,0.0,0.0,0.0
0.7880764007568359,7.8783018117100285,0.028151988386616263,-0.0942531238322198,-0.03552703987919403,0.0,0.0,0.4,-0.13541500707783902,-0.2058005628383201,0.6246072167158625,0.01871713926511185,-0.020720640226201903,0.0,0.0,0.0,0.0,0.0,0.0,0.0
0.7946171760559082,7.89598282523594,0.0275164511987598,-0.09472850286361424,-0.03501481042921276,0.0,0.0,0.4,-0.13597177723475046,-0.2055873604600341,0.62038043072308,0.01858205626594883,-0.02082933080969987,0.0,0.0,0.0,0.0,0.0,0.0,0.0
0.8020901679992676,7.914407887686134,0.026887435378032738,-0.09512119711844767,-0.03448410016844721,0.0,0.0,0.4,-0.13653331615798026,-0.20536063163056262,0.6162392120187813,0.018441734597814084,-0.020938134321172062,0.0,0.0,0.0,0.0,0.0,0.0,0.0
0.8086824417114258,7.933438748497772,0.02620299641920009,-0.09541786736607169,-0.033962507169614735,0.0,0.0,0.4,-0.13709952395116848,-0.20512030962387162,0.6121932221406532,0.018295276042532213,-0.021047361462989314,0.0,0.0,0.0,0.0,0.0,0.0,0.0
0.8152821063995361,7.952935669721001,0.025381923058346505,-0.09565052084260346,-0.03337919047223635,0.0,0.0,0.4,-0.1376701996976838,-0.20485907533844616,0.6082390612279903,0.01814182452850291,-0.021156427745727,0.0,0.0,0.0,0.0,0.0,0.0,0.0
0.8217296600341797,7.97278127566117,0.024387046903789133,-0.09582083261474919,-0.032629378676185095,0.0,0.0,0.4,-0.13824218387546328,-0.20457097214902148,0.6043753149228293,0.017979834132811876,-0.021263846026030812,0.0,0.0,0.0,0.0,0.0,0.0,0.0
0.8282585144042969,7.992893252978642,0.023250801002037882,-0.09593436321724937,-0.03174691413621551,0.0,0.0,0.4,-0.13881530714803442,-0.20426020295751685,0.6006095312137755,0.01780682166930296,-0.021369236865735865,0.0,0.0,0.0,0.0,0.0,0.0,0.0
0.8348240852355957,8.013182277591463,0.02203914437075309,-0.09601417926095257,-0.030835658512087933,0.0,0.0,0.4,-0.13939661907966835,-0.2039323050216521,0.5969348010903737,0.01762100584493546,-0.021473984058195703,0.0,0.0,0.0,0.0,0.0,0.0,0.0
0.841707706451416,8.03357140946111,0.020780960290840488,-0.09609345902904497,-0.0299289529471588,0.0,0.0,0.4,-0.1399905231231131,-0.20358880370751353,0.5933491080697294,0.01742265164637161,-0.02158002744836209,0.0,0.0,0.0,0.0,0.0,0.0,0.0
0.8483788967132568,8.05401078838213,0.019482905386185665,-0.09620334158861246,-0.029043699967446025,0.0,0.0,0.4,-0.1405956311375703,-0.20323253708227473,0.5898596085220942,0.017213304254750504,-0.021689433146700944,0.0,0.0,0.0,0.0,0.0,0.0,0.0
0.8555960655212402,8.074492299732384,0.01814959248097213,-0.09639465958232471,-0.028170558854626885,0.0,0.0,0.4,-0.14120704190223804,-0.20286530566599337,0.586475935306602,0.01699528237079305,-0.021803005342539306,0.0,0.0,0.0,0.0,0.0,0.0,0.0
0.8621535301208496,8.095060228099449,0.016833291825589094,-0.09670188532319354,-0.027317283493137126,0.0,0.0,0.4,-0.14182289215954064,-0.20248916732588687,0.583209944695066,0.01677117052641561,-0.021920676933521382,0.0,0.0,0.0,0.0,0.0,0.0,0.0
0.8692953586578369,8.115745867588938,0.015624685545226488,-0.09708160148821558,-0.02658959551414896,0.0,0.0,0.4,-0.1424518599520559,-0.20210924187812576,0.5800546896994413,0.016543238504359695,-0.022044146723407636,0.0,0.0,0.0,0.0,0.0,0.0,0.0
0.8760180473327637,8.144920034095117,0.015021538679614347,-0.09733432388891414,-0.026334731638071193,0.0,0.0,0.4,-0.14288505026165899,-0.20177187280585934,0.5796985394394878,0.016319725645589853,-0.02214085551692984,0.0,0.0,0.0,0.0,0.0,0.0,0.0
0.8828096389770508,8.197395349396045,0.015398225804127693,-0.09725678170882143,-0.026715115720800566,0.0,0.0,0.4,-0.1429511568709403,-0.20150914283323795,0.5842647290301741,0.016118041143456347,-0.022140743628162787,0.0,0.0,0.0,0.0,0.0,0.0,0.0
0.889894962310791,8.277150836005253,0.01611420593594225,-0.09694729952240906,-0.027232570377727066,0.0,0.0,0.4,-0.14295240980816476,-0.20125352453946138,0.5899647880483262,0.01595167533227219,-0.022009918213055427,0.0,0.0,0.0,0.0,0.0,0.0,0.0
0.8967278003692627,8.377247727033843,0.016625493057866383,-0.09658005662254396,-0.027531046966055187,0.0,0.0,0.4,-0.1431340892029917,-0.20095176457571565,0.593724311605286,0.015817981354880047,-0.021774804263464433,0.0,0.0,0.0,0.0,0.0,0.0,0.0
0.9032189846038818,8.486369260309564,0.016967893872891642,-0.09625321005558007,-0.027622870535617572,0.0,0.0,0.4,-0.14346999299506663,-0.20060637958215802,0.5958127713853711,0.015702311316086483,-0.021495717917728797,0.0,0.0,0.0,0.0,0.0,0.0,0.0
0.9096968173980713,8.592769068858596,0.017154892046053423,-0.09604908689231909,-0.027510087909744966,0.0,0.0,0.4,-0.1439348246729297,-0.20021941375750751,0.5964829957378405,0.015588932910840661,-0.02123407822766679,0.0,0.0,0.0,0.0,0.0,0.0,0.0
0.9165160655975342,8.68826733727681,0.017111819153649392,-0.09599303548238852,-0.027247472985813842,0.0,0.0,0.4,-0.14450836599075137,-0.199796440337261,0.595971602639352,0.015465944392804533,-0.021032232426322805,0.0,0.0,0.0,0.0,0.0,0.0,0.0
0.9230186939239502,8.767627162597751,0.01676258199848978,-0.09609207468411339,-0.026875004429459053,0.0,0.0,0.4,-0.14517601923619805,-0.19934096345581276,0.5944927262532689,0.01532527754952691,-0.02091720021727583,0.0,0.0,0.0,0.0,0.0,0.0,0.0
0.9294593334197998,8.827985378849908,0.016173714438767695,-0.09631174563643147,-0.026418780202971563,0.0,0.0,0.4,-0.1459236826458717,-0.19885624560717924,0.5922377731185771,0.015162272782230948,-0.020903879814684143,0.0,0.0,0.0,0.0,0.0,0.0,0.0
0.9360568523406982,8.86836257305834,0.015457291784891162,-0.09663659463375927,-0.0259303546371996,0.0,0.0,0.4,-0.14673564684907078,-0.19834771725374287,0.5893837696482533,0.014974876943060503,-0.020997585827538138,0.0,0.0,0.0,0.0,0.0,0.0,0.0
0.9428625106811523,8.889226010131907,0.01465642889413611,-0.09708945367121023,-0.02545859192412986,0.0,0.0,0.4,-0.1475986144732529,-0.19782107479978425,0.5860908964622814,0.0147635072096194,-0.021196016496410845,0.0,0.0,0.0,0.0,0.0,0.0,0.0
0.9493770599365234,8.892107371174717,0.013799449570710377,-0.09765707073195312,-0.02502289537581983,0.0,0.0,0.4,-0.14850208797864586,-0.19728101592743572,0.5825000240067266,0.014530845039233437,-0.02149110091229608,0.0,0.0,0.0,0.0,0.0,0.0,0.0
0.9560208320617676,8.879266634627603,0.012899572341449422,-0.09832838040471938,-0.024584695502551313,0.0,0.0,0.4,-0.14943820988504108,-0.1967245991414393,0.5787321192883483,0.014280311577580956,-0.02187088073996759,0.0,0.0,0.0,0.0,0.0,0.0,0.0
0.9627559185028076,8.853423239669686,0.011951907526061392,-0.09911782727110738,-0.024093552192083124,0.0,0.0,0.4,-0.15039746403225235,-0.19614817725882222,0.5748946573562256,0.014014788660538643,-0.022320893302164867,0.0,0.0,0.0,0.0,0.0,0.0,0.0
0.9692387580871582,8.817516757364384,0.010988503884084273,-0.10003260040788044,-0.023567111887016032,0.0,0.0,0.4,-0.15137014991532236,-0.19555448850757423,0.5710761453990556,0.01373634055916049,-0.022825546299225116,0.0,0.0,0.0,0.0,0.0,0.0,0.0
0.9760401248931885,8.774506277833538,0.010089858301490034,-0.10107720419158045,-0.023020075787225674,0.0,0.0,0.4,-0.1523500206187771,-0.19494606227865643,0.5673437123684983,0.013447285299616944,-0.023368709193117846,0.0,0.0,0.0,0.0,0.0,0.0,0.0
0.9829232692718506,8.727229435439469,0.00930934907003097,-0.10226333491965582,-0.02241641152695689,0.0,0.0,0.4,-0.15333220754863278,-0.19432375253952044,0.563752144052281,0.013150792645893007,-0.023934332881375153,0.0,0.0,0.0,0.0,0.0,0.0,0.0
0.9893631935119629,8.678281820753663,0.008638086383703945,-0.10357406642505497,-0.0217481344283216,0.0,0.0,0.4,-0.15431611382119936,-0.19368776110227862,0.5603396455395258,0.012849603247769743,-0.024508345650526956,0.0,0.0,0.0,0.0,0.0,0.0,0.0
0.9959683418273926,8.629947898713688,0.008076150833282765,-0.10495699726521512,-0.021059087344980274,0.0,0.0,0.4,-0.15530154767352344,-0.1930410001007392,0.5571326805900696,0.012545990355932563,-0.025079181407889554,0.0,0.0,0.0,0.0,0.0,0.0,0.0
1.002488136291504,8.584182641962256,0.007635813047935054,-0.10639076644860179,-0.02041213868303808,0.0,0.0,0.4,-0.1562845712941243,-0.19238738993896437,0.5541562669839084,0.0122423212348441,-0.025637067984574245,0.0,0.0,0.0,0.0,0.0,0.0,0.0
1.0098822116851807,8.542604767682008,0.007311392460344279,-0.10788634673390898,-0.019811772268834318,0.0,0.0,0.4,-0.15726027208450177,-0.19172539942057848,0.5514303936567739,0.011941212889130243,-0.026173035096874443,0.0,0.0,0.0,0.0,0.0,0.0,0.0
1.0165870189666748,8.506487583565935,0.007028905257035852,-0.10943788318276783,-0.019178595432662492,0.0,0.0,0.4,-0.15822461529717663,-0.19105017341929414,0.5489634772561705,0.011645076883220024,-0.02667857434987402,0.0,0.0,0.0,0.0,0.0,0.0,0.0
1.0229878425598145,8.476740459227532,0.006666358205159828,-0.11099939662923938,-0.0184746743090635,0.0,0.0,0.4,-0.1591801267897729,-0.1903574026614302,0.5467489380644538,0.011354198499441462,-0.027147509940143633,0.0,0.0,0.0,0.0,0.0,0.0,0.0
1.029426097869873,8.453920743570128,0.006172865889921782,-0.11250430631387093,-0.017752729529154927,0.0,0.0,0.4,-0.16013121631420146,-0.1896487226415947,0.544774331227981,0.011067213446934766,-0.02757678346404963,0.0,0.0,0.0,0.0,0.0,0.0,0.0
1.0361511707305908,8.43828477836891,0.005560109905259612,-0.11391547149800645,-0.01707930689445308,0.0,0.0,0.4,-0.16107722097874547,-0.18892907117789043,0.5430316244351174,0.010783209954923547,-0.027965287523742752,0.0,0.0,0.0,0.0,0.0,0.0,0.0
1.0429599285125732,8.42983767275409,0.00485013908809546,-0.11521430974308246,-0.0165047257604645,0.0,0.0,0.4,-0.1620167077718921,-0.1882014080176761,0.541512573961968,0.010502322452609923,-0.028313026541528796,0.0,0.0,0.0,0.0,0.0,0.0,0.0
1.0496156215667725,8.428376348566664,0.004054973364257866,-0.11637653401434389,-0.016002899523369717,0.0,0.0,0.4,-0.16294921900216902,-0.18746600932499918,0.5402052122651453,0.01022607101955252,-0.028620319520786097,0.0,0.0,0.0,0.0,0.0,0.0,0.0
1.0564355850219727,8.433529105725041,0.003168606506134791,-0.11738733072082586,-0.01548043806081157,0.0,0.0,0.4,-0.16387758410186412,-0.1867171969905902,0.5390963805251865,0.009955823997769732,-0.028888312083260738,0.0,0.0,0.0,0.0,0.0,0.0,0.0
1.063628911972046,8.444792112473436,0.002212107003014576,-0.11824789712384283,-0.014911057688898487,0.0,0.0,0.4,-0.1648040920525513,-0.18595215259371706,0.538172827217877,0.009691017764013779,-0.029119602206306286,0.0,0.0,0.0,0.0,0.0,0.0,0.0
1.0703701972961426,8.461563023581979,0.00124516633878997,-0.11894937605843256,-0.014368129058761267,0.0,0.0,0.4,-0.1657281807046611,-0.1851756364583489,0.5374205568784695,0.009429940465679416,-0.029317792900709044,0.0,0.0,0.0,0.0,0.0,0.0,0.0
1.0775213241577148,8.483175586021694,0.00033828432755517125,-0.11947840292699145,-0.01392540406411626,0.0,0.0,0.4,-0.16665440959619554,-0.1843888097349315,0.5368263462300176,0.009171192317397284,-0.029487460612432882,0.0,0.0,0.0,0.0,0.0,0.0,0.0
1.084113597869873,8.508928298459315,-0.0004338132111212423,-0.11982168867474977,-0.013593652877632785,0.0,0.0,0.4,-0.16758781664784997,-0.18359061071080607,0.5363775179127336,0.008914499879411179,-0.029633808802002018,0.0,0.0,0.0,0.0,0.0,0.0,0.0
1.0909836292266846,8.538114943900604,-0.0010605970531235795,-0.11998339755567979,-0.013322731268875242,0.0,0.0,0.4,-0.16852835927787266,-0.18278151411757282,0.5360636344100352,0.008660460737257408,-0.029761970610640804,0.0,0.0,0.0,0.0,0.0,0.0,0.0
1.097693681716919,8.570058964924,-0.001627143393825508,-0.12004605094627738,-0.013053080626978087,0.0,0.0,0.4,-0.16947720895904986,-0.1819581558989254,0.5358793936905578,0.008409018928447079,-0.029877015069799846,0.0,0.0,0.0,0.0,0.0,0.0,0.0
1.1042304039001465,8.604126297861777,-0.0021940579685482803,-0.12011269924427274,-0.012796612115965727,0.0,0.0,0.4,-0.17043425073715376,-0.18111890715167756,0.5358188902084471,0.008158682337386137,-0.029983629943208457,0.0,0.0,0.0,0.0,0.0,0.0,0.0
1.1106197834014893,8.639722808989129,-0.0027517790793136557,-0.1201850120779654,-0.012598426026601262,0.0,0.0,0.4,-0.17139705767119107,-0.1802678836337548,0.5358718988030696,0.007908087350520652,-0.030085550167009152,0.0,0.0,0.0,0.0,0.0,0.0,0.0
1.117136001586914,8.685209574466887,-0.0027111873666049143,-0.1200621411921286,-0.012814295597618592,0.0,0.0,0.4,-0.17197520641655775,-0.17960175687128277,0.5389020020407032,0.007686646441378882,-0.030119147243023038,0.0,0.0,0.0,0.0,0.0,0.0,0.0
1.1236231327056885,8.755851282151133,-0.0015536670800713804,-0.11944704506796819,-0.013675863259060719,0.0,0.0,0.4,-0.1718644344376593,-0.1792707674683079,0.5471555648384605,0.007558758800955563,-0.029954636098327894,0.0,0.0,0.0,0.0,0.0,0.0,0.0
1.1306111812591553,8.855435350460393,2.0218897912349154e-05,-0.11825703581749808,-0.014616640136194256,0.0,0.0,0.4,-0.17161388683703502,-0.17899847718561254,0.5565897045513588,0.007561323938984516,-0.029534395941451245,0.0,0.0,0.0,0.0,0.0,0.0,0.0
1.137244462966919,8.97618497605445,0.0013442557022441842,-0.11666044512001088,-0.015222992124480169,0.0,0.0,0.4,-0.17166692785520976,-0.17856260585955694,0.5639277445588547,0.007673359882807883,-0.028909357303503653,0.0,0.0,0.0,0.0,0.0,0.0,0.0
1.1437041759490967,9.105705917822402,0.002369910428535837,-0.11490316968476537,-0.0156066529397964,0.0,0.0,0.4,-0.17198910355102434,-0.17798218963651005,0.5694461618324171,0.007836346458196362,-0.028191314143835182,0.0,0.0,0.0,0.0,0.0,0.0,0.0
1.149066686630249,9.231188606280284,0.003068744771966048,-0.11318828195290245,-0.01585221635474825,0.0,0.0,0.4,-0.17254701301153186,-0.17727562852445725,0.5734028527056974,0.007989943151724768,-0.02749687331865224,0.0,0.0,0.0,0.0,0.0,0.0,0.0
1.1554806232452393,9.34365421236113,0.003396618094036628,-0.1116455657219668,-0.015975607807887714,0.0,0.0,0.4,-0.17329958897992048,-0.17646474463936918,0.5760389684902137,0.008093042629760794,-0.026907293799261888,0.0,0.0,0.0,0.0,0.0,0.0,0.0
1.160799264907837,9.43731974520526,0.00327459742050196,-0.1103725317707685,-0.016016167160916424,0.0,0.0,0.4,-0.17420942093818848,-0.17557115497107417,0.5775815852672027,0.00811995028212541,-0.026474168449021958,0.0,0.0,0.0,0.0,0.0,0.0,0.0
1.1661946773529053,9.509008171445561,0.0027200493810522167,-0.1094591428645716,-0.015978542841967674,0.0,0.0,0.4,-0.175246299437731,-0.17460826122892079,0.5782391586153288,0.00805755203311753,-0.02622480081409718,0.0,0.0,0.0,0.0,0.0,0.0,0.0
1.171562671661377,9.557606733376637,0.0018400659235300618,-0.10896641781747837,-0.015809388078783144,0.0,0.0,0.4,-0.17638170640974934,-0.17358378600975918,0.5781978528468472,0.007901947583525361,-0.026167292522647982,0.0,0.0,0.0,0.0,0.0,0.0,0.0
1.1768758296966553,9.583586086729998,0.0007019048517110981,-0.10888556392519677,-0.015517628136672304,0.0,0.0,0.4,-0.17759111802080996,-0.1725099088365465,0.5776235869503251,0.007655032393313983,-0.02629593619600541,0.0,0.0,0.0,0.0,0.0,0.0,0.0
1.1822493076324463,9.588568778760106,-0.0006578267838978717,-0.10917020538205306,-0.015109449487496845,0.0,0.0,0.4,-0.17885099304845453,-0.17140308648848682,0.5766593787837645,0.007324656574655362,-0.02659440028616733,0.0,0.0,0.0,0.0,0.0,0.0,0.0
1.1876599788665771,9.5749567807055,-0.002198354745141109,-0.10975204339043292,-0.014602565322458577,0.0,0.0,0.4,-0.1801392308953543,-0.17027947531255214,0.5754248212856826,0.00692369179117009,-0.027038813042332042,0.0,0.0,0.0,0.0,0.0,0.0,0.0
1.1930315494537354,9.545639114648466,-0.003872153867724489,-0.11057446150073422,-0.014037459398202654,0.0,0.0,0.4,-0.18144208483074198,-0.16914813474646312,0.5740247291271736,0.00646761157593621,-0.0276013863472238,0.0,0.0,0.0,0.0,0.0,0.0,0.0
1.1984081268310547,9.503769070618866,-0.005624050769961155,-0.11164949726426757,-0.013383165335662098,0.0,0.0,0.4,-0.1827499049265783,-0.16800938679027796,0.5725548050101243,0.005972807426814263,-0.028252847606268647,0.0,0.0,0.0,0.0,0.0,0.0,0.0
1.2038161754608154,9.452559574722246,-0.007410301631086677,-0.11297082459462988,-0.012645598546405443,0.0,0.0,0.4,-0.18405027059865714,-0.16686873454412707,0.5710908890416662,0.005454564703823023,-0.028964098555682438,0.0,0.0,0.0,0.0,0.0,0.0,0.0
1.209216594696045,9.395110297305447,-0.00917788776476497,-0.11442283212237303,-0.011913684244137591,0.0,0.0,0.4,-0.1853365209593476,-0.16573596867765447,0.569686710649423,0.004926584287899187,-0.02970800133782797,0.0,0.0,0.0,0.0,0.0,0.0,0.0
1.2146296501159668,9.334291892814289,-0.010866655171728391,-0.11586827887003559,-0.011233387926447316,0.0,0.0,0.4,-0.18660871758678718,-0.16461577538328553,0.5683848041331532,0.0044022606673104125,-0.030460585451379175,0.0,0.0,0.0,0.0,0.0,0.0,0.0
1.2200732231140137,9.272666959434705,-0.01245685046513525,-0.11725002046519374,-0.01059259295191621,0.0,0.0,0.4,-0.187862408149934,-0.16351044697452644,0.567217946684784,0.0038943485628851653,-0.03120104134818237,0.0,0.0,0.0,0.0,0.0,0.0,0.0
1.2253572940826416,9.21245880320128,-0.013976084220149414,-0.11859796378440889,-0.00994610822560209,0.0,0.0,0.4,-0.18909318486026935,-0.16241586338607952,0.5662131534392,0.003413012832710087,-0.031911814302395224,0.0,0.0,0.0,0.0,0.0,0.0,0.0
1.2307014465332031,9.155525826383682,-0.015427238764996179,-0.11994404779806235,-0.009271819776353664,0.0,0.0,0.4,-0.19030212311492206,-0.16132649037349248,0.5653877732461813,0.0029645871492904284,-0.032579052957672994,0.0,0.0,0.0,0.0,0.0,0.0,0.0
1.2360880374908447,9.103328074771591,-0.01674669879928756,-0.12122508854879437,-0.008626426955215274,0.0,0.0,0.4,-0.19148933767904525,-0.160247159621975,0.564742113960312,0.002552470416484366,-0.03319244834294715,0.0,0.0,0.0,0.0,0.0,0.0,0.0
1.2415087223052979,9.056938338246695,-0.017897832671533047,-0.12238669051777636,-0.008052589401858332,0.0,0.0,0.4,-0.19265013183557964,-0.15918525056125954,0.5642717775498467,0.0021797684584144174,-0.033744124889199506,0.0,0.0,0.0,0.0,0.0,0.0,0.0
1.2468609809875488,9.017078432835218,-0.018902394233553287,-0.12341452472744645,-0.007569750102418015,0.0,0.0,0.4,-0.19378389892695072,-0.15813979057406344,0.5639739095876305,0.00184894355718413,-0.03422863528279248,0.0,0.0,0.0,0.0,0.0,0.0,0.0
1.2521162033081055,8.98415705976295,-0.01979109532369873,-0.12424106655945197,-0.007189985549993869,0.0,0.0,0.4,-0.19489667699180102,-0.15710343245863143,0.5638418582904511,0.001560287426909072,-0.03464368871445607,0.0,0.0,0.0,0.0,0.0,0.0,0.0
1.2574708461761475,8.958314381879255,-0.02059739953621253,-0.1248126998065902,-0.0068971583770974475,0.0,0.0,0.4,-0.19598911076547398,-0.15607327607989682,0.5638663924735878,0.0013124424466385962,-0.034989394283230904,0.0,0.0,0.0,0.0,0.0,0.0,0.0
1.262843370437622,8.939475998767968,-0.021330890351875503,-0.12516097837183204,-0.006638003872704048,0.0,0.0,0.4,-0.19705875965517783,-0.1550457447032803,0.5640413539291889,0.0011027593711982091,-0.03526737861816039,0.0,0.0,0.0,0.0,0.0,0.0,0.0
1.2681324481964111,8.927397256464145,-0.021965966941818058,-0.12534852258798493,-0.0063658596136178785,0.0,0.0,0.4,-0.19810778427728767,-0.15401441426214008,0.5643608883052975,0.0009268176725598342,-0.03548066477982728,0.0,0.0,0.0,0.0,0.0,0.0,0.0
1.2735085487365723,8.92169121688438,-0.022505776197035966,-0.1254183444375449,-0.00610383676299624,0.0,0.0,0.4,-0.19913616254988506,-0.15298199169650278,0.5648143398247897,0.0007790167033476349,-0.035633062471206865,0.0,0.0,0.0,0.0,0.0,0.0,0.0
1.2788162231445312,8.921846539005688,-0.02298862621926131,-0.12539336168865065,-0.005881260326011479,0.0,0.0,0.4,-0.2001408662539159,-0.1519560506992918,0.5653858185232912,0.0006550321248622903,-0.03572856176255088,0.0,0.0,0.0,0.0,0.0,0.0,0.0
1.2841615676879883,8.92725307261839,-0.02345622385489302,-0.12526823121664094,-0.005711132941054178,0.0,0.0,0.4,-0.20112550041796473,-0.1509367063400311,0.5660588864622798,0.000551783105076493,-0.035771982083474436,0.0,0.0,0.0,0.0,0.0,0.0,0.0
1.2895336151123047,8.93725037775998,-0.02393313131881479,-0.12505064132177288,-0.005576452272542926,0.0,0.0,0.4,-0.20209808650245092,-0.14991585157966197,0.566824104744347,0.00046599122860531867,-0.03576969748258891,0.0,0.0,0.0,0.0,0.0,0.0,0.0
1.2949364185333252,8.951157320665681,-0.024383820376689232,-0.12477251164571658,-0.005440446754873871,0.0,0.0,0.4,-0.2030606235395317,-0.1488913202241835,0.567672462717131,0.0003941780707190669,-0.035728951208577386,0.0,0.0,0.0,0.0,0.0,0.0,0.0
1.300227165222168,8.96828432029382,-0.024746767689691543,-0.12444234137032206,-0.005315469414148281,0.0,0.0,0.4,-0.20401600915263035,-0.14786534779494098,0.5685901566604765,0.0003321772081474896,-0.035657616893897064,0.0,0.0,0.0,0.0,0.0,0.0,0.0
1.3056044578552246,8.9879514209657,-0.024980323157487938,-0.12406744499625381,-0.005230299384429571,0.0,0.0,0.4,-0.20497166525817564,-0.1468348716186839,0.569564616975136,0.000275540136035111,-0.03556429712359244,0.0,0.0,0.0,0.0,0.0,0.0,0.0
1.311034917831421,9.009499270234842,-0.02505220947806603,-0.12365481947844428,-0.005185092909095078,0.0,0.0,0.4,-0.20592847862703131,-0.14580048243842392,0.5705841009936438,0.00022102968043136032,-0.03545723572254061,0.0,0.0,0.0,0.0,0.0,0.0,0.0
1.3164055347442627,9.03231018644806,-0.02495868699131307,-0.1232217049405962,-0.005115954421694608,0.0,0.0,0.4,-0.2068801798190005,-0.144764029827858,0.5716397220928288,0.00016722596351398722,-0.03534285556768122,0.0,0.0,0.0,0.0,0.0,0.0,0.0
1.321866750717163,9.05584091614117,-0.024716255953926996,-0.1227912804113518,-0.004971101243627735,0.0,0.0,0.4,-0.20782513375759137,-0.14372044685191626,0.572730593022376,0.00011225056643767087,-0.035225811538571516,0.0,0.0,0.0,0.0,0.0,0.0,0.0
1.3272521495819092,9.079635758582604,-0.02434040867668236,-0.12236453786352652,-0.004800575577394561,0.0,0.0,0.4,-0.20876977929316382,-0.14266620620763376,0.5738583317560473,5.220947290298107e-05,-0.035110427544530594,0.0,0.0,0.0,0.0,0.0,0.0,0.0
1.3325786590576172,9.103312578237823,-0.023867768168116445,-0.12197429362429114,-0.004675718411868813,0.0,0.0,0.4,-0.20971654366242565,-0.14160594666038226,0.5750190398223041,-1.6296998866620772e-05,-0.0350008640880983,0.0,0.0,0.0,0.0,0.0,0.0,0.0
1.3379580974578857,9.126546171638454,-0.02333976504043394,-0.12163067029583655,-0.004607092331799818,0.0,0.0,0.4,-0.21066629323856678,-0.14054155237165394,0.5762056800107183,-9.463538413180687e-05,-0.034901114884689576,0.0,0.0,0.0,0.0,0.0,0.0,0.0
1.3433609008789062,9.149057568519186,-0.022784279228672908,-0.12127853177685201,-0.004551360720551374,0.0,0.0,0.4,-0.2116244280977472,-0.13946680364613406,0.5774117354211782,-0.00018339623851042853,-0.034815343902170615,0.0,0.0,0.0,0.0,0.0,0.0,0.0
1.3486878871917725,9.170605241286676,-0.022230648648481323,-0.12089825432494145,-0.004493593497661806,0.0,0.0,0.4,-0.21259304428585463,-0.1383814684772145,0.578629881609976,-0.0002835371947232356,-0.03474739052693366,0.0,0.0,0.0,0.0,0.0,0.0,0.0
1.3541889190673828,9.190994257627901,-0.021718650978821075,-0.12052553093480686,-0.004433405305465177,0.0,0.0,0.4,-0.21356739384428747,-0.13729190590397244,0.5798564381395017,-0.000395198766080758,-0.03469967526573579,0.0,0.0,0.0,0.0,0.0,0.0,0.0
1.3595972061157227,9.210093784235381,-0.021250121863526886,-0.120210333512041,-0.004363406825982248,0.0,0.0,0.4,-0.21454339224803184,-0.13619844533727501,0.5810945438782171,-0.0005176249267647032,-0.034672827436599725,0.0,0.0,0.0,0.0,0.0,0.0,0.0
1.364917516708374,9.227839732881302,-0.020822955377557753,-0.12004235967728105,-0.004274409497826924,0.0,0.0,0.4,-0.21552019360048177,-0.1350954410556606,0.5823486841776467,-0.0006504156773685997,-0.03466611898291276,0.0,0.0,0.0,0.0,0.0,0.0,0.0
1.3703534603118896,9.244229535848856,-0.020482537571987078,-0.12012459574422012,-0.00411651183042343,0.0,0.0,0.4,-0.21649364916286046,-0.13397891798228379,0.5836227562532533,-0.0007933978823837428,-0.034677457335706485,0.0,0.0,0.0,0.0,0.0,0.0,0.0
1.3757376670837402,9.259298330995259,-0.020201280188748966,-0.12037776733800717,-0.0039008099379998903,0.0,0.0,0.4,-0.2174669723679546,-0.13284830758547292,0.5849165268804422,-0.0009477673595208673,-0.03470496718664988,0.0,0.0,0.0,0.0,0.0,0.0,0.0
1.3810970783233643,9.27309224922221,-0.019901086250389506,-0.1205983337650438,-0.003711208114468385,0.0,0.0,0.4,-0.21844929817970463,-0.13170465364816908,0.5862248626812335,-0.0011155997541850843,-0.03474825285749919,0.0,0.0,0.0,0.0,0.0,0.0,0.0
1.3864657878875732,9.285662603943567,-0.01958588628423976,-0.12074290947052735,-0.0035548907010993893,0.0,0.0,0.4,-0.21943820554880578,-0.13055101761221,0.587544279173575,-0.0012968036663850208,-0.034807119426314884,0.0,0.0,0.0,0.0,0.0,0.0,0.0
1.3918814659118652,9.297065604487635,-0.01926422617125825,-0.12088053012654296,-0.003384303032648077,0.0,0.0,0.4,-0.22043056811178227,-0.12938715926514888,0.5888733378662561,-0.0014899068498992953,-0.03488108285166623,0.0,0.0,0.0,0.0,0.0,0.0,0.0
1.3972384929656982,9.307370126099466,-0.01887656721934376,-0.12103115870674912,-0.0032381512440215377,0.0,0.0,0.4,-0.22143092905563388,-0.12821073073666756,0.5902128291384486,-0.0016949363001245471,-0.03496978295203321,0.0,0.0,0.0,0.0,0.0,0.0,0.0
1.4026553630828857,9.316653041846957,-0.01838298026329217,-0.12116848439395106,-0.0032176207795636346,0.0,0.0,0.4,-0.22244037094097802,-0.12702843224157076,0.5915621610315442,-0.0019119307183259177,-0.0350728105350866,0.0,0.0,0.0,0.0,0.0,0.0,0.0
1.4082953929901123,9.324995434393657,-0.017794318705156097,-0.12127279191078533,-0.003346323009397454,0.0,0.0,0.4,-0.22345446849029627,-0.1258494108017344,0.592920067041233,-0.002137906822134976,-0.035189197075144396,0.0,0.0,0.0,0.0,0.0,0.0,0.0
1.4136638641357422,9.335289193136452,-0.01676524584605395,-0.12135969091150677,-0.0035352792519678933,0.0,0.0,0.4,-0.22388687846073757,-0.1251842619613793,0.5951916365195815,-0.002278095206877905,-0.03521603534170791,0.0,0.0,0.0,0.0,0.0,0.0,0.0
1.419025182723999,9.352585068077891,-0.014807323745624804,-0.12120361937862056,-0.0036715688509250323,0.0,0.0,0.4,-0.22328479173037583,-0.1254239952927272,0.5990864154968083,-0.002153015261586906,-0.03495318732418098,0.0,0.0,0.0,0.0,0.0,0.0,0.0
1.4243056774139404,9.378311490011269,-0.012047073837436039,-0.12032491816428738,-0.003711457637558109,0.0,0.0,0.4,-0.2224742094508711,-0.12584110663241316,0.6033362131191404,-0.0016864836789253358,-0.034313907600537305,0.0,0.0,0.0,0.0,0.0,0.0,0.0
1.429689645767212,9.410254401579033,-0.008869214013179104,-0.11864308007515957,-0.0037059466833070406,0.0,0.0,0.4,-0.22212246884531567,-0.1258516022628785,0.6069174513719917,-0.0009485763141938599,-0.03337468116524882,0.0,0.0,0.0,0.0,0.0,0.0,0.0
1.435058355331421,9.444743808754996,-0.0055760831707224985,-0.1165405856130794,-0.003740178312049354,0.0,0.0,0.4,-0.22217403205640113,-0.12550760780416054,0.6099250464393151,-8.735273893723268e-05,-0.03230082841377618,0.0,0.0,0.0,0.0,0.0,0.0,0.0
1.4403612613677979,9.477959429353545,-0.002472169766569239,-0.11443472134284247,-0.003788399478949929,0.0,0.0,0.4,-0.2225670935792413,-0.12485865965431153,0.612442778692383,0.0007456469215770181,-0.031263465892157664,0.0,0.0,0.0,0.0,0.0,0.0,0.0
1.445659875869751,9.50724785707754,0.00021622008751826782,-0.11263489946843003,-0.0037790043635667694,0.0,0.0,0.4,-0.2232390569222317,-0.12395344975265815,0.6145441931464176,0.001445497313708299,-0.030380386588423406,0.0,0.0,0.0,0.0,0.0,0.0,0.0
1.4510202407836914,9.530921592490447,0.002313316177085913,-0.11127514242533922,-0.0037416939852519624,0.0,0.0,0.4,-0.22414503635642238,-0.12283754434428149,0.6162996774973214,0.0019441191587341912,-0.029726560657186547,0.0,0.0,0.0,0.0,0.0,0.0,0.0
1.4562928676605225,9.548086994105468,0.003723915722421523,-0.11038937483243916,-0.003703681454294979,0.0,0.0,0.4,-0.2252514343790945,-0.12154812931040346,0.6177780544644642,0.0022042028928112582,-0.029344030520738577,0.0,0.0,0.0,0.0,0.0,0.0,0.0
1.4616799354553223,9.558470176287669,0.004432937335407919,-0.1100210977432917,-0.0036481577645909673,0.0,0.0,0.4,-0.22651716820634937,-0.12012132990226335,0.6190377001027287,0.00221357580044,-0.02924815769291593,0.0,0.0,0.0,0.0,0.0,0.0,0.0
