T,Px,Py,Pz,Vx,Vy,Vz,Roll,Pitch,Yaw,R_rate,P_rate,Y_rate,T,M1,M2,M3,Wb1,Wb2,Wb3
0,0,0,0,0,0,0,-0.7305288,-0.086703554,0.81894882,0,0,0,0,0,0,0,0,0,0
0.0001297,-0.000770074,-0.000828368,0.00437255,-4.77E-05,4.03E-05,8.01E-06,-0.015028803,-0.001794415,0.016848946,0,0,0,0,0,0,0,0,0,0
0.01108861,-0.004020022,-0.004317689,0.022740146,-0.001039502,-0.000140073,-0.003002373,-0.076795361,-0.00812978,0.08710341,0,0,0,0,0,0,0,0,0,0
0.021525621,-0.008399276,-0.009013041,0.04741323,-0.002224257,-0.000404612,-0.00685196,-0.158533615,-0.015551202,0.180995042,0,0,0,0,0,0,0,0,0,0
0.031961203,-0.013875135,-0.014888826,0.078328969,-0.001921365,-0.000188181,-0.005772367,-0.261909157,-0.02568949,0.298989057,0,0,0,0,0,0,0,0,0,0
0.042384863,-0.019326673,-0.020749215,0.109225259,-0.000585755,0.000194276,-0.001726182,-0.366884605,-0.037292446,0.417523027,0,0,0,0,0,0,0,0,0,0
0.052775621,-0.024196642,-0.026031491,0.136955655,0.001437312,-0.00224027,-0.000146605,-0.459934089,-0.047455658,0.522882661,0,0,0,0,0,0,0,0,0,0
0.063248873,-0.028847037,-0.031142183,0.163555704,0.003595992,-0.006247735,-0.000237121,-0.546158511,-0.055789934,0.621866374,0,0,0,0,0,0,0,0,0,0
0.073583126,-0.031550036,-0.034144764,0.179112313,0.003449945,-0.005514759,0.000790183,-0.596028342,-0.060683175,0.679153484,0,0,0,0,0,0,0,0,0,0
0.083969116,-0.034477125,-0.037342301,0.19587464,0.002104431,-0.002175486,0.002542569,-0.652563519,-0.067377788,0.742709917,0,0,0,0,0,0,0,0,0,0
0.094774723,-0.03902852,-0.042266231,0.221819516,0.001067935,0.000246524,0.003730274,-0.74148024,-0.078183454,0.842222464,0,0,0,0,0,0,0,0,0,0
0.105347157,-0.038678236,-0.041860413,0.219866867,0.000219143,0.001800848,0.00378385,-0.73812697,-0.079628864,0.836475938,0,0,0,0,0,0,0,0,0,0
0.115962505,-0.039532679,-0.04274926,0.224736019,-0.00025024,0.002557219,0.003605773,-0.757922704,-0.083591926,0.856912921,0,0,0,0,0,0,0,0,0,0
0.126465559,-0.038972775,-0.042111688,0.221517189,-0.0006017,0.002079118,0.000629601,-0.749110555,-0.083368248,0.845997579,0,0,0,0,0,0,0,0,0,0
0.136884689,-0.038395865,-0.041466046,0.218141461,-0.000892184,0.000980367,-0.003793458,-0.7375257,-0.081220011,0.833516328,0,0,0,0,0,0,0,0,0,0
0.14752984,-0.039767508,-0.042926588,0.225833308,-0.000959583,0.000858949,-0.003962442,-0.763209818,-0.083130885,0.863225812,0,0,0,0,0,0,0,0,0,0
0.157918215,-0.037849927,-0.040831255,0.214789975,-0.001742499,0.000519719,-0.00469992,-0.725563913,-0.078141024,0.821318458,0,0,0,0,0,0,0,0,0,0
0.168299675,-0.037605713,-0.040566787,0.213245674,-0.001235681,-0.001262494,-0.008019485,-0.718416438,-0.07532493,0.814951614,0,0,0,0,0,0,0,0,0,0
0.179036617,-0.039705219,-0.042910444,0.225337242,0.004057161,-0.003213076,-0.004944319,-0.756439657,-0.077048693,0.859947603,0,0,0,0,0,0,0,0,0,0
0.189361811,-0.036696361,-0.039802619,0.208834017,0.009287038,-0.003713041,0.00205469,-0.699038871,-0.069955326,0.795599989,0,0,0,0,0,0,0,0,0,0
0.199732304,-0.036717137,-0.040002408,0.209734053,0.011973553,-0.00382506,0.006064166,-0.700575238,-0.069532989,0.797634426,0,0,0,0,0,0,0,0,0,0
0.210172176,-0.036993396,-0.040464821,0.2120169,0.010779467,-0.003529869,0.00515677,-0.706452945,-0.069362079,0.804849316,0,0,0,0,0,0,0,0,0,0
0.220525503,-0.036382484,-0.039878823,0.208833144,0.005103505,-0.002148591,0.000608512,-0.693834552,-0.0669217,0.791559069,0,0,0,0,0,0,0,0,0,0
0.230881453,-0.036445845,-0.039948835,0.209115022,-0.000796682,-0.000820155,-0.003617811,-0.693311494,-0.06571354,0.792063064,0,0,0,0,0,0,0,0,0,0
0.241111279,-0.035783852,-0.039177702,0.204985512,-0.004403707,-0.000384927,-0.006651229,-0.678706862,-0.063285572,0.776340066,0,0,0,0,0,0,0,0,0,0
0.251413345,-0.036423523,-0.039849934,0.208343216,-0.003980065,-0.001626355,-0.006499851,-0.688202526,-0.063209118,0.788333539,0,0,0,0,0,0,0,0,0,0
0.262007475,-0.038441755,-0.042085455,0.219771813,-0.001071432,-0.003950692,-0.004411315,-0.722852004,-0.065508451,0.829510431,0,0,0,0,0,0,0,0,0,0
0.272303343,-0.036578713,-0.040049523,0.208941031,-0.002076565,-0.0030139,-0.004433158,-0.684745375,-0.06135432,0.787023301,0,0,0,0,0,0,0,0,0,0
0.282740116,-0.037551758,-0.041069211,0.21415337,-0.004519141,-0.001082737,-0.00640531,-0.700526907,-0.061993267,0.806137022,0,0,0,0,0,0,0,0,0,0
0.293133259,-0.037300907,-0.040762575,0.21253915,-0.002376932,-2.08E-05,-0.00336806,-0.695378188,-0.061417769,0.800283795,0,0,0,0,0,0,0,0,0,0
0.30345273,-0.036827355,-0.04022565,0.209862584,3.22E-05,0.001436705,0.002357703,-0.68877038,-0.062111394,0.791280813,0,0,0,0,0,0,0,0,0,0
0.313995123,-0.038275739,-0.041760893,0.218138673,-0.000637553,0.003418052,0.005995722,-0.719918857,-0.067420291,0.824491738,0,0,0,0,0,0,0,0,0,0
0.324401379,-0.03736545,-0.04070192,0.212902929,-0.001816147,0.004064847,0.005757958,-0.706283176,-0.068353587,0.80668607,0,0,0,0,0,0,0,0,0,0
0.334840536,-0.037523363,-0.040836621,0.213814471,-0.000503106,0.002830609,0.003861813,-0.710760431,-0.069515514,0.811109215,0,0,0,0,0,0,0,0,0,0
0.345369577,-0.037997894,-0.041384312,0.216801702,0.003802933,0.001006423,0.005236031,-0.721001944,-0.070667117,0.822595436,0,0,0,0,0,0,0,0,0,0
0.355848074,-0.037515292,-0.040923193,0.214486735,0.006013915,0.000298321,0.007370932,-0.714128538,-0.070669718,0.813980368,0,0,0,0,0,0,0,0,0,0
0.366295099,-0.037187362,-0.040589213,0.212883891,0.003253879,0.001250572,0.00704412,-0.710787293,-0.071784024,0.808713978,0,0,0,0,0,0,0,0,0,0
0.37677145,-0.037311083,-0.040690565,0.213617602,-0.000659056,0.00250442,0.005814164,-0.716292115,-0.074406081,0.812994442,0,0,0,0,0,0,0,0,0,0
0.387203455,-0.037008476,-0.040294172,0.211752819,-0.003034481,0.003051927,0.004388878,-0.713441717,-0.076333069,0.807653159,0,0,0,0,0,0,0,0,0,0
0.397548199,-0.03648278,-0.039642561,0.208534064,-0.00410594,0.003119291,0.003085771,-0.705871547,-0.077610125,0.79711329,0,0,0,0,0,0,0,0,0,0
0.408018827,-0.037360841,-0.040513058,0.213305221,-0.004567102,0.003054669,0.002208966,-0.72505011,-0.081623827,0.816993596,0,0,0,0,0,0,0,0,0,0
0.418440819,-0.037126426,-0.040179041,0.21171504,-0.004506866,0.002786505,0.001458446,-0.722219978,-0.082913515,0.812332164,0,0,0,0,0,0,0,0,0,0
0.429333448,-0.040202076,-0.043431696,0.229003741,-0.0044087,0.002571156,0.000919714,-0.783397236,-0.091300633,0.879906035,0,0,0,0,0,0,0,0,0,0
0.439692497,-0.036641023,-0.039526543,0.208433393,-0.004259047,0.001040074,-0.003369231,-0.7133445,-0.083072967,0.801285,0,0,0,0,0,0,0,0,0,0
0.450130463,-0.037094404,-0.039965431,0.210611907,-0.005103897,-0.000645082,-0.009621563,-0.718907165,-0.081884012,0.8092061,0,0,0,0,0,0,0,0,0,0
0.460847616,-0.038885623,-0.04185151,0.220358482,-0.005038714,-0.001203546,-0.012263665,-0.7488373,-0.082404343,0.845587124,0,0,0,0,0,0,0,0,0,0
0.471426249,-0.037901813,-0.040787416,0.214553197,-0.002061524,-0.001666987,-0.010662607,-0.724731208,-0.076356102,0.821596391,0,0,0,0,0,0,0,0,0,0
0.482086897,-0.038253435,-0.041247776,0.216747289,0.004244747,-0.003147602,-0.005093904,-0.727730665,-0.073643386,0.827820596,0,0,0,0,0,0,0,0,0,0
0.492779016,-0.038199948,-0.041353545,0.217089696,0.01031114,-0.004286067,0.002332777,-0.725685088,-0.071667972,0.827022004,0,0,0,0,0,0,0,0,0,0
0.503284693,-0.036741338,-0.039968352,0.209640831,0.012724767,-0.004429841,0.006617123,-0.698712677,-0.068216138,0.796823655,0,0,0,0,0,0,0,0,0,0
0.514021635,-0.037960847,-0.041501381,0.217537329,0.013828981,-0.004302271,0.009093851,-0.723755664,-0.070524123,0.825261747,0,0,0,0,0,0,0,0,0,0
0.524667025,-0.037168105,-0.040792488,0.213757814,0.01092884,-0.002839029,0.009011624,-0.711073293,-0.069856665,0.810062416,0,0,0,0,0,0,0,0,0,0
0.535437107,-0.037804051,-0.04154554,0.217684058,0.003780562,-0.001004874,0.003593393,-0.724485402,-0.071624671,0.824814381,0,0,0,0,0,0,0,0,0,0
0.546043396,-0.036686086,-0.040327603,0.210982856,-0.001375996,-0.002558555,-0.016322452,-0.701890961,-0.067853579,0.799570212,0,0,0,0,0,0,0,0,0,0
0.556491375,-0.035648378,-0.039288352,0.204601091,0.001470322,-0.00805804,-0.046297767,-0.680914883,-0.062116772,0.775937849,0,0,0,0,0,0,0,0,0,0
0.566906929,-0.035474559,-0.039251517,0.203227065,0.004050409,-0.010201481,-0.057407264,-0.678077739,-0.058090272,0.771902393,0,0,0,0,0,0,0,0,0,0
0.577600241,-0.037287321,-0.041389964,0.213297477,0.00358173,-0.008478641,-0.049140664,-0.714423409,-0.058737139,0.811702917,0,0,0,0,0,0,0,0,0,0
0.587981224,-0.035431396,-0.039432493,0.202489995,0.002992938,-0.005969488,-0.034745424,-0.681169453,-0.05484503,0.772077838,0,0,0,0,0,0,0,0,0,0
0.598357201,-0.035529979,-0.039609659,0.202897477,0.001679355,-0.003767153,-0.024485037,-0.685473976,-0.054850069,0.775104116,0,0,0,0,0,0,0,0,0,0
0.608842373,-0.036366281,-0.040632688,0.207535282,0.002671965,-0.004808665,-0.028834673,-0.703701164,-0.055366433,0.794125764,0,0,0,0,0,0,0,0,0,0
0.619370222,-0.036759368,-0.041172494,0.209676255,0.003326578,-0.005155266,-0.029399127,-0.713030544,-0.054836234,0.803371392,0,0,0,0,0,0,0,0,0,0
0.630100489,-0.038113827,-0.04269862,0.217405553,0.000379965,0.000140291,-0.00286241,-0.740695188,-0.057523355,0.833608256,0,0,0,0,0,0,0,0,0,0
0.640417337,-0.035520168,-0.039743022,0.202873087,-0.000467547,0.004696943,0.026180746,-0.691119232,-0.055787897,0.77757763,0,0,0,0,0,0,0,0,0,0
0.650768757,-0.035773994,-0.03996749,0.204821967,0.00055947,0.006704048,0.042585793,-0.696482064,-0.058967801,0.783947529,0,0,0,0,0,0,0,0,0,0
0.661621332,-0.038992183,-0.043487132,0.223864984,0.000744295,0.008463103,0.053015496,-0.759278405,-0.067470909,0.855304802,0,0,0,0,0,0,0,0,0,0
0.672023296,-0.036077564,-0.040165943,0.207691407,0.000644082,0.007758146,0.048583719,-0.702437677,-0.065223403,0.792031442,0,0,0,0,0,0,0,0,0,0
0.682370186,-0.035694778,-0.03968526,0.206020764,0.000981895,0.006468765,0.044024947,-0.694783193,-0.066946374,0.784206571,0,0,0,0,0,0,0,0,0,0
0.692825556,-0.036403138,-0.040436442,0.210607385,0.00134499,0.005043627,0.038697908,-0.708315519,-0.070285038,0.800281507,0,0,0,0,0,0,0,0,0,0
0.703195333,-0.03592358,-0.039886427,0.208284378,0.00186057,0.003737913,0.031606747,-0.698842755,-0.070868041,0.790288872,0,0,0,0,0,0,0,0,0,0
0.713975191,-0.038531472,-0.042789648,0.223929344,0.003421222,0.003055128,0.029876272,-0.749797903,-0.076952681,0.848529796,0,0,0,0,0,0,0,0,0,0
0.724361897,-0.035983502,-0.03995706,0.209517382,0.002209294,0.002766586,0.024482169,-0.700716068,-0.07233868,0.79320874,0,0,0,0,0,0,0,0,0,0
0.734710455,-0.035762044,-0.039636343,0.208203799,-0.003294155,0.003601343,0.015704124,-0.696896095,-0.072744661,0.78852125,0,0,0,0,0,0,0,0,0,0
0.745495081,-0.038616846,-0.042643819,0.22433338,-0.009455035,0.004717153,0.006309177,-0.752926025,-0.080084006,0.851003969,0,0,0,0,0,0,0,0,0,0
0.755990267,-0.036822625,-0.040482207,0.213213181,-0.011616561,0.004642422,-0.000874006,-0.718221074,-0.078050094,0.810676906,0,0,0,0,0,0,0,0,0,0
0.766663313,-0.037972809,-0.041556949,0.219069351,-0.01256671,0.004478664,-0.005339391,-0.740834155,-0.082201803,0.835024308,0,0,0,0,0,0,0,0,0,0
0.777194738,-0.03707609,-0.040405883,0.213135539,-0.011450289,0.003750267,-0.007374791,-0.723418907,-0.08174759,0.814337001,0,0,0,0,0,0,0,0,0,0
0.787728548,-0.037104754,-0.040297534,0.21258729,-0.010072172,0.002332636,-0.010427558,-0.722651627,-0.081998117,0.813433955,0,0,0,0,0,0,0,0,0,0
0.798252583,-0.037083941,-0.040168659,0.211802838,-0.008624378,0.0007086,-0.013952586,-0.718834274,-0.080279232,0.810577981,0,0,0,0,0,0,0,0,0,0
0.808697939,-0.036653753,-0.039618811,0.208797279,-0.006933862,0.000405926,-0.012433783,-0.707486275,-0.077776179,0.799104646,0,0,0,0,0,0,0,0,0,0
0.819164276,-0.036885319,-0.039800519,0.209714614,-0.005253673,0.000778962,-0.008064737,-0.710770697,-0.07794295,0.803087885,0,0,0,0,0,0,0,0,0,0
0.829621077,-0.036920255,-0.03981587,0.209760263,-0.001811321,0.000105069,-0.004010086,-0.711424249,-0.078231929,0.803624808,0,0,0,0,0,0,0,0,0,0
0.839941978,-0.036123941,-0.039020135,0.205470935,0.004007256,-0.001764967,-6.37E-05,-0.696618826,-0.076576978,0.786818588,0,0,0,0,0,0,0,0,0,0
0.850358725,-0.036780886,-0.039868476,0.20977932,0.009160907,-0.003458715,0.002939536,-0.71008515,-0.077666226,0.802209754,0,0,0,0,0,0,0,0,0,0
0.861252069,-0.039821391,-0.043351952,0.2279128,0.012583224,-0.004527844,0.004890634,-0.769734777,-0.08355289,0.869964399,0,0,0,0,0,0,0,0,0,0
0.87157917,-0.036030474,-0.039382542,0.206843698,0.010235125,-0.004081596,0.002070588,-0.696077236,-0.074227541,0.787782331,0,0,0,0,0,0,0,0,0,0
0.881984234,-0.036444288,-0.039923589,0.209497496,0.005078525,-0.002849803,-0.003027969,-0.70179218,-0.072697789,0.796168223,0,0,0,0,0,0,0,0,0,0
0.892395258,-0.036527325,-0.040016634,0.209913066,-0.000536119,-0.000531776,-0.004089346,-0.70148519,-0.07135983,0.797049521,0,0,0,0,0,0,0,0,0,0
0.902750492,-0.036288522,-0.039697592,0.20829919,-0.003953446,0.001487369,-0.001963451,-0.696690385,-0.071110358,0.791436318,0,0,0,0,0,0,0,0,0,0
0.913166046,-0.036826162,-0.040193667,0.211044349,-0.005892621,0.002727335,-0.000525292,-0.707905182,-0.073461816,0.803130041,0,0,0,0,0,0,0,0,0,0
0.923489571,-0.03641121,-0.03963525,0.208292813,-0.006610538,0.003247543,0.000446767,-0.701413477,-0.074480215,0.794270866,0,0,0,0,0,0,0,0,0,0
0.933832407,-0.036715799,-0.039860661,0.20966819,-0.006612575,0.003307739,0.001123318,-0.709009193,-0.077148119,0.80121338,0,0,0,0,0,0,0,0,0,0
0.944899321,-0.041557652,-0.045014425,0.236912916,-0.006893578,0.002802137,-0.000968737,-0.802961828,-0.088375417,0.906549728,0,0,0,0,0,0,0,0,0,0
0.955181599,-0.036316971,-0.039270972,0.206687393,-0.005229553,0.001142851,-0.004197477,-0.699916223,-0.076336396,0.790985461,0,0,0,0,0,0,0,0,0,0
0.965714455,-0.037819943,-0.0408427,0.214945138,-0.004267446,0.000849374,-0.003439543,-0.727081559,-0.078510795,0.822541934,0,0,0,0,0,0,0,0,0,0
0.976434231,-0.038854791,-0.042035862,0.221099876,0.004861448,-0.00141794,-0.00134996,-0.746729621,-0.079827857,0.845461557,0,0,0,0,0,0,0,0,0,0
0.986863852,-0.036652353,-0.039914761,0.209609005,0.01726098,-0.00511617,-0.001207132,-0.705146288,-0.073730639,0.799623084,0,0,0,0,0,0,0,0,0,0
0.997767448,-0.039350137,-0.043116985,0.226118003,0.017078781,-0.004766511,0.000352213,-0.758478691,-0.078093955,0.860914725,0,0,0,0,0,0,0,0,0,0
1.008298159,-0.036705839,-0.040312643,0.211345346,0.005632117,-0.000922203,0.002618251,-0.70915369,-0.073335456,0.804501626,0,0,0,0,0,0,0,0,0,0
1.018704414,-0.035800261,-0.039303416,0.206136001,-0.001441058,0.001437258,0.003669935,-0.693350515,-0.072915948,0.785429985,0,0,0,0,0,0,0,0,0,0
1.02916503,-0.036177037,-0.039636349,0.208052436,-0.005726187,0.00286059,0.004084576,-0.702254851,-0.075531757,0.794009982,0,0,0,0,0,0,0,0,0,0
1.039503336,-0.035573071,-0.038862799,0.204198131,-0.007695769,0.003430948,0.003868971,-0.69187267,-0.076167752,0.780734078,0,0,0,0,0,0,0,0,0,0
1.049846888,-0.035823741,-0.039042946,0.20537003,-0.006139427,0.003180612,0.006538329,-0.69790223,-0.078101652,0.786237999,0,0,0,0,0,0,0,0,0,0
1.060969591,-0.040936289,-0.044623794,0.234682579,-0.000296625,-0.000141992,0.000142283,-0.798576228,-0.088742247,0.898711235,0,0,0,0,0,0,0,0,0,0
1.071371794,-0.036187579,-0.039546395,0.207489287,0.003573328,-0.004333609,-0.016975249,-0.706488411,-0.076183185,0.79457413,0,0,0,0,0,0,0,0,0,0
1.081790447,-0.036179182,-0.039661827,0.207332198,0.003605757,-0.006371768,-0.028828708,-0.70650995,-0.073292737,0.794205044,0,0,0,0,0,0,0,0,0,0
1.092181444,-0.035974891,-0.039625833,0.20599719,0.005755434,-0.010062634,-0.045686546,-0.702451729,-0.068849811,0.789389013,0,0,0,0,0,0,0,0,0,0
1.102664948,-0.036485916,-0.040521984,0.209197003,0.014692101,-0.01427646,-0.054853379,-0.712217193,-0.064373187,0.800967684,0,0,0,0,0,0,0,0,0,0
1.113320112,-0.037375088,-0.041976868,0.21529203,0.025258545,-0.015667802,-0.045941687,-0.729333608,-0.060019669,0.822059663,0,0,0,0,0,0,0,0,0,0
1.123626709,-0.035029004,-0.039702406,0.202615408,0.020052783,-0.011399937,-0.031300646,-0.683314774,-0.05191862,0.771779225,0,0,0,0,0,0,0,0,0,0
1.13398385,-0.035334016,-0.04021033,0.204630603,0.008254623,-0.005676635,-0.019492955,-0.689007771,-0.050149092,0.778853089,0,0,0,0,0,0,0,0,0,0
1.144630432,-0.037221054,-0.042395435,0.215476383,0.001117491,-0.001999878,-0.010480534,-0.725458882,-0.051957852,0.82018724,0,0,0,0,0,0,0,0,0,0
1.155105829,-0.036222008,-0.041190253,0.209541332,-0.003516523,0.002420518,0.00888033,-0.705611535,-0.051424888,0.797713066,0,0,0,0,0,0,0,0,0,0
1.165549755,-0.036093059,-0.04092219,0.20862286,-0.005843149,0.004706828,0.019552054,-0.702794697,-0.053089517,0.794370964,0,0,0,0,0,0,0,0,0,0
1.175962925,-0.035970113,-0.040718165,0.207634992,-0.004340616,0.000864414,0.00015792,-0.700174326,-0.053415323,0.791054473,0,0,0,0,0,0,0,0,0,0
1.186378241,-0.036073442,-0.040790352,0.207828924,-0.004379558,-0.001103902,-0.012227708,-0.702047932,-0.053373542,0.7925994,0,0,0,0,0,0,0,0,0,0
1.196984529,-0.037375247,-0.042173363,0.214848743,-0.006649278,0.000691391,-0.007228521,-0.72738297,-0.055767961,0.820447913,0,0,0,0,0,0,0,0,0,0
1.207368374,-0.036034621,-0.040575192,0.20674582,-0.006104288,0.001261776,-0.002862574,-0.701324929,-0.054397653,0.790409109,0,0,0,0,0,0,0,0,0,0
1.217771053,-0.03620722,-0.040706008,0.207468011,-0.004531863,0.001172364,0.000204934,-0.704619993,-0.0551623,0.793709634,0,0,0,0,0,0,0,0,0,0
1.228454113,-0.03803147,-0.042689839,0.217681092,-0.004428716,0.001649917,0.002200118,-0.74003668,-0.058531938,0.833242723,0,0,0,0,0,0,0,0,0,0
1.238970041,-0.036954926,-0.041405927,0.211274277,-0.004608401,0.002049663,0.002756935,-0.719102086,-0.057626181,0.809265101,0,0,0,0,0,0,0,0,0,0
1.249287605,-0.035670253,-0.039952104,0.203729169,-0.001788575,-0.000811647,-0.008978225,-0.694140336,-0.05533844,0.780842492,0,0,0,0,0,0,0,0,0,0
1.259794235,-0.036860135,-0.041307001,0.210351221,-0.000104463,-0.002550672,-0.015970222,-0.717288044,-0.056239931,0.806626816,0,0,0,0,0,0,0,0,0,0
1.270334721,-0.037098143,-0.041557828,0.211550676,-0.001442796,-0.000484591,-0.006905394,-0.721917497,-0.056412218,0.811602298,0,0,0,0,0,0,0,0,0,0
1.281062126,-0.038261833,-0.042822554,0.218054191,-0.002064257,0.000920521,-0.000865155,-0.744614583,-0.05851776,0.836905805,0,0,0,0,0,0,0,0,0,0
1.291561365,-0.036720533,-0.041058575,0.209212317,-0.001538265,0.00134104,0.003298511,-0.714853914,-0.056857242,0.803221731,0,0,0,0,0,0,0,0,0,0
1.302043438,-0.03650272,-0.040846203,0.208022677,0.001882494,-0.001673574,-0.005677647,-0.711015778,-0.056366262,0.798700637,0,0,0,0,0,0,0,0,0,0
1.312716007,-0.037580159,-0.042176327,0.214259523,0.005835647,-0.00618418,-0.023818375,-0.732253293,-0.056147725,0.822527106,0,0,0,0,0,0,0,0,0,0
1.323254108,-0.036586354,-0.041218365,0.208663993,0.006967848,-0.007932427,-0.03274914,-0.712848064,-0.051856792,0.800884091,0,0,0,0,0,0,0,0,0,0
1.333848476,-0.036818192,-0.041591285,0.210023554,0.004939728,-0.005749421,-0.024347491,-0.717273809,-0.05009906,0.80601273,0,0,0,0,0,0,0,0,0,0
1.344750643,-0.038650374,-0.043675515,0.220467032,0.000772604,-0.001038945,-0.004897191,-0.75293255,-0.052259978,0.846142678,0,0,0,0,0,0,0,0,0,0
1.355315924,-0.036394006,-0.041074372,0.207550165,-0.002250188,0.002216458,0.008613748,-0.708930487,-0.050025387,0.796697129,0,0,0,0,0,0,0,0,0,0
1.365715027,-0.03530427,-0.039759649,0.201271494,-0.003800799,0.003876943,0.015735324,-0.68767435,-0.04995154,0.772765792,0,0,0,0,0,0,0,0,0,0
1.376310587,-0.036535454,-0.041106358,0.208248749,-0.001908694,0.001763895,0.007079008,-0.71163532,-0.052333999,0.799666143,0,0,0,0,0,0,0,0,0,0
1.38676405,-0.035625838,-0.040208543,0.203578177,0.008233985,-0.00258766,0.002403165,-0.694069312,-0.049875225,0.780622212,0,0,0,0,0,0,0,0,0,0
1.39789629,-0.039662864,-0.045086044,0.22812173,0.02260377,-0.005506851,0.015398229,-0.773206244,-0.052972558,0.871554988,0,0,0,0,0,0,0,0,0,0
1.408498049,-0.036028506,-0.041190087,0.208409328,0.018036866,-0.003200443,0.019448145,-0.702759423,-0.046503507,0.793688743,0,0,0,0,0,0,0,0,0,0
1.418964148,-0.035037055,-0.040097637,0.203099583,0.005895006,0.001075313,0.019141739,-0.683566474,-0.045437972,0.772553155,0,0,0,0,0,0,0,0,0,0
1.429516792,-0.035570539,-0.040654472,0.206231883,-0.000188784,0.002974767,0.018160774,-0.693848678,-0.047189561,0.784279474,0,0,0,0,0,0,0,0,0,0
1.439917088,-0.034793194,-0.039628144,0.201552967,-0.005034896,0.005601824,0.024622137,-0.676943826,-0.047316887,0.766047753,0,0,0,0,0,0,0,0,0,0
1.450301409,-0.034973932,-0.039611964,0.20218899,-0.010742241,0.007409271,0.032886358,-0.674582128,-0.047793641,0.766466423,0,0,0,0,0,0,0,0,0,0
1.460977554,-0.037004609,-0.041805815,0.213974614,-0.004766586,0.003690612,0.039028848,-0.705160491,-0.049178257,0.806420483,0,0,0,0,0,0,0,0,0,0
1.47134304,-0.035159245,-0.039790698,0.204065045,0.00611388,0.00014076,0.039249127,-0.663275551,-0.04448216,0.76373114,0,0,0,0,0,0,0,0,0,0
1.481820345,-0.035962046,-0.040690593,0.209171796,0.000952228,0.002659777,0.034333776,-0.673419767,-0.044018811,0.779432846,0,0,0,0,0,0,0,0,0,0
1.492323637,-0.036345916,-0.040938173,0.211151547,-0.01027326,0.007505304,0.029763981,-0.678542472,-0.045984188,0.786536844,0,0,0,0,0,0,0,0,0,0
1.502836704,-0.03664398,-0.040995494,0.212310363,-0.015472176,0.010693229,0.027978687,-0.685600865,-0.050748672,0.793018976,0,0,0,0,0,0,0,0,0,0
1.513564825,-0.038200263,-0.04241334,0.220578048,-0.018038775,0.012326776,0.025172541,-0.718465677,-0.058931951,0.827552492,0,0,0,0,0,0,0,0,0,0
1.524189711,-0.037637162,-0.041478213,0.216563675,-0.017331439,0.011795809,0.020188995,-0.712556754,-0.064349838,0.816618121,0,0,0,0,0,0,0,0,0,0
1.534622669,-0.036472863,-0.039925692,0.209172489,-0.015050844,0.010137095,0.015143947,-0.695241064,-0.068142661,0.792726851,0,0,0,0,0,0,0,0,0,0
1.545440674,-0.038957817,-0.042423475,0.222851173,-0.012383176,0.008443614,0.011819069,-0.74725978,-0.078026832,0.848223026,0,0,0,0,0,0,0,0,0,0
1.555959702,-0.036994316,-0.040151332,0.211294535,-0.007405427,0.005346497,0.007682665,-0.713291528,-0.077866358,0.806811633,0,0,0,0,0,0,0,0,0,0
1.566532612,-0.037282974,-0.040370639,0.212711611,-0.005247412,0.003770232,0.004877494,-0.721864589,-0.081360995,0.814219673,0,0,0,0,0,0,0,0,0,0
1.577150583,-0.037551425,-0.040580526,0.214015763,-0.004654023,0.003022509,0.002633398,-0.729462687,-0.084222111,0.820896245,0,0,0,0,0,0,0,0,0,0
1.587630987,-0.036682927,-0.039580866,0.208872731,-0.003633673,0.002133161,0.000780178,-0.7143464,-0.083898392,0.802464367,0,0,0,0,0,0,0,0,0,0
1.598372221,-0.03835477,-0.041339315,0.218230467,-0.002797566,0.00146829,-0.000503634,-0.748192719,-0.08887573,0.839418992,0,0,0,0,0,0,0,0,0,0
1.609140873,-0.038499072,-0.041458424,0.218818106,-0.00309352,0.000216741,-0.004994948,-0.750278909,-0.088745491,0.841960735,0,0,0,0,0,0,0,0,0,0
1.619738817,-0.037343221,-0.040183973,0.211898356,-0.003869104,-0.001323736,-0.010841252,-0.724347184,-0.083509854,0.814722162,0,0,0,0,0,0,0,0,0,0
1.630477905,-0.038157279,-0.041065153,0.216320889,-0.001395208,-0.001986735,-0.009915807,-0.736735566,-0.082528266,0.830724633,0,0,0,0,0,0,0,0,0,0
1.640930653,-0.036255889,-0.039069796,0.205661717,0.002779105,-0.001737238,-0.003899878,-0.69854701,-0.076805655,0.788833505,0,0,0,0,0,0,0,0,0,0
1.651357651,-0.036067621,-0.038967309,0.204898561,0.005498328,-0.003429593,-0.002222938,-0.692836754,-0.074715219,0.78392906,0,0,0,0,0,0,0,0,0,0
1.661799192,-0.036211057,-0.039272873,0.206112582,0.007248785,-0.006347032,-0.003291612,-0.691461857,-0.072514278,0.785018388,0,0,0,0,0,0,0,0,0,0
1.67209506,-0.035440912,-0.038554303,0.202040144,0.005475332,-0.00507823,-0.001606851,-0.673691833,-0.069352701,0.76673717,0,0,0,0,0,0,0,0,0,0
1.68245244,-0.036054142,-0.039260606,0.205672964,0.002004032,-0.00148565,0.001552129,-0.685013302,-0.070678836,0.779772318,0,0,0,0,0,0,0,0,0,0
1.692929983,-0.037072204,-0.040355553,0.211495258,-0.000364922,0.000960597,0.003428442,-0.705804576,-0.073910134,0.802450672,0,0,0,0,0,0,0,0,0,0
1.703368902,-0.03704274,-0.040276135,0.211255687,-0.001940133,0.002454483,0.004201418,-0.707676062,-0.075674764,0.802960097,0,0,0,0,0,0,0,0,0,0
1.714126587,-0.03923514,-0.04259402,0.223586078,-0.003257915,0.002818054,0.002094643,-0.751132477,-0.081205087,0.851215593,0,0,0,0,0,0,0,0,0,0
1.724691391,-0.037966506,-0.041170194,0.216169519,-0.002774907,0.001529591,-0.001851313,-0.726152367,-0.077712812,0.82340988,0,0,0,0,0,0,0,0,0,0
1.735185146,-0.037446253,-0.040506781,0.212987975,-0.003650206,0.005594084,0.000213954,-0.715624744,-0.072303065,0.809385353,0,0,0,0,0,0,0,0,0,0
1.745928288,-0.038997105,-0.04200866,0.221430393,-0.005264775,0.011419962,-0.006042945,-0.746350956,-0.065666001,0.836672351,0,0,0,0,0,0,0,0,0,0
1.756462336,-0.037481472,-0.040357856,0.212521652,0.000832703,0.003592101,-0.034114004,-0.719125284,-0.052859866,0.799168419,0,0,0,0,0,0,0,0,0,0
1.766956091,-0.037020567,-0.040020548,0.209811214,0.007039991,-0.006115168,-0.050119108,-0.71226112,-0.045536844,0.788014275,0,0,0,0,0,0,0,0,0,0
1.777975798,-0.04022294,-0.043631673,0.227850479,0.004923842,-0.007256553,-0.039131055,-0.774502277,-0.046376009,0.856497535,0,0,0,0,0,0,0,0,0,0
1.788459778,-0.036561256,-0.039768589,0.206922201,0.001759509,-0.007174084,-0.027256849,-0.702152359,-0.040849315,0.779036555,0,0,0,0,0,0,0,0,0,0
1.799156904,-0.037673317,-0.041189616,0.213135112,0.006149417,-0.012350768,-0.040938175,-0.721658688,-0.04076019,0.804186031,0,0,0,0,0,0,0,0,0,0
1.809846878,-0.037410555,-0.04115819,0.211742262,0.009247735,-0.01347284,-0.041393091,-0.716513745,-0.040444625,0.801272441,0,0,0,0,0,0,0,0,0,0
1.82032752,-0.035942577,-0.039748245,0.203644284,0.008269785,-0.010069417,-0.024745851,-0.689581348,-0.040772175,0.773082091,0,0,0,0,0,0,0,0,0,0
1.831337452,-0.039125086,-0.043455129,0.22201596,0.008720521,-0.008580604,-0.014564304,-0.752934062,-0.047697651,0.845366177,0,0,0,0,0,0,0,0,0,0
1.842013121,-0.036865352,-0.041018385,0.209459214,0.004373408,-0.00345596,0.003341528,-0.710547161,-0.048508276,0.799242174,0,0,0,0,0,0,0,0,0,0
1.852636337,-0.036445493,-0.040530153,0.207244433,-0.000386308,-0.000379781,0.021308971,-0.699114855,-0.050215727,0.789979981,0,0,0,0,0,0,0,0,0,0
1.863181353,-0.035955246,-0.039971508,0.204736036,-0.000516022,-0.001305676,0.031935954,-0.683046971,-0.050395354,0.776917141,0,0,0,0,0,0,0,0,0,0
1.873559713,-0.035005813,-0.038919128,0.199834536,0.001824968,-7.32E-05,0.039468569,-0.660278365,-0.050640443,0.754868169,0,0,0,0,0,0,0,0,0,0
1.883885145,-0.034839041,-0.038743061,0.199617728,0.004610116,0.002674533,0.045300389,-0.65606425,-0.052955416,0.751850171,0,0,0,0,0,0,0,0,0,0
1.894583941,-0.037330262,-0.041527593,0.214818164,0.0069568,0.004969222,0.050909891,-0.704499189,-0.059698463,0.807699541,0,0,0,0,0,0,0,0,0,0
1.904957533,-0.035448074,-0.039435101,0.204779227,0.006259113,0.005699797,0.042767383,-0.671731818,-0.059584799,0.769478285,0,0,0,0,0,0,0,0,0,0
1.915554285,-0.036951211,-0.041099913,0.214103928,0.005234221,0.005571764,0.03456552,-0.703541987,-0.065094745,0.804701912,0,0,0,0,0,0,0,0,0,0
1.926735878,-0.040680929,-0.045241717,0.236245458,0.004607136,0.004959175,0.028110155,-0.778200174,-0.074614498,0.888540292,0,0,0,0,0,0,0,0,0,0
1.937484741,-0.037685321,-0.041872653,0.219068804,0.001280697,0.004390541,0.017429957,-0.724090082,-0.071730713,0.825081695,0,0,0,0,0,0,0,0,0,0
1.948186398,-0.037170963,-0.041182364,0.215768916,-0.005347244,0.004720621,0.005504082,-0.715620874,-0.072392358,0.814285436,0,0,0,0,0,0,0,0,0,0
1.959016085,-0.037869521,-0.041758489,0.218879948,-0.012922655,0.003778586,-0.010510111,-0.726156394,-0.072482999,0.827276581,0,0,0,0,0,0,0,0,0,0
1.969541073,-0.035964352,-0.039443187,0.206685402,-0.015471554,0.00260468,-0.018597644,-0.684510736,-0.065969467,0.782003784,0,0,0,0,0,0,0,0,0,0
1.980063915,-0.03604501,-0.039325413,0.206086541,-0.014187879,0.003318011,-0.014922608,-0.682941999,-0.064781605,0.781107885,0,0,0,0,0,0,0,0,0,0
1.99037981,-0.034980338,-0.037990181,0.19923202,-0.010825769,0.004105331,-0.007291767,-0.662695096,-0.063735562,0.757074874,0,0,0,0,0,0,0,0,0,0
2.000730038,-0.035499189,-0.038412594,0.201653819,-0.008047952,0.004265411,-0.002095513,-0.674274319,-0.066817547,0.768428022,0,0,0,0,0,0,0,0,0,0
2.011290312,-0.0371575,-0.04009784,0.210730997,-0.005727437,0.004020002,0.00156851,-0.708604316,-0.072764214,0.80514871,0,0,0,0,0,0,0,0,0,0
2.021637201,-0.03610854,-0.038890348,0.204599474,-0.003596924,0.003351756,0.003625,-0.691727411,-0.073589294,0.783566673,0,0,0,0,0,0,0,0,0,0
2.032025099,-0.036636258,-0.03940475,0.207507675,-0.002208577,0.002920277,0.004701802,-0.704953778,-0.077420375,0.796284797,0,0,0,0,0,0,0,0,0,0
2.04253006,-0.037617638,-0.040432727,0.213048144,-0.000962874,0.001815487,0.003371552,-0.725345534,-0.080887482,0.818246995,0,0,0,0,0,0,0,0,0,0
2.052983046,-0.037415756,-0.040246439,0.212037049,0.001989072,-0.000552075,0.000843843,-0.720396331,-0.079538892,0.813549083,0,0,0,0,0,0,0,0,0,0
2.063853264,-0.040105793,-0.043260519,0.227760011,0.007598286,-0.003106201,0.002071441,-0.770707133,-0.08341506,0.871984957,0,0,0,0,0,0,0,0,0,0
2.074275732,-0.036982834,-0.040054754,0.210698489,0.010459737,-0.004006781,0.004113892,-0.710433904,-0.075690482,0.804806461,0,0,0,0,0,0,0,0,0,0
2.084714174,-0.036893709,-0.040101985,0.210798261,0.009198189,-0.003351584,0.004071178,-0.709280635,-0.07499815,0.803854884,0,0,0,0,0,0,0,0,0,0
2.095442057,-0.038629395,-0.042063907,0.2210673,0.004965103,-0.001320426,0.003391232,-0.743944105,-0.078998247,0.842665192,0,0,0,0,0,0,0,0,0,0
2.105760098,-0.035940466,-0.039135693,0.205657051,-0.000437867,-6.15E-05,-0.001322015,-0.692296757,-0.073546038,0.784022579,0,0,0,0,0,0,0,0,0,0
2.116107702,-0.036169323,-0.039339,0.206633592,-0.004504139,-0.000177699,-0.007813064,-0.694667535,-0.072668215,0.787676457,0,0,0,0,0,0,0,0,0,0
2.126792669,-0.038429961,-0.041727996,0.219124665,-0.006017264,0.000451826,-0.008069719,-0.736196015,-0.076151003,0.835530378,0,0,0,0,0,0,0,0,0,0
2.137117147,-0.036197622,-0.039235073,0.206086533,-0.004921774,0.001511138,-0.003202774,-0.69341941,-0.072145564,0.786606388,0,0,0,0,0,0,0,0,0,0
2.147549152,-0.036969218,-0.040004244,0.210243784,-0.004178366,0.002081472,-0.000125786,-0.709344543,-0.075002515,0.803596158,0,0,0,0,0,0,0,0,0,0
2.157955408,-0.036908133,-0.03989702,0.209793161,-0.002262378,0.001611987,0.001963804,-0.709886739,-0.07648186,0.802910927,0,0,0,0,0,0,0,0,0,0
2.168270111,-0.03641979,-0.039366458,0.207073288,0.000265245,0.000627426,0.003104733,-0.70230624,-0.076905945,0.79316993,0,0,0,0,0,0,0,0,0,0
2.178649902,-0.036925028,-0.039972831,0.210058514,0.00324359,-0.002218975,-0.008238003,-0.713797848,-0.078312325,0.805099132,0,0,0,0,0,0,0,0,0,0
2.188983679,-0.036670254,-0.03988346,0.208717336,0.008422451,-0.00878844,-0.037970571,-0.710364519,-0.075484955,0.800360774,0,0,0,0,0,0,0,0,0,0
2.199286461,-0.036487374,-0.039931825,0.207764377,0.010763293,-0.012085939,-0.053133469,-0.708001725,-0.07137985,0.797027076,0,0,0,0,0,0,0,0,0,0
2.20998311,-0.039014333,-0.042933954,0.22225429,0.010261786,-0.011403145,-0.049140889,-0.758240145,-0.072878061,0.852905446,0,0,0,0,0,0,0,0,0,0
2.220277548,-0.036274587,-0.040185076,0.206852854,0.011709293,-0.012164458,-0.047627642,-0.706346317,-0.064244818,0.793874246,0,0,0,0,0,0,0,0,0,0
2.230704546,-0.036930567,-0.041258266,0.210922258,0.015296696,-0.015385963,-0.056701884,-0.720645483,-0.060912101,0.809311333,0,0,0,0,0,0,0,0,0,0
2.241052151,-0.036284059,-0.040824731,0.207527268,0.012605543,-0.01251568,-0.044557156,-0.709307485,-0.056207115,0.796069253,0,0,0,0,0,0,0,0,0,0
2.251380444,-0.036108138,-0.040778539,0.206667523,0.006228853,-0.006363833,-0.022720507,-0.706597718,-0.054041457,0.792708458,0,0,0,0,0,0,0,0,0,0
2.261808395,-0.036728662,-0.041578585,0.210236336,0.003519222,-0.004446895,-0.019586458,-0.718843088,-0.053196678,0.806402937,0,0,0,0,0,0,0,0,0,0
2.272373915,-0.037581093,-0.042598227,0.215044786,0.001475588,-0.002750492,-0.0161728,-0.735173588,-0.052870178,0.82488175,0,0,0,0,0,0,0,0,0,0
2.282755852,-0.036378822,-0.041198694,0.208029983,-0.002259031,0.001354174,-0.000665037,-0.711122416,-0.05101231,0.798093776,0,0,0,0,0,0,0,0,0,0
2.293278456,-0.037213787,-0.042126599,0.212707783,-0.00117467,0.000397356,-0.002973175,-0.72703277,-0.051882661,0.816113265,0,0,0,0,0,0,0,0,0,0
2.303756952,-0.036822066,-0.041755939,0.210485661,0.003031238,-0.003708687,-0.01600056,-0.719339441,-0.049979586,0.807532973,0,0,0,0,0,0,0,0,0,0
2.314243555,-0.036749503,-0.041747054,0.210170228,0.003573881,-0.00324795,-0.011151452,-0.71793594,-0.048805578,0.806086574,0,0,0,0,0,0,0,0,0,0
2.32472086,-0.036598286,-0.041584652,0.209443139,0.001381503,0.000338226,0.005088042,-0.71472089,-0.04862384,0.802837242,0,0,0,0,0,0,0,0,0,0
2.335194588,-0.036494889,-0.04148299,0.208984866,0.001610588,-2.39E-05,0.00339599,-0.712429571,-0.048356409,0.800614953,0,0,0,0,0,0,0,0,0,0
2.345684528,-0.036508985,-0.041571088,0.209180682,0.003633316,-0.003069701,-0.009903767,-0.712684362,-0.047335586,0.801056978,0,0,0,0,0,0,0,0,0,0
2.356180429,-0.03646523,-0.041609836,0.208973169,0.003823766,-0.00437506,-0.017820308,-0.711760664,-0.045687312,0.800125938,0,0,0,0,0,0,0,0,0,0
2.366574049,-0.035801897,-0.040870145,0.205093933,0.00031806,-0.001452033,-0.009249301,-0.698510941,-0.044072964,0.785347555,0,0,0,0,0,0,0,0,0,0
2.377349138,-0.03821391,-0.043533194,0.218738401,-0.004521188,0.003593777,0.009337534,-0.74517084,-0.047930542,0.837873309,0,0,0,0,0,0,0,0,0,0
2.387831688,-0.036321019,-0.041294133,0.207724427,-0.004405157,0.003393638,0.008015534,-0.707868486,-0.046284841,0.795990935,0,0,0,0,0,0,0,0,0,0
2.398419857,-0.036893646,-0.04193073,0.210844397,-0.001706916,0.000206897,-0.00510931,-0.718650243,-0.046527806,0.808197613,0,0,0,0,0,0,0,0,0,0
2.409050226,-0.037083224,-0.042114801,0.211774179,-0.002401881,0.001032175,-0.000947631,-0.722056094,-0.046671366,0.812038721,0,0,0,0,0,0,0,0,0,0
2.419498682,-0.035915573,-0.04068885,0.204943831,-0.005047245,0.004300182,0.013467213,-0.699137493,-0.046456933,0.786184971,0,0,0,0,0,0,0,0,0,0
2.430809498,-0.041292835,-0.046694465,0.235480044,-0.004379912,0.00366985,0.010972089,-0.803611142,-0.054441377,0.903622469,0,0,0,0,0,0,0,0,0,0
2.441428423,-0.036572489,-0.04136699,0.208495303,-0.000117289,-0.000727797,-0.005732086,-0.711576698,-0.047694892,0.800183338,0,0,0,0,0,0,0,0,0,0
2.451840878,-0.035040971,-0.039657391,0.199787938,0.000848042,-0.000753075,-0.002699697,-0.681624118,-0.045245167,0.766648237,0,0,0,0,0,0,0,0,0,0
2.462324858,-0.035416336,-0.040040309,0.20213886,-0.000627549,0.003759444,0.023642621,-0.68871807,-0.047054885,0.775029731,0,0,0,0,0,0,0,0,0,0
2.47275877,-0.035215735,-0.039695412,0.201311622,-0.003058966,0.008268735,0.047793403,-0.683366126,-0.049051886,0.770381424,0,0,0,0,0,0,0,0,0,0
2.483810186,-0.039193789,-0.043994772,0.22435074,-0.006022714,0.011518107,0.062540748,-0.756945682,-0.056603651,0.856155118,0,0,0,0,0,0,0,0,0,0
2.494504452,-0.036949809,-0.041307776,0.211859716,-0.005206326,0.011071963,0.061955764,-0.71062433,-0.055626192,0.806235059,0,0,0,0,0,0,0,0,0,0
2.505016088,-0.035768618,-0.039858436,0.205558949,-0.002913,0.009861609,0.058856917,-0.68673289,-0.056895562,0.780515108,0,0,0,0,0,0,0,0,0,0
2.515425205,-0.035174822,-0.039097607,0.202634318,-0.001481609,0.008468894,0.051654592,-0.675327197,-0.059225681,0.768153745,0,0,0,0,0,0,0,0,0,0
2.52594924,-0.035996402,-0.039941527,0.207854974,-0.000212704,0.006917989,0.044428801,-0.691823625,-0.063793338,0.787015894,0,0,0,0,0,0,0,0,0,0
2.536299944,-0.035093576,-0.038903954,0.203088963,0.000951283,0.004896575,0.034502869,-0.675542087,-0.064865753,0.768310152,0,0,0,0,0,0,0,0,0,0
2.546741009,-0.035842076,-0.039722464,0.207823049,0.001726714,0.003314953,0.026404576,-0.691166752,-0.068443916,0.785753813,0,0,0,0,0,0,0,0,0,0
2.557059288,-0.035296961,-0.039118551,0.204969825,0.001707729,0.002099319,0.018156513,-0.681842654,-0.069097614,0.774738191,0,0,0,0,0,0,0,0,0,0
2.567422628,-0.035803159,-0.039680239,0.208115317,0.001227266,0.001452885,0.011764164,-0.692746214,-0.071420848,0.786628422,0,0,0,0,0,0,0,0,0,0
2.578231573,-0.038794368,-0.042999762,0.22564508,0.001000873,0.000794352,0.007467067,-0.751685136,-0.078432655,0.853010672,0,0,0,0,0,0,0,0,0,0
2.58873558,-0.036860098,-0.040866557,0.214484506,0.000875143,-4.73E-06,0.003544223,-0.715023765,-0.075163198,0.810959049,0,0,0,0,0,0,0,0,0,0
2.599298,-0.037163204,-0.041217312,0.216305234,0.00081812,-0.000475272,0.000879502,-0.721536533,-0.076141045,0.817980366,0,0,0,0,0,0,0,0,0,0
2.610228539,-0.039379967,-0.043691977,0.229240581,0.000757105,-0.000695388,-0.000989204,-0.765062942,-0.080838069,0.867025124,0,0,0,0,0,0,0,0,0,0
2.620748281,-0.036537504,-0.040552753,0.21270662,0.000575077,-0.000749497,-0.001859075,-0.710104053,-0.074978301,0.804566198,0,0,0,0,0,0,0,0,0,0
2.631472588,-0.037599976,-0.041746653,0.218894909,0.000483655,-0.000861482,-0.002273194,-0.73084994,-0.077008131,0.827993191,0,0,0,0,0,0,0,0,0,0
2.642394304,-0.038613488,-0.04288428,0.224790676,0.000368173,-0.000769925,-0.002351385,-0.750557343,-0.078882525,0.85028965,0,0,0,0,0,0,0,0,0,0
2.652946949,-0.036058073,-0.040054226,0.209906249,0.000255305,-0.000486787,-0.002048731,-0.700830511,-0.073450379,0.793963373,0,0,0,0,0,0,0,0,0,0
2.663569212,-0.036321496,-0.04035314,0.211434215,0.000253403,-0.000327992,-0.001825785,-0.705852526,-0.073762236,0.799698634,0,0,0,0,0,0,0,0,0,0
2.674106359,-0.035740821,-0.039712645,0.208049653,0.000202454,-0.000226355,-0.001449791,-0.694495175,-0.072409223,0.786874774,0,0,0,0,0,0,0,0,0,0
2.684606552,-0.035538697,-0.039498175,0.206944053,0.000909361,3.61E-05,0.001578188,-0.690703119,-0.071709444,0.78257343,0,0,0,0,0,0,0,0,0,0
2.69528389,-0.03670801,-0.040788857,0.213828519,0.000342797,0.001155881,0.005606164,-0.713936451,-0.073788261,0.80862991,0,0,0,0,0,0,0,0,0,0
2.706007481,-0.037102958,-0.041140323,0.215883038,-0.004480495,0.003119952,0.003865432,-0.722290118,-0.075037672,0.817303955,0,0,0,0,0,0,0,0,0,0
2.7164433,-0.035466939,-0.039169304,0.205772381,-0.009222546,0.004365965,-0.000822617,-0.691007313,-0.072966973,0.780761743,0,0,0,0,0,0,0,0,0,0
2.727214813,-0.037732888,-0.041477876,0.21807635,-0.012374292,0.004408791,-0.006286771,-0.734198787,-0.078214568,0.829144736,0,0,0,0,0,0,0,0,0,0
2.737701893,-0.036130943,-0.03953697,0.207921114,-0.012517753,0.003076962,-0.010980554,-0.699915747,-0.073912601,0.791414236,0,0,0,0,0,0,0,0,0,0
2.748147249,-0.036062398,-0.03929781,0.2066937,-0.01157966,0.002694056,-0.010499895,-0.695750502,-0.07298641,0.787586659,0,0,0,0,0,0,0,0,0,0
2.758588076,-0.03627627,-0.039381281,0.207158444,-0.01059434,0.002495574,-0.009837507,-0.697283318,-0.07274153,0.790133708,0,0,0,0,0,0,0,0,0,0
2.769021749,-0.036500827,-0.039492424,0.207716495,-0.009818766,0.001868565,-0.011573516,-0.697896954,-0.071521668,0.792460425,0,0,0,0,0,0,0,0,0,0
2.779537201,-0.037268702,-0.040214859,0.211514482,-0.007881404,0.001793954,-0.008896867,-0.710015454,-0.072026503,0.80727856,0,0,0,0,0,0,0,0,0,0
2.789959431,-0.036869906,-0.039707331,0.208912111,-0.005068613,0.001951066,-0.003280231,-0.70240803,-0.071950893,0.798235685,0,0,0,0,0,0,0,0,0,0
2.800532818,-0.037981042,-0.040851624,0.215036384,-0.002968024,0.001887377,0.000470112,-0.725207227,-0.075854924,0.822844581,0,0,0,0,0,0,0,0,0,0
2.811048508,-0.037680266,-0.040495701,0.213280216,-0.001423782,0.001656607,0.00286361,-0.72194606,-0.077463319,0.817404473,0,0,0,0,0,0,0,0,0,0
2.821535587,-0.037518474,-0.040302436,0.21238226,-0.000472931,0.001423867,0.004203807,-0.721618443,-0.079451646,0.815174609,0,0,0,0,0,0,0,0,0,0
2.832063198,-0.037779612,-0.040575987,0.213929227,0.000297904,0.001048689,0.004685543,-0.729348348,-0.082182857,0.822152241,0,0,0,0,0,0,0,0,0,0
2.84261775,-0.037925212,-0.040737007,0.214859164,0.000956153,0.000631745,0.004467762,-0.734571961,-0.084355975,0.826532656,0,0,0,0,0,0,0,0,0,0
2.853036404,-0.037011515,-0.039767464,0.209803716,0.001335661,0.000333862,0.003792047,-0.718836081,-0.083764228,0.807643659,0,0,0,0,0,0,0,0,0,0
2.863639593,-0.03816878,-0.041025666,0.216484043,0.001403877,0.000121445,0.003345036,-0.742893093,-0.087510194,0.833740015,0,0,0,0,0,0,0,0,0,0
2.874147892,-0.037513026,-0.040333345,0.212861754,0.001098564,-5.52E-06,0.002899593,-0.731276643,-0.086818524,0.820030112,0,0,0,0,0,0,0,0,0,0
2.884504557,-0.036519137,-0.039275294,0.207297858,0.000855724,-8.91E-05,0.002277057,-0.712688504,-0.085067699,0.798735366,0,0,0,0,0,0,0,0,0,0
2.895269871,-0.039140905,-0.042107263,0.222250154,0.000891756,-0.000234531,0.001569957,-0.764403605,-0.091529055,0.856399969,0,0,0,0,0,0,0,0,0,0
2.905719757,-0.037043768,-0.039862118,0.210396266,0.000785494,-0.000227953,0.000708645,-0.72374879,-0.086779817,0.810705801,0,0,0,0,0,0,0,0,0,0
2.916297674,-0.03780043,-0.040684813,0.214734027,0.000653342,-0.00013904,0.000149894,-0.738663398,-0.088575003,0.827366611,0,0,0,0,0,0,0,0,0,0
2.927174807,-0.039641759,-0.042673246,0.225225122,0.000565883,-5.72E-05,-0.000218124,-0.774642372,-0.09281125,0.86770693,0,0,0,0,0,0,0,0,0,0
2.937629938,-0.036765137,-0.039581114,0.208902856,0.000423215,-1.99E-06,-0.000349994,-0.718350425,-0.085955304,0.804738683,0,0,0,0,0,0,0,0,0,0
2.948187113,-0.037301611,-0.04016269,0.21196617,0.000313678,-6.86E-05,-0.000358702,-0.728709041,-0.087071512,0.816454703,0,0,0,0,0,0,0,0,0,0
2.958641291,-0.036616448,-0.039437558,0.208073256,0.000380202,-0.000808247,-0.002145566,-0.713856311,-0.084292823,0.800823225,0,0,0,0,0,0,0,0,0,0
2.969076395,-0.036513905,-0.039378828,0.207578616,0.002252373,-0.00253249,-0.004401954,-0.708275931,-0.081051526,0.79712522,0,0,0,0,0,0,0,0,0,0
2.979513645,-0.036559352,-0.039545028,0.208199024,0.006554367,-0.004171475,-0.002583741,-0.705718356,-0.07781123,0.797059632,0,0,0,0,0,0,0,0,0,0
2.989978075,-0.036750127,-0.039919984,0.20991521,0.010407217,-0.004952907,0.001205657,-0.707589508,-0.075733348,0.801202955,0,0,0,0,0,0,0,0,0,0
