T,input Acc,input Wb1,input Wb2,input Wb3,Px,Py,Pz,Vx,Vy,Vz,Roll,Pitch,Yaw,R_rate,P_rate,Y_rate,Wb1,Wb2,Wb3
0,11.6106,0.030943595030939096,0.5615458762764831,0.06001146236758781,0.0,0.0,0.6,0.0,0.0,0.6,-0.0,-0.0,0.0,0.0,0.0,0.0,0.0,0.0,0.0
0.00024366378784179688,12.300686363061686,0.018227161979677775,0.5975778070595142,0.0013553783607920709,0.0,0.0,0.6,-0.006102769837981736,0.0001843517131351144,0.5975709222317278,0.0017521992899018062,0.058293416530905855,0.0,0.0,0.0,0.0,0.0,0.0,0.0
0.010986804962158203,14.194381252628126,0.06793872027209043,2.2556568932143337,0.0068314032254187165,0.0,0.0,0.6,-0.03011332610019577,0.0009102200316096595,0.588014439171728,0.006473349918651929,0.21890722418631953,0.0,0.0,0.0,0.0,0.0,0.0,0.0
0.02138233184814453,15.38892073742649,0.09991043112202394,3.3611090612728165,0.015259452478850851,0.0,0.0,0.6,-0.06474555758498442,0.0019577830628143265,0.5742316668272671,0.009295009405544351,0.32194276790928267,0.0,0.0,0.0,0.0,0.0,0.0,0.0
0.0320887565612793,15.734422219251224,0.11139104662787495,3.7845840818997076,0.026922933690723155,0.0,0.0,0.6,-0.11265608580260145,0.0034063085863400237,0.5551662224044126,0.009886142650932605,0.35415562225125496,0.0,0.0,0.0,0.0,0.0,0.0,0.0
0.04293060302734375,15.047963502920865,0.09917717745478938,3.335802767793943,0.03750761779896377,0.0,0.0,0.6,-0.16005510068868806,0.004838588258406321,0.5363045873289528,0.008073682256631196,0.2993838653032992,0.0,0.0,0.0,0.0,0.0,0.0,0.0
0.05331873893737793,13.621390008962628,0.06972619189750837,2.211041841767418,0.04142584571082601,0.0,0.0,0.6,-0.1856365715326294,0.005611553540757379,0.5261228018683064,0.0047960324479932575,0.181472460932212,0.0,0.0,0.0,0.0,0.0,0.0,0.0
0.06390881538391113,12.368589569859822,0.04627412222776187,1.2466673597565716,0.04814597221438899,0.0,0.0,0.6,-0.22538326075562604,0.006813120210531152,0.510300867910404,0.0019673023972385274,0.07709810567078522,0.0,0.0,0.0,0.0,0.0,0.0,0.0
0.07441830635070801,11.125189484775825,0.02229841599209191,0.24651117149021873,0.05074919783057432,0.0,0.0,0.6,-0.2488061711161887,0.0075216035443926845,0.5009741697614113,-0.0007070987718117212,-0.027486254187296368,0.0,0.0,0.0,0.0,0.0,0.0,0.0
0.08494353294372559,10.093761068412583,0.0030440724295008287,-0.5912269276708021,0.05292277785946306,0.0,0.0,0.6,-0.26974619870688993,0.008154461762790267,0.49263581799081346,-0.0028671736613215927,-0.11514613260620192,0.0,0.0,0.0,0.0,0.0,0.0,0.0
0.09548616409301758,9.34357671753613,-0.010709771247369866,-1.2116850389499922,0.05434584932808556,0.0,0.0,0.6,-0.28515242982234745,0.008620232271412145,0.48650139786497026,-0.004412054190890653,-0.17985373437581853,0.0,0.0,0.0,0.0,0.0,0.0,0.0
0.10595822334289551,8.933384473250634,-0.018666740809957613,-1.5693682651038057,0.054557270993412885,0.0,0.0,0.6,-0.2913520991029466,0.008808544548365854,0.48403312781324864,-0.005278193551375727,-0.2164172694065589,0.0,0.0,0.0,0.0,0.0,0.0,0.0
0.11652135848999023,8.725039680492767,-0.021739968374519646,-1.751917414329369,0.055956441425171304,0.0,0.0,0.6,-0.3018449719903269,0.009124937193930899,0.4798563099770047,-0.005711510975214485,-0.23624854201030673,0.0,0.0,0.0,0.0,0.0,0.0,0.0
0.1274099349975586,8.571564339937762,-0.021378873285019157,-1.8722135258166668,0.05824881289195995,0.0,0.0,0.6,-0.32135697306150257,0.009712550311298333,0.47209223840952474,-0.006002078051436946,-0.25161538290458063,0.0,0.0,0.0,0.0,0.0,0.0,0.0
0.13781142234802246,8.987768554840915,-0.016147867734178527,-1.597621097272608,0.05246975239933206,0.0,0.0,0.6,-0.2956840427360379,0.008931931786568967,0.48231681693869977,-0.005369624038892018,-0.21893710015990717,0.0,0.0,0.0,0.0,0.0,0.0,0.0
0.14831113815307617,9.334146910270448,-0.006819934445295813,-1.321599803301593,0.052104655477954114,0.0,0.0,0.6,-0.29946280636441125,0.009035645251150696,0.48081681347357696,-0.004716260365964856,-0.19183844244852866,0.0,0.0,0.0,0.0,0.0,0.0,0.0
0.1588137149810791,9.796974937219346,0.0033808938804653936,-0.9538604696798334,0.05233372801045027,0.0,0.0,0.6,-0.2981696837731826,0.00898631657005252,0.4813303249583355,-0.003803906340687168,-0.15461310520007443,0.0,0.0,0.0,0.0,0.0,0.0,0.0
0.1692662239074707,10.236483580510415,0.012250265362948497,-0.606999021113897,0.05275540899170729,0.0,0.0,0.6,-0.2941484359321336,0.008858586870503,0.4829253361170971,-0.002920025569193917,-0.11897561876282851,0.0,0.0,0.0,0.0,0.0,0.0,0.0
0.1797633171081543,10.606400146071389,0.02040250871499159,-0.30532867634082766,0.054091571188684504,0.0,0.0,0.6,-0.295098057003565,0.00888234386501048,0.4825381829730774,-0.002158456942699249,-0.08885214963976396,0.0,0.0,0.0,0.0,0.0,0.0,0.0
0.1902143955230713,10.922877242167441,0.026626988043209673,-0.05367337463159394,0.054573167081912455,0.0,0.0,0.6,-0.2916859586575159,0.008776410373408877,0.4838904823486415,-0.0015112338808881774,-0.06293607484803852,0.0,0.0,0.0,0.0,0.0,0.0,0.0
0.20070719718933105,11.155550167920625,0.03206736052772384,0.13913447869671833,0.05593586500837765,0.0,0.0,0.6,-0.29294351572351074,0.008808381098280997,0.48339099967139754,-0.0010290298828986508,-0.043851633009789934,0.0,0.0,0.0,0.0,0.0,0.0,0.0
0.21126747131347656,11.307345035862745,0.03620144572341449,0.2675099549265488,0.05730805335250885,0.0,0.0,0.6,-0.2956127039012568,0.008870187882374425,0.482341436931048,-0.0007107272201259519,-0.03143783441405972,0.0,0.0,0.0,0.0,0.0,0.0,0.0
0.22168278694152832,11.411878819860627,0.03927205863290975,0.3343680138488003,0.055593682409943286,0.0,0.0,0.6,-0.28772952418404346,0.008596055942595568,0.4854898434806272,-0.00048779376838794885,-0.02292485202037114,0.0,0.0,0.0,0.0,0.0,0.0,0.0
0.23235654830932617,11.456088925588274,0.05185449991204936,0.3879466113223568,0.05500831251214546,0.0,0.0,0.6,-0.3001648604381152,0.008895261832713925,0.4804887381501828,-0.00035163134921793683,-0.019397889067607393,0.0,0.0,0.0,0.0,0.0,0.0,0.0
0.24306225776672363,11.425882738850959,0.07201024103371499,0.3571547798387018,0.04752579227714594,0.0,0.0,0.6,-0.3008779230057547,0.008793765404062024,0.4800381357008114,-0.0003381958511071464,-0.021959974899492984,0.0,0.0,0.0,0.0,0.0,0.0,0.0
0.2535221576690674,11.398080025639093,0.09769309729207319,0.30250058157448484,0.03422816224215773,0.0,0.0,0.6,-0.2874868933605884,0.008229947904649173,0.4850997914339033,-0.00028344778192521667,-0.024047894715441012,0.0,0.0,0.0,0.0,0.0,0.0,0.0
0.26417994499206543,11.392430303249006,0.14292006937506618,0.3060194119167811,0.021798228414939797,0.0,0.0,0.6,-0.29653096328654616,0.00823761817393119,0.4810433262080642,-5.9606832119997946e-05,-0.02377556459274927,0.0,0.0,0.0,0.0,0.0,0.0,0.0
0.27468132972717285,11.386540413249866,0.19125863731244996,0.2732011233520497,0.0062107300692787306,0.0,0.0,0.6,-0.28819057501288503,0.007669694664844497,0.483747781415749,0.00023828783638978732,-0.023040530471616538,0.0,0.0,0.0,0.0,0.0,0.0,0.0
0.28512072563171387,11.381709588542606,0.2501152297914337,0.24721129860470484,-0.009059743518543344,0.0,0.0,0.6,-0.2849956899188825,0.007158507595329627,0.4841608963247942,0.0006744036310497556,-0.021545535033979882,0.0,0.0,0.0,0.0,0.0,0.0,0.0
0.2957282066345215,11.35141310881029,0.32540755930355597,0.2178925618734343,-0.02516034894839005,0.0,0.0,0.6,-0.2935917619481548,0.006856040070132567,0.4794921493347031,0.0012644661858733396,-0.021097050686105883,0.0,0.0,0.0,0.0,0.0,0.0,0.0
0.3061954975128174,11.286035597129867,0.38588569906648673,0.13179856553009922,-0.04246023736383891,0.0,0.0,0.6,-0.2870106153060402,0.006124189273535922,0.48067975607309676,0.0017886386390357013,-0.023078775672053912,0.0,0.0,0.0,0.0,0.0,0.0,0.0
0.31661486625671387,11.217453115850205,0.45160150858625353,0.050251396319906994,-0.05919207952715565,0.0,0.0,0.6,-0.28521717555038206,0.005428242001228477,0.4794411269873997,0.0024301442243414607,-0.024237548822041453,0.0,0.0,0.0,0.0,0.0,0.0,0.0
0.3272736072540283,11.095682435783889,0.5420102446221411,-0.04958572518604655,-0.07838373363075764,0.0,0.0,0.6,-0.29778511762470516,0.004915111675821049,0.4715680739599535,0.0032608549778850196,-0.02741658120827179,0.0,0.0,0.0,0.0,0.0,0.0,0.0
0.33763933181762695,10.98487345370432,0.5845453698620129,-0.1713934231007389,-0.09097940949270444,0.0,0.0,0.6,-0.2836380730404095,0.003921043555709956,0.47481875989298283,0.0037784502932460334,-0.030568361957390645,0.0,0.0,0.0,0.0,0.0,0.0,0.0
0.348341703414917,10.797030616416226,0.6927450744558968,-0.3000534583916907,-0.11551160545566085,0.0,0.0,0.6,-0.30078001740249327,0.0032704579631650634,0.4636978850424977,0.004742002467581068,-0.035473871929281066,0.0,0.0,0.0,0.0,0.0,0.0,0.0
0.3591935634613037,10.541827534778724,0.7842419155881071,-0.4812907919543519,-0.14257773700401644,0.0,0.0,0.6,-0.3080063873278172,0.0023238912615735053,0.45607549124913116,0.005534869093468509,-0.04460513355748775,0.0,0.0,0.0,0.0,0.0,0.0,0.0
0.36956787109375,10.43705468958049,0.769629979301488,-0.5655918953428068,-0.14210925559138687,0.0,0.0,0.6,-0.28310951693941144,0.001353941489556808,0.4641631864398567,0.005769329033334074,-0.047363339061161795,0.0,0.0,0.0,0.0,0.0,0.0,0.0
0.38006114959716797,10.386106047727202,0.79533156249464,-0.5441492204755095,-0.13911610133408867,0.0,0.0,0.6,-0.2884654267258448,0.0009210520773602273,0.4591920096176033,0.006554806016206149,-0.04297898067038072,0.0,0.0,0.0,0.0,0.0,0.0,0.0
0.3908116817474365,10.310920159447827,0.8352844688830106,-0.543858049200181,-0.14034404778631718,0.0,0.0,0.6,-0.3011446845814066,0.00033255028490398553,0.4496718555305578,0.0072389752659989285,-0.04028632065500758,0.0,0.0,0.0,0.0,0.0,0.0,0.0
0.40120768547058105,10.316533439907127,0.8103243381393227,-0.5623423059873535,-0.13473246191607716,0.0,0.0,0.6,-0.2833405363632385,-0.000745869875320553,0.4532858999356314,0.007080414262944897,-0.038481473265703836,0.0,0.0,0.0,0.0,0.0,0.0,0.0
0.4116981029510498,10.242840188137322,0.8617621364067601,-0.5922029344206043,-0.14521971399828879,0.0,0.0,0.6,-0.2882842524176253,-0.0021814485238534397,0.4437119854019311,0.007710259239481123,-0.03516556103345764,0.0,0.0,0.0,0.0,0.0,0.0,0.0
0.4221642017364502,10.138384196668813,0.9066133433571419,-0.6186884596923649,-0.1551624397530783,0.0,0.0,0.6,-0.2878453838684371,-0.0038070233021641237,0.435938410196578,0.008643499010824559,-0.0313275061119803,0.0,0.0,0.0,0.0,0.0,0.0,0.0
0.43279099464416504,9.854291088626491,0.9833774987544575,-0.7115101298484556,-0.17708218557348185,0.0,0.0,0.6,-0.29667231270135264,-0.005760601451997043,0.4219332696922914,0.010245346664895443,-0.033049824913725226,0.0,0.0,0.0,0.0,0.0,0.0,0.0
0.4437129497528076,9.349335008677514,1.0809122991215698,-0.8903639503812957,-0.21302483577872713,0.0,0.0,0.6,-0.31179679796459475,-0.008144187180354392,0.4027355241032826,0.012500045768977744,-0.042788370526937354,0.0,0.0,0.0,0.0,0.0,0.0,0.0
0.45412278175354004,9.160600629197276,1.029484229089269,-0.9441589993872194,-0.20944892633077777,0.0,0.0,0.6,-0.2854675101396712,-0.009499500181823953,0.40965503435410033,0.01333696849942074,-0.04734855344781359,0.0,0.0,0.0,0.0,0.0,0.0,0.0
0.46458935737609863,8.950633832664467,1.0639060070058437,-0.9503865776600073,-0.22051748870784574,0.0,0.0,0.6,-0.2881843280893169,-0.011772353700197184,0.3976453328517824,0.015259877969276728,-0.04430685251679153,0.0,0.0,0.0,0.0,0.0,0.0,0.0
0.4752383232116699,8.69673291627985,1.1094177984162423,-0.9457695873680821,-0.23254353551871657,0.0,0.0,0.6,-0.2977944382225567,-0.014540046325025827,0.37998129244595497,0.017692844959084027,-0.04044866774478049,0.0,0.0,0.0,0.0,0.0,0.0,0.0
0.4856445789337158,8.5901958001477,1.0651335459466829,-0.9096444903901542,-0.2215928820423199,0.0,0.0,0.6,-0.28633573975410986,-0.016340466640048325,0.3777482113584139,0.019021210805643424,-0.038601412791838645,0.0,0.0,0.0,0.0,0.0,0.0,0.0
0.4961223602294922,8.378179691300005,1.063413079446255,-0.8890732122262843,-0.2214451628010358,0.0,0.0,0.6,-0.2909151522434752,-0.0189960543528059,0.3633909253344457,0.021110989446192163,-0.036967745635669035,0.0,0.0,0.0,0.0,0.0,0.0,0.0
0.5064678192138672,8.316757037357085,1.0134960578396497,-0.8260939131820153,-0.20832216458899183,0.0,0.0,0.6,-0.28575575734122527,-0.020991076140636594,0.3570334007722644,0.02235173104976228,-0.034142189466787064,0.0,0.0,0.0,0.0,0.0,0.0,0.0
0.5169227123260498,8.101595362371278,0.9905255484723807,-0.7984770675125232,-0.20568561163882196,0.0,0.0,0.6,-0.2930091595828921,-0.023950351379971604,0.33988816348178885,0.024333451357904618,-0.03418903543829888,0.0,0.0,0.0,0.0,0.0,0.0,0.0
0.5274965763092041,7.786670943579622,0.9562347803377439,-0.8047451767678846,-0.2043040746757727,0.0,0.0,0.6,-0.3007358138995067,-0.027095545965966437,0.3216849662453426,0.026476108528088384,-0.03886588569501804,0.0,0.0,0.0,0.0,0.0,0.0,0.0
0.5379183292388916,7.620492115579665,0.8706877140657222,-0.7960579167999323,-0.1907519309941935,0.0,0.0,0.6,-0.29423675448933234,-0.028947277201428347,0.3167333488074011,0.027437593834018156,-0.04460078265594065,0.0,0.0,0.0,0.0,0.0,0.0,0.0
0.5484516620635986,7.3530635188986455,0.8090599126250683,-0.7901455720795049,-0.18491726582195725,0.0,0.0,0.6,-0.3010055996407147,-0.032094464524421565,0.29906502059613155,0.029201004547008563,-0.049632018876626535,0.0,0.0,0.0,0.0,0.0,0.0,0.0
0.558962345123291,7.2096543190590445,0.7172453127033759,-0.7570540276304486,-0.17372809713382567,0.0,0.0,0.6,-0.3007048611204,-0.034562661521584735,0.2880634279416993,0.0302302295599462,-0.05331068035090777,0.0,0.0,0.0,0.0,0.0,0.0,0.0
0.5693397521972656,7.221641216755671,0.6047479866340979,-0.6872444200707548,-0.15827899642953575,0.0,0.0,0.6,-0.29462738338799543,-0.036332142679570065,0.2831393044393866,0.030462336995990023,-0.05412917631982865,0.0,0.0,0.0,0.0,0.0,0.0,0.0
0.5798311233520508,7.120447650746547,0.5078277600118295,-0.6109024879272014,-0.14885039286504093,0.0,0.0,0.6,-0.3013870026714368,-0.03966647820176964,0.26447193277036446,0.03158703543073779,-0.054092072664667944,0.0,0.0,0.0,0.0,0.0,0.0,0.0
0.5903463363647461,7.033464903608669,0.400419330362874,-0.540267878030371,-0.13759776503963864,0.0,0.0,0.6,-0.30345550761553586,-0.04242530459956585,0.25077409566901143,0.03246032527278878,-0.055076977392330084,0.0,0.0,0.0,0.0,0.0,0.0,0.0
0.600731611251831,7.070905883534758,0.28198669918425145,-0.4601587872184835,-0.1251303924416923,0.0,0.0,0.6,-0.2974360692175369,-0.04401753989544644,0.24635065167193237,0.03251715964361739,-0.05501572560507978,0.0,0.0,0.0,0.0,0.0,0.0,0.0
0.6112666130065918,6.926896976965905,0.16721106532153285,-0.38073590462490425,-0.12066242138207951,0.0,0.0,0.6,-0.3059306550123443,-0.04774798912403897,0.22445209094324342,0.033749524449616056,-0.05556651456447305,0.0,0.0,0.0,0.0,0.0,0.0,0.0
0.6216654777526855,6.992042871341186,0.05077405728774068,-0.2982680483362791,-0.11183384701932347,0.0,0.0,0.6,-0.29946197654974366,-0.04907764067173895,0.22099467880436618,0.0335898533245271,-0.054602154449746275,0.0,0.0,0.0,0.0,0.0,0.0,0.0
0.632195234298706,6.8430135143843245,-0.06771264795622851,-0.22526650209409144,-0.1093381641466424,0.0,0.0,0.6,-0.3068372293940886,-0.052596053202617364,0.20010273822446406,0.034664746914187874,-0.055468093753345445,0.0,0.0,0.0,0.0,0.0,0.0,0.0
0.6431641578674316,6.198115164198838,-0.19850960498771378,-0.2137440056467905,-0.10945509950761104,0.0,0.0,0.6,-0.3300455860215885,-0.05898586855602707,0.15739608637923796,0.038192897584043345,-0.0647096427236689,0.0,0.0,0.0,0.0,0.0,0.0,0.0
0.6536800861358643,6.26522425340029,-0.2791114860985656,-0.22491428186898624,-0.09138030474804375,0.0,0.0,0.6,-0.30471023789153123,-0.05663318535426114,0.17987974679581498,0.03723534962950073,-0.06923642663197407,0.0,0.0,0.0,0.0,0.0,0.0,0.0
0.6642417907714844,6.316928516723238,-0.40302314278429296,-0.13581751442239118,-0.08849541357359955,0.0,0.0,0.6,-0.3058220181062401,-0.058996725120885746,0.1667500213420623,0.037044834568199125,-0.06716792387910202,0.0,0.0,0.0,0.0,0.0,0.0,0.0
0.6747353076934814,6.712066467245016,-0.5238945770729351,0.014053242220090674,-0.0922628583830773,0.0,0.0,0.6,-0.30158662769845723,-0.06029271933277937,0.16107147850483555,0.035196787766806306,-0.05783100847411339,0.0,0.0,0.0,0.0,0.0,0.0,0.0
0.6851804256439209,7.056727951215432,-0.6391713826065591,0.1569828328717144,-0.10096900027109112,0.0,0.0,0.6,-0.29896635363526625,-0.06180970491258492,0.15322315484661342,0.0335307250613731,-0.04926326589286287,0.0,0.0,0.0,0.0,0.0,0.0,0.0
0.6957762241363525,7.1210936204926005,-0.7705411457747188,0.28380457736970083,-0.11631742559348573,0.0,0.0,0.6,-0.3070561625001285,-0.06545784490776452,0.1294393629134818,0.03326412633566909,-0.044494704835158994,0.0,0.0,0.0,0.0,0.0,0.0,0.0
0.7064576148986816,6.9636283487502775,-0.8746409033382453,0.3389974816167636,-0.12516377342631008,0.0,0.0,0.6,-0.3116432142103565,-0.06828872032201869,0.11085578048396277,0.033827038404519665,-0.04575968232835893,0.0,0.0,0.0,0.0,0.0,0.0,0.0
0.7173011302947998,6.509154319542766,-0.9739881493536126,0.33917218604361843,-0.12956442383648667,0.0,0.0,0.6,-0.3195777836851796,-0.07178491779095338,0.08663918303432472,0.03567880362699458,-0.05305973730450033,0.0,0.0,0.0,0.0,0.0,0.0,0.0
0.7284350395202637,5.717413030915596,-1.0783899812496522,0.290646723773008,-0.1287472565784041,0.0,0.0,0.6,-0.3331116942149974,-0.07652638485746095,0.052776505103072746,0.03901322382256774,-0.06644761775349659,0.0,0.0,0.0,0.0,0.0,0.0,0.0
0.7391750812530518,5.753188007497684,-1.0420067111775055,0.20980560887585317,-0.109221414625216,0.0,0.0,0.6,-0.3093423270697997,-0.07253965037859436,0.08064880857424261,0.038043635346239314,-0.07136144043235892,0.0,0.0,0.0,0.0,0.0,0.0,0.0
0.7501320838928223,5.721735130059407,-1.1372647327522767,0.2715472313716717,-0.12389736101892107,0.0,0.0,0.6,-0.31755411778971326,-0.07588194245375526,0.0552160556940654,0.03763641909719452,-0.07057404609504739,0.0,0.0,0.0,0.0,0.0,0.0,0.0
0.7607223987579346,6.5595297002655375,-1.1172588174428983,0.346722841294762,-0.12980119307853688,0.0,0.0,0.6,-0.2963171036881349,-0.07203565160178646,0.08069490023997494,0.03300357667716969,-0.05849956916597831,0.0,0.0,0.0,0.0,0.0,0.0,0.0
0.771259069442749,7.347724752614702,-1.1674373814747212,0.4922488265715899,-0.1530647148648891,0.0,0.0,0.6,-0.29238317679726145,-0.0721932033760955,0.07694562905173108,0.0286570848701405,-0.04384437875896548,0.0,0.0,0.0,0.0,0.0,0.0,0.0
0.7823071479797363,7.473242954957392,-1.3266446743555247,0.6555182112031231,-0.19719518010637657,0.0,0.0,0.6,-0.3178134534398005,-0.07956716220927994,0.020169706969532242,0.02723903794969345,-0.03580717251761913,0.0,0.0,0.0,0.0,0.0,0.0,0.0
0.793363094329834,7.16795935682789,-1.3175265048664067,0.5923869420668358,-0.1903490519833295,0.0,0.0,0.6,-0.3169263296430298,-0.08031275443243828,0.01069619842153191,0.027700478207567082,-0.04130201547275821,0.0,0.0,0.0,0.0,0.0,0.0,0.0
0.8038167953491211,7.503058888287064,-1.1631910584182,0.4766726204601519,-0.1575739405766472,0.0,0.0,0.6,-0.2851177589832827,-0.07300867599244099,0.059959823979743754,0.025569716325999553,-0.04159753038897898,0.0,0.0,0.0,0.0,0.0,0.0,0.0
0.8143830299377441,8.026755756832717,-1.1982280283373907,0.5717424736434145,-0.17596965630924624,0.0,0.0,0.6,-0.2903143693271736,-0.07499833530954537,0.04030167852039401,0.022415049559402135,-0.03159400087878108,0.0,0.0,0.0,0.0,0.0,0.0,0.0
0.8250501155853271,8.439737838972569,-1.2185627081543908,0.6410364528441979,-0.1886336862350689,0.0,0.0,0.6,-0.29591945959677757,-0.07702785513989857,0.019732336191150557,0.019703930372577033,-0.023513594217931963,0.0,0.0,0.0,0.0,0.0,0.0,0.0
0.8355097770690918,8.730327668687208,-1.1242416504376143,0.5920378528418626,-0.16863384911254284,0.0,0.0,0.6,-0.28636524901344074,-0.07317985194840865,0.04001818637685295,0.017634638085412938,-0.022320763759528326,0.0,0.0,0.0,0.0,0.0,0.0,0.0
0.8459324836730957,9.26652108071491,-1.0430777905021058,0.5652343452055153,-0.1491634606293771,0.0,0.0,0.6,-0.28545616219787096,-0.06868631190970913,0.06017948585355226,0.014010717266844466,-0.021101898962373015,0.0,0.0,0.0,0.0,0.0,0.0,0.0
0.8563055992126465,10.162011372745518,-0.9794073415144313,0.5283435698919149,-0.1282046667780308,0.0,0.0,0.6,-0.28437828711485724,-0.06461208926872164,0.07772195912577051,0.008337648629685654,-0.020373329255166512,0.0,0.0,0.0,0.0,0.0,0.0,0.0
0.8667447566986084,10.953729799177822,-0.9570009321320576,0.46528502343730344,-0.11157187484245693,0.0,0.0,0.6,-0.28930348220052193,-0.06433907274870815,0.06927240925622768,0.0027502583942361357,-0.022988359309572107,0.0,0.0,0.0,0.0,0.0,0.0,0.0
0.8773605823516846,11.162945070271027,-0.9343388331668101,0.34785104113674364,-0.0950418767028149,0.0,0.0,0.6,-0.2994993040070588,-0.06688478841257821,0.04053443419479019,-0.0003043731633021788,-0.03137057686062302,0.0,0.0,0.0,0.0,0.0,0.0,0.0
0.887753963470459,10.805052207885929,-0.8131988349221628,0.1677850396885702,-0.07219983718689596,0.0,0.0,0.6,-0.28889624350934284,-0.06578136574296277,0.044443097810082155,0.0005457819848028471,-0.04090504481595742,0.0,0.0,0.0,0.0,0.0,0.0,0.0
0.8982744216918945,10.108276883095387,-0.7280583656161554,0.044594296390372656,-0.06328105094447453,0.0,0.0,0.6,-0.29547785590324505,-0.06906276220886107,0.012070686704048428,0.002852045960130797,-0.04771632685046802,0.0,0.0,0.0,0.0,0.0,0.0,0.0
0.9092857837677002,8.596894096223375,-0.6448748804953469,-0.12040458100619543,-0.05574185906480352,0.0,0.0,0.6,-0.3198236802674925,-0.07678568852179798,-0.05923011507444076,0.008208693671910208,-0.06058326855705328,0.0,0.0,0.0,0.0,0.0,0.0,0.0
0.9197089672088623,7.411711188771555,-0.415531283471337,-0.30869690199785005,-0.04125660939225417,0.0,0.0,0.6,-0.2876602948643456,-0.07079236136130199,-0.013602398864314913,0.014931687974427439,-0.06697841020761966,0.0,0.0,0.0,0.0,0.0,0.0,0.0
0.9302194118499756,6.603363651232217,-0.2847983488575045,-0.3570873146793942,-0.04383408410711654,0.0,0.0,0.6,-0.2897949242868437,-0.07288429444725548,-0.038329059213663585,0.018908290629235006,-0.06444890237807335,0.0,0.0,0.0,0.0,0.0,0.0,0.0
0.9410521984100342,5.75635196034352,-0.16572243469605927,-0.3799668523662554,-0.050268650447292514,0.0,0.0,0.6,-0.3037691434130518,-0.07776077720119415,-0.08899434520739102,0.022506945627198138,-0.06037522907180628,0.0,0.0,0.0,0.0,0.0,0.0,0.0
0.9515461921691895,5.452404709608263,-0.011500174309226738,-0.42482558525153724,-0.04952855980464231,0.0,0.0,0.6,-0.28450040515425046,-0.07377203982246018,-0.06269943243074527,0.024807975836745155,-0.05622241402863006,0.0,0.0,0.0,0.0,0.0,0.0,0.0
0.9619977474212646,5.441304460381893,0.10701501167907967,-0.4180445920432919,-0.050803707880924136,0.0,0.0,0.6,-0.2803754752054559,-0.07331279739517141,-0.0691433993036138,0.025195295480491837,-0.04832130300356725,0.0,0.0,0.0,0.0,0.0,0.0,0.0
0.9724369049072266,5.785882015044318,0.20555363562837817,-0.3798445634567816,-0.05199651937534809,0.0,0.0,0.6,-0.2784492032539651,-0.07313872014478606,-0.07927523128189418,0.02378031790764599,-0.03771247392702352,0.0,0.0,0.0,0.0,0.0,0.0,0.0
0.9828817844390869,6.0592562765078455,0.3007611653246872,-0.372962354683392,-0.05297026466649418,0.0,0.0,0.6,-0.2779002019786802,-0.07308125607517993,-0.09160501491440975,0.02220168707581871,-0.03058550910513668,0.0,0.0,0.0,0.0,0.0,0.0,0.0
0.9936482906341553,5.694186266707671,0.41962099713226836,-0.4405738101995065,-0.05778701728507508,0.0,0.0,0.6,-0.29251956123260386,-0.07680999419924647,-0.14170553134162722,0.02209998537186905,-0.030667562772268706,0.0,0.0,0.0,0.0,0.0,0.0,0.0
1.0041630268096924,5.661104053389048,0.5111323608325798,-0.5370082502147392,-0.06013460705838444,0.0,0.0,0.6,-0.2788483892593249,-0.0729692930586587,-0.11963374227398793,0.021489575219142337,-0.03529528467958284,0.0,0.0,0.0,0.0,0.0,0.0,0.0
1.0147111415863037,5.673609405940821,0.5988223979938029,-0.6056042774873781,-0.06584316008286728,0.0,0.0,0.6,-0.2787840486164885,-0.07260758344527937,-0.13175011570912087,0.02020840000887543,-0.037237701331316105,0.0,0.0,0.0,0.0,0.0,0.0,0.0
1.0256767272949219,5.223001689672761,0.716153875721705,-0.7081098482872763,-0.07840480051478559,0.0,0.0,0.6,-0.2967747811570657,-0.07686591038379406,-0.19196092972580603,0.019636892322759142,-0.041664861887277194,0.0,0.0,0.0,0.0,0.0,0.0,0.0
1.0361683368682861,5.57768533967307,0.7374756401718366,-0.7563944913621898,-0.07827025400991953,0.0,0.0,0.6,-0.27151831777872293,-0.06990097576354887,-0.13636621164392004,0.018264115568701857,-0.04548748740628444,0.0,0.0,0.0,0.0,0.0,0.0,0.0
1.0468883514404297,5.733668244493687,0.8034993914066856,-0.7842474540881734,-0.08520796118948738,0.0,0.0,0.6,-0.2796453906069421,-0.07155081600681967,-0.17033052021461204,0.016259662399079933,-0.04476744605415349,0.0,0.0,0.0,0.0,0.0,0.0,0.0
1.0574076175689697,6.522098648664338,0.8014974764132536,-0.7389045816174181,-0.08122193003595914,0.0,0.0,0.6,-0.2681336122782793,-0.06820421112910346,-0.14986047765547206,0.013330645956267439,-0.03961627790066487,0.0,0.0,0.0,0.0,0.0,0.0,0.0
1.0678682327270508,7.230125153870303,0.8013805585257378,-0.6879509389880188,-0.07704244225267087,0.0,0.0,0.6,-0.2638004057955832,-0.06673893825517102,-0.14881587043370959,0.010591129894694669,-0.03377286671766013,0.0,0.0,0.0,0.0,0.0,0.0,0.0
1.0783467292785645,7.879287460397801,0.798450973098443,-0.6325500685062401,-0.0726244128119733,0.0,0.0,0.6,-0.26358960768330836,-0.06635367914494006,-0.15917308641192762,0.008061941047935525,-0.02754630965983012,0.0,0.0,0.0,0.0,0.0,0.0,0.0
1.088775873184204,8.297916703878752,0.7847857314636921,-0.598134863821215,-0.06870476914588014,0.0,0.0,0.6,-0.2608015134178014,-0.06535545914373983,-0.1615558194654393,0.006612763105091853,-0.024195498064186406,0.0,0.0,0.0,0.0,0.0,0.0,0.0
1.0996205806732178,7.892390180075387,0.8283949893842938,-0.6480044383669288,-0.0754488874197642,0.0,0.0,0.6,-0.2790854218304709,-0.06966474057850428,-0.22563154792604567,0.006684981128073357,-0.027085062762199158,0.0,0.0,0.0,0.0,0.0,0.0,0.0
1.1103019714355469,7.282943449241486,0.8065822628598548,-0.7228545634227758,-0.07713397425983858,0.0,0.0,0.6,-0.27004407335980274,-0.06719076721877866,-0.2090972353503101,0.009006913560837805,-0.03634244761495915,0.0,0.0,0.0,0.0,0.0,0.0,0.0
1.1207315921783447,7.2002268648678065,0.7523422819494895,-0.733821294779396,-0.07308900675684538,0.0,0.0,0.6,-0.2568883624289802,-0.06374495377600013,-0.1793343640881121,0.010246869616511627,-0.04015280612693122,0.0,0.0,0.0,0.0,0.0,0.0,0.0
1.131253957748413,7.50470214757578,0.7078534114053571,-0.6899479188449478,-0.06953275543577041,0.0,0.0,0.6,-0.2596051261369231,-0.06427157213259045,-0.19716587336820512,0.00971984902714962,-0.037259724939479245,0.0,0.0,0.0,0.0,0.0,0.0,0.0
1.1418607234954834,7.67971977914986,0.6529266245476849,-0.6505607376452401,-0.06574805472117139,0.0,0.0,0.6,-0.2621556337424478,-0.06478047660926511,-0.2145866677698075,0.00960665253889927,-0.03564741046656303,0.0,0.0,0.0,0.0,0.0,0.0,0.0
1.1523463726043701,7.766156935890009,0.5767269132727126,-0.6170243589868977,-0.05998326501751842,0.0,0.0,0.6,-0.25557065324431666,-0.0630599142882826,-0.20337660412655656,0.010161318186468229,-0.036079948304144085,0.0,0.0,0.0,0.0,0.0,0.0,0.0
1.1628289222717285,7.8886107280982785,0.5027613522953391,-0.5741026092575999,-0.05501515193244895,0.0,0.0,0.6,-0.25434347360889553,-0.062689620571102,-0.20853825689035,0.010391556494746466,-0.03538849381898963,0.0,0.0,0.0,0.0,0.0,0.0,0.0
1.1732959747314453,8.058087299025274,0.42354620768956885,-0.523144021474989,-0.05005951330711008,0.0,0.0,0.6,-0.25275590438217993,-0.0622511398278162,-0.21231436020198657,0.010492363810706564,-0.03417011506770108,0.0,0.0,0.0,0.0,0.0,0.0,0.0
1.1837241649627686,8.183114417896777,0.34195452033835677,-0.47450680032053266,-0.045536035287213845,0.0,0.0,0.6,-0.25026994140464115,-0.06160389044247812,-0.21308984796049502,0.010705802985125377,-0.0334820983629981,0.0,0.0,0.0,0.0,0.0,0.0,0.0
1.1943457126617432,7.968752988234353,0.27023394532808614,-0.4500647708175839,-0.043037561020361555,0.0,0.0,0.6,-0.25777243643252623,-0.06341832487162771,-0.2465176887717846,0.0113926816441225,-0.035124833802535754,0.0,0.0,0.0,0.0,0.0,0.0,0.0
1.2048070430755615,7.904140406689514,0.21144303840411569,-0.4484642492651858,-0.042331506448247326,0.0,0.0,0.6,-0.25076341831902493,-0.060650357516218854,-0.21596030395379662,0.01220614071433718,-0.03848562774071141,0.0,0.0,0.0,0.0,0.0,0.0,0.0
1.2153027057647705,8.275484969521102,0.17381184114848183,-0.4595510773987386,-0.04857581727402162,0.0,0.0,0.6,-0.253830203793095,-0.05877396279796081,-0.19316766781411976,0.011775816087650031,-0.04150762684961474,0.0,0.0,0.0,0.0,0.0,0.0,0.0
1.2261674404144287,8.79020362765461,0.1249080411989454,-0.5102737922195711,-0.05606548956754995,0.0,0.0,0.6,-0.27108168966795804,-0.06025730308637019,-0.21694554183212655,0.010743383429776108,-0.04904730079503716,0.0,0.0,0.0,0.0,0.0,0.0,0.0
1.2366251945495605,9.662150105317414,0.053432229906816286,-0.538523335128797,-0.051239386283674776,0.0,0.0,0.6,-0.25185916974803146,-0.054975683857017225,-0.15270154641998412,0.009696460810730799,-0.05543809441222151,0.0,0.0,0.0,0.0,0.0,0.0,0.0
1.2472105026245117,10.560828459066231,-0.046050148176240854,-0.5036723976504043,-0.04729278381584469,0.0,0.0,0.6,-0.25511572466567595,-0.055570157421927155,-0.17093945210247163,0.00778517234531977,-0.056846106070816464,0.0,0.0,0.0,0.0,0.0,0.0,0.0
1.2578482627868652,11.080030524208635,-0.14779130149429306,-0.42402325834401444,-0.04246933986411135,0.0,0.0,0.6,-0.25456563921758457,-0.055889242226584125,-0.18733722633124128,0.006515771042720914,-0.05439061948789195,0.0,0.0,0.0,0.0,0.0,0.0,0.0
1.2682452201843262,11.03713836858636,-0.2248726443235521,-0.32294601107919163,-0.03707394367393488,0.0,0.0,0.6,-0.2413179196989842,-0.05367817454889099,-0.16894221364952644,0.006562116379905845,-0.04924930255912228,0.0,0.0,0.0,0.0,0.0,0.0,0.0
1.2787632942199707,10.7291296605411,-0.31917791216343927,-0.18653948638652276,-0.036314362077982845,0.0,0.0,0.6,-0.24361818643859534,-0.05499092200629886,-0.20164710081616566,0.006653846101562385,-0.04203837310681153,0.0,0.0,0.0,0.0,0.0,0.0,0.0
1.2892913818359375,9.973905957634749,-0.392763393032267,-0.06487056716351786,-0.0366786426622522,0.0,0.0,0.6,-0.24144905071487974,-0.05523562406396471,-0.2200841918287414,0.0077131543948812265,-0.03581331936085811,0.0,0.0,0.0,0.0,0.0,0.0,0.0
1.2997066974639893,9.019850329048527,-0.44157194661893956,0.03019939036882686,-0.036975165659073876,0.0,0.0,0.6,-0.2343951825401827,-0.05417303981997362,-0.22022233926426737,0.009283053193104789,-0.03129735692630881,0.0,0.0,0.0,0.0,0.0,0.0,0.0
1.3103582859039307,7.837407232960492,-0.5156799996441436,0.13206717574259016,-0.040517288816431754,0.0,0.0,0.6,-0.241660786173279,-0.05620894765472301,-0.2688679744839284,0.010842163631622517,-0.02837136947046305,0.0,0.0,0.0,0.0,0.0,0.0,0.0
1.3208980560302734,6.7597004720996665,-0.5385723769795588,0.1727595607562157,-0.03869999281772453,0.0,0.0,0.6,-0.23466961983027773,-0.054711921611449346,-0.26415196977354305,0.012575520644165802,-0.028591160255777116,0.0,0.0,0.0,0.0,0.0,0.0,0.0
1.3314096927642822,5.982628750572685,-0.5647772298858627,0.21891433386508996,-0.0378708548174418,0.0,0.0,0.6,-0.23109839442724175,-0.05379036410304831,-0.26919499214597564,0.013537290464328302,-0.02853919073281238,0.0,0.0,0.0,0.0,0.0,0.0,0.0
1.341991901397705,5.517550145485666,-0.5996087124246845,0.28207369254148323,-0.03907350278209818,0.0,0.0,0.6,-0.2314767328039421,-0.05358541515969376,-0.28751688477741333,0.013626413285181035,-0.02756436055640848,0.0,0.0,0.0,0.0,0.0,0.0,0.0
1.3524091243743896,5.6659989501825185,-0.6141207316490361,0.31806285655064875,-0.03819137275762969,0.0,0.0,0.6,-0.22461212336208164,-0.05160954577437806,-0.26062827334722916,0.013103222091723541,-0.027157651342401005,0.0,0.0,0.0,0.0,0.0,0.0,0.0
1.3628368377685547,6.284519469464797,-0.668538630022494,0.37401366986578605,-0.04179596560470792,0.0,0.0,0.6,-0.2278064988903068,-0.05193031967761818,-0.24666477708446344,0.012322453283702916,-0.02714816529847414,0.0,0.0,0.0,0.0,0.0,0.0,0.0
1.373504638671875,6.957641768269745,-0.73588592075678,0.4089703954608693,-0.045614637914057246,0.0,0.0,0.6,-0.2397736017735724,-0.054088633340886774,-0.267746387421258,0.01235694329768631,-0.031809439551777015,0.0,0.0,0.0,0.0,0.0,0.0,0.0
1.3839385509490967,7.889371469506789,-0.6986056582907171,0.3397625125567063,-0.03643100749378157,0.0,0.0,0.6,-0.22983536416590777,-0.051083381988688704,-0.23065919987122807,0.012835978431486613,-0.03963644378140597,0.0,0.0,0.0,0.0,0.0,0.0,0.0
1.3944337368011475,8.662462151640966,-0.6913790672208082,0.33284499091863906,-0.033516389586753716,0.0,0.0,0.6,-0.22983631823805423,-0.05014934683861047,-0.24431520657491979,0.012373239599061439,-0.04403446685040306,0.0,0.0,0.0,0.0,0.0,0.0,0.0
1.4048101902008057,9.334506575487314,-0.6574781292080638,0.3442350565050466,-0.03166293590367575,0.0,0.0,0.6,-0.22181719445332726,-0.04738121003916441,-0.23744808400395712,0.010658397110906841,-0.04318229792530225,0.0,0.0,0.0,0.0,0.0,0.0,0.0
1.415292501449585,9.458970933246174,-0.6514394490970038,0.3992719753401678,-0.034338994390160874,0.0,0.0,0.6,-0.22203125735257023,-0.04632209658183263,-0.26655483764343124,0.00831594670663783,-0.04031527182215275,0.0,0.0,0.0,0.0,0.0,0.0,0.0
1.4264395236968994,8.157543936697316,-0.6979347893000656,0.4690355035671355,-0.04037474458301007,0.0,0.0,0.6,-0.24272141197596,-0.04934304730530713,-0.3814014269285856,0.006505442594934369,-0.04310690727374718,0.0,0.0,0.0,0.0,0.0,0.0,0.0
1.4368586540222168,7.194928460026535,-0.5752758292989553,0.3372158479341168,-0.02705973469995617,0.0,0.0,0.6,-0.21163943087082873,-0.04231019781063458,-0.26981909866529574,0.006360564418122331,-0.04488956150903731,0.0,0.0,0.0,0.0,0.0,0.0,0.0
1.447336196899414,7.22526858399806,-0.5973037062144446,0.3942713046327599,-0.031758038688676965,0.0,0.0,0.6,-0.21420590556703284,-0.04284950764299096,-0.26734592778579214,0.004522254518328337,-0.03955423368172602,0.0,0.0,0.0,0.0,0.0,0.0,0.0
1.4581613540649414,7.6768505719306415,-0.6387171462867925,0.4779330208083293,-0.03916847691331223,0.0,0.0,0.6,-0.22757439463643003,-0.045372397968446276,-0.3103494861087762,0.003103562445205226,-0.03469090189403169,0.0,0.0,0.0,0.0,0.0,0.0,0.0
1.4685685634613037,8.321612207248428,-0.5361432527594384,0.3879233536353954,-0.03025462230386993,0.0,0.0,0.6,-0.20942803607677613,-0.04087013432037216,-0.24816883554824942,0.004023924955583015,-0.03448079870444188,0.0,0.0,0.0,0.0,0.0,0.0,0.0
1.4791040420532227,8.89276395690144,-0.48379784363038747,0.3915958375108239,-0.02847949608014386,0.0,0.0,0.6,-0.20982668090908418,-0.03951124538876201,-0.2744586919985724,0.003256383009320178,-0.031001587474727456,0.0,0.0,0.0,0.0,0.0,0.0,0.0
1.4894533157348633,9.505402584547127,-0.3991898235884162,0.3807321966439068,-0.02404508481035388,0.0,0.0,0.6,-0.19840130278067428,-0.03562443998580682,-0.2591034181413917,0.0015854474435753486,-0.024224871887569804,0.0,0.0,0.0,0.0,0.0,0.0,0.0
1.499908685684204,9.569184620355584,-0.3387922397725895,0.4040103047881008,-0.02109587455184727,0.0,0.0,0.6,-0.1969804135713102,-0.03336695027389455,-0.2906822312950017,-0.001278212699156138,-0.01671596853440258,0.0,0.0,0.0,0.0,0.0,0.0,0.0
1.5104830265045166,8.992178774926602,-0.2726111106569882,0.40253981282340856,-0.016606917230158436,0.0,0.0,0.6,-0.19573957107260428,-0.03099741187905884,-0.3253623457872937,-0.004412507979350487,-0.010964853634632517,0.0,0.0,0.0,0.0,0.0,0.0,0.0
1.5208759307861328,8.181314940142542,-0.18697828522766904,0.3434115510340566,-0.010585982747575776,0.0,0.0,0.6,-0.18463633051592646,-0.0271361173714283,-0.3113293195925043,-0.006656209115691389,-0.008018537381677474,0.0,0.0,0.0,0.0,0.0,0.0,0.0
1.531491994857788,7.16837639582396,-0.12261942552617394,0.32948951746603544,-0.004965257226007707,0.0,0.0,0.6,-0.1867594262091545,-0.02529929907855858,-0.36000068878306024,-0.01004112366897375,-0.0036315828609154396,0.0,0.0,0.0,0.0,0.0,0.0,0.0
1.5420188903808594,6.322763178715174,-0.04220521370923144,0.26186077474452946,0.0006706980678919007,0.0,0.0,0.6,-0.17902742463166704,-0.02218153257535885,-0.35590529031696894,-0.011922349402115054,-0.0022522675415505905,0.0,0.0,0.0,0.0,0.0,0.0,0.0
1.5525262355804443,5.691893931769392,0.036359097715709915,0.1984782283011148,0.005248797074077033,0.0,0.0,0.6,-0.17368869557578753,-0.01952416550320702,-0.3608206054276206,-0.01355267881757552,-0.0009582822687981996,0.0,0.0,0.0,0.0,0.0,0.0,0.0
1.563066005706787,5.39751606216249,0.11284028977468058,0.14555242387299946,0.008976684786495994,0.0,0.0,0.6,-0.17022840703815012,-0.017231784164112817,-0.3728316099037575,-0.01499211874507375,0.0009635847843394532,0.0,0.0,0.0,0.0,0.0,0.0,0.0
1.5736510753631592,5.205636910591859,0.19013507952615857,0.08235407860597167,0.011555644485107621,0.0,0.0,0.6,-0.16733679065271526,-0.015119392367174689,-0.3855634268829563,-0.01586319400677962,0.0016655912876617975,0.0,0.0,0.0,0.0,0.0,0.0,0.0
1.5841460227966309,5.393542324336018,0.26602273434363555,-0.0006543257243517928,0.010561414168884588,0.0,0.0,0.6,-0.16360627407545644,-0.01420436877007536,-0.3689878844181349,-0.015190989162808182,0.00014949977153641469,0.0,0.0,0.0,0.0,0.0,0.0,0.0
1.5946943759918213,5.851491573208319,0.3543875397634984,-0.09724779632846368,0.0060391109938096295,0.0,0.0,0.6,-0.1685168237041172,-0.01595055177832536,-0.367403290416779,-0.013305355811532242,-0.003379027470056422,0.0,0.0,0.0,0.0,0.0,0.0,0.0
1.6052405834197998,6.61614052965874,0.4547555038235552,-0.2353170512984377,-0.0020830069064103197,0.0,0.0,0.6,-0.17131788511825252,-0.0173134719936914,-0.35766004144224717,-0.009104000722427839,-0.011253498061152022,0.0,0.0,0.0,0.0,0.0,0.0,0.0
1.6158039569854736,7.381329811348545,0.5594128447849451,-0.3930017836147026,-0.011421825545563888,0.0,0.0,0.6,-0.17088542972126192,-0.016879464220700184,-0.358216878309757,-0.004128237213896015,-0.020939655770179463,0.0,0.0,0.0,0.0,0.0,0.0,0.0
1.6265716552734375,7.676346648189329,0.6662982612631436,-0.5503570681179261,-0.02185435138354655,0.0,0.0,0.6,-0.1730125570775424,-0.015626937105671843,-0.39380074978893065,-0.00033471375004387856,-0.029758747624150834,0.0,0.0,0.0,0.0,0.0,0.0,0.0
1.6371285915374756,7.897024537689422,0.7034163899421461,-0.6506283369069031,-0.028141322432578317,0.0,0.0,0.6,-0.1613837278373736,-0.01250046109358273,-0.36286530766049985,0.0019262265987654242,-0.03442010767205913,0.0,0.0,0.0,0.0,0.0,0.0,0.0
1.647632122039795,8.225816934563646,0.7218572925569098,-0.6819782928202879,-0.029767518522489902,0.0,0.0,0.6,-0.15359683245161335,-0.009433178495872045,-0.3599209183014612,0.00146841906145165,-0.031754171753992186,0.0,0.0,0.0,0.0,0.0,0.0,0.0
1.6582355499267578,8.46497835511624,0.7295808032768367,-0.6734884480856324,-0.028617292286129095,0.0,0.0,0.6,-0.1496623418934251,-0.006452795327939835,-0.384172756704646,-0.0010887544366890442,-0.024234656391298754,0.0,0.0,0.0,0.0,0.0,0.0,0.0
1.668607234954834,8.672325277724159,0.683212087205092,-0.6255263802295655,-0.023272723711319578,0.0,0.0,0.6,-0.1377208920839823,-0.003237894104720491,-0.354117462015725,-0.0041044017671522225,-0.015304337435449001,0.0,0.0,0.0,0.0,0.0,0.0,0.0
1.679079532623291,8.730542763444461,0.6609523638664783,-0.582364929223801,-0.01906813502972274,0.0,0.0,0.6,-0.13451550350609964,-0.00047938545464614867,-0.3803518141132305,-0.008125319411336358,-0.0047515030514533145,0.0,0.0,0.0,0.0,0.0,0.0,0.0
1.6894490718841553,8.734912586281709,0.6137899904890664,-0.5371868931818309,-0.014207880626294168,0.0,0.0,0.6,-0.12725147920597973,0.0020493473303137945,-0.37279824548266516,-0.011379514829493878,0.00383688233713644,0.0,0.0,0.0,0.0,0.0,0.0,0.0
1.6998481750488281,8.51218274228357,0.5777431152284775,-0.5158169598287433,-0.011012563139298928,0.0,0.0,0.6,-0.12352942498901692,0.004355986229855544,-0.3874573307273037,-0.014386206749864022,0.01070024760210517,0.0,0.0,0.0,0.0,0.0,0.0,0.0
1.7103734016418457,7.9807256277811955,0.5487979775318486,-0.5223348456353485,-0.009478111694318118,0.0,0.0,0.6,-0.12219772546030194,0.006549928564869495,-0.4179001710843172,-0.017015552818257666,0.015167109194782015,0.0,0.0,0.0,0.0,0.0,0.0,0.0
1.72066068649292,7.634557231648881,0.49382322172248855,-0.5309261277280029,-0.008101742417214175,0.0,0.0,0.6,-0.1137389943107194,0.008058046213727903,-0.3837102675877132,-0.017231478061244573,0.014604417016243846,0.0,0.0,0.0,0.0,0.0,0.0,0.0
1.7313659191131592,6.849067311682074,0.48582686468883773,-0.5775346247048924,-0.009459686602962068,0.0,0.0,0.6,-0.11868534223315161,0.010336621212128798,-0.462590538300215,-0.01943059468892572,0.01672411518855372,0.0,0.0,0.0,0.0,0.0,0.0,0.0
1.7420077323913574,6.016383763388671,0.43967000864599853,-0.6240867711731114,-0.010326690437493137,0.0,0.0,0.6,-0.11386766578269512,0.011693984740504102,-0.45334427311388004,-0.01894377076366026,0.012094480149230778,0.0,0.0,0.0,0.0,0.0,0.0,0.0
1.7524654865264893,5.701684381029942,0.3859283477599887,-0.6501698968721185,-0.009298226075770069,0.0,0.0,0.6,-0.10686156581282819,0.012598681218415161,-0.42014822538545327,-0.01729995047851331,0.0069190496287947064,0.0,0.0,0.0,0.0,0.0,0.0,0.0
1.7630398273468018,5.881148291917022,0.34893656505500237,-0.6636272735993913,-0.007436854078380726,0.0,0.0,0.6,-0.10567908700509895,0.014022587477176517,-0.43988550221932365,-0.01632695651287671,0.00563831468112819,0.0,0.0,0.0,0.0,0.0,0.0,0.0
1.7735443115234375,6.397256144458955,0.3009466288919045,-0.6544547824489229,-0.004565421845267077,0.0,0.0,0.6,-0.1013053513140593,0.014928444366025475,-0.42686777828594236,-0.014458032876470489,0.003691973204692064,0.0,0.0,0.0,0.0,0.0,0.0,0.0
1.784041404724121,6.914568045288517,0.2520730055368833,-0.6395083916379655,-0.0016371363183761885,0.0,0.0,0.6,-0.09816551878490257,0.015950556332276527,-0.42535379452977284,-0.01279346514103133,0.0022882724090535224,0.0,0.0,0.0,0.0,0.0,0.0,0.0
1.794541835784912,7.459287501322532,0.19986028371162193,-0.6150392674148255,0.0011578090804823951,0.0,0.0,0.6,-0.09533011065520766,0.016993236596579864,-0.4264925371636249,-0.011259132280298956,0.001338210264458368,0.0,0.0,0.0,0.0,0.0,0.0,0.0
1.8050332069396973,7.92388859645577,0.13589256836936958,-0.5732639086643444,0.004669005575370295,0.0,0.0,0.6,-0.0957171113772591,0.01630792390892755,-0.42250930811683707,-0.009401733028363137,-0.0006810959417188042,0.0,0.0,0.0,0.0,0.0,0.0,0.0
1.8155436515808105,8.334657664791273,0.06498400955856362,-0.5282697702831469,0.009023129470127735,0.0,0.0,0.6,-0.10172305650891539,0.013114224197183551,-0.41839872005051115,-0.006173691405538003,-0.005974628859741774,0.0,0.0,0.0,0.0,0.0,0.0,0.0
1.8264334201812744,8.13192288084874,0.00988408678791925,-0.5563595754052215,0.013457544500805897,0.0,0.0,0.6,-0.1134055206573192,0.011001063303319862,-0.4770329248574877,-0.0016762312425389586,-0.016414430322454366,0.0,0.0,0.0,0.0,0.0,0.0,0.0
1.8368704319000244,8.248120660556253,-0.013146510108033844,-0.5896199532008273,0.013930732922101544,0.0,0.0,0.6,-0.10502018056022963,0.009711337719694605,-0.3926780923682248,0.003926529856634401,-0.02895800732863746,0.0,0.0,0.0,0.0,0.0,0.0,0.0
1.8473870754241943,8.769044058962972,-0.039909076312796214,-0.6104556568094505,0.015240534901115859,0.0,0.0,0.6,-0.10348129678795834,0.01094263167914096,-0.40511910644033444,0.007761462216583752,-0.035415237304676966,0.0,0.0,0.0,0.0,0.0,0.0,0.0
1.857966423034668,9.363789103600856,-0.08242976835868203,-0.5840859748028738,0.01482355435727602,0.0,0.0,0.6,-0.09985405238768431,0.013179421439404076,-0.41820499598866145,0.009022243306253761,-0.03596064536349467,0.0,0.0,0.0,0.0,0.0,0.0,0.0
1.8683719635009766,9.64729860362307,-0.13821862826811113,-0.5105574581609246,0.01164137627777693,0.0,0.0,0.6,-0.09137804222107275,0.015400722301657479,-0.3923353033711059,0.007402800768504934,-0.03175092362568859,0.0,0.0,0.0,0.0,0.0,0.0,0.0
1.878891944885254,9.730093331374473,-0.21961918533095495,-0.4111442371024887,0.007763743163147361,0.0,0.0,0.6,-0.0872673067294021,0.018602191921865706,-0.41778209771161723,0.0039012955429583987,-0.02402503074802901,0.0,0.0,0.0,0.0,0.0,0.0,0.0
1.889336347579956,9.601761638269302,-0.30160511656748773,-0.2905422682201328,0.0017056780833710255,0.0,0.0,0.6,-0.08040277620022895,0.02122453247107485,-0.410800541971461,-0.0008611594486409053,-0.014590123502514967,0.0,0.0,0.0,0.0,0.0,0.0,0.0
1.8998167514801025,9.242012611676822,-0.3924082199974508,-0.16669537761933745,-0.004950112167599603,0.0,0.0,0.6,-0.07542983145269924,0.02412469073358342,-0.4231281350819255,-0.006141546004353525,-0.004943428822527647,0.0,0.0,0.0,0.0,0.0,0.0,0.0
1.9103124141693115,8.782375510427464,-0.4777743604443667,-0.04816060588643141,-0.011906156924353825,0.0,0.0,0.6,-0.07057871031231362,0.026760893065668312,-0.43121707191917247,-0.01122097062294371,0.0037712580372452416,0.0,0.0,0.0,0.0,0.0,0.0,0.0
1.920750379562378,8.352748245443005,-0.5454407431474783,0.05276809480756619,-0.018473003235182434,0.0,0.0,0.6,-0.0654026120860032,0.02878885154666623,-0.4254947079798931,-0.015356477873740112,0.010431386591260847,0.0,0.0,0.0,0.0,0.0,0.0,0.0
1.9313411712646484,7.809054460930884,-0.6227811451099773,0.14935255368236852,-0.02583950532429262,0.0,0.0,0.6,-0.06302680015914722,0.03166192793640931,-0.45618424984855077,-0.0193294250901097,0.01627246229662239,0.0,0.0,0.0,0.0,0.0,0.0,0.0
1.9419898986816406,7.105594921589029,-0.6775906656161838,0.21790738441344767,-0.032001600412230415,0.0,0.0,0.6,-0.05980700769371047,0.03388232821160369,-0.467940940526152,-0.02222271003727207,0.01891464639600719,0.0,0.0,0.0,0.0,0.0,0.0,0.0
1.95237398147583,6.991305985027638,-0.6576853501683981,0.24117238590030265,-0.032893301077068296,0.0,0.0,0.6,-0.05664963769260195,0.03268316905448819,-0.4186059847352682,-0.021993976739837235,0.01694993519802265,0.0,0.0,0.0,0.0,0.0,0.0,0.0
1.962798833847046,7.426743338799523,-0.6231787238599722,0.26660374483058674,-0.03259670345325318,0.0,0.0,0.6,-0.06140594326206777,0.03103356280143667,-0.42178504197199806,-0.02028432119694892,0.013894198035006126,0.0,0.0,0.0,0.0,0.0,0.0,0.0
1.9733192920684814,7.932117901278868,-0.5672983171731408,0.2480737982472796,-0.03019266654686456,0.0,0.0,0.6,-0.06637334886572101,0.02995245582174131,-0.4360776014796365,-0.01649948122328747,0.00630783458749764,0.0,0.0,0.0,0.0,0.0,0.0,0.0
1.9838838577270508,8.059727514144358,-0.507205255196413,0.18789267610538388,-0.026533562310595164,0.0,0.0,0.6,-0.066836520602131,0.03045740919742014,-0.4433926864391985,-0.012003386766546336,-0.004545894856647221,0.0,0.0,0.0,0.0,0.0,0.0,0.0
1.9946141242980957,7.717775926232834,-0.4718241272318733,0.1409927521406057,-0.02377287916980549,0.0,0.0,0.6,-0.06574892737782834,0.0329114453107575,-0.4726345031152662,-0.00902619355342194,-0.014032088325922435,0.0,0.0,0.0,0.0,0.0,0.0,0.0
2.005260467529297,7.366729873000818,-0.43521321159254117,0.11227368751416784,-0.020844438241548784,0.0,0.0,0.6,-0.06004761898031594,0.03476345644217758,-0.45623495542628245,-0.007701805081218609,-0.01951729262359055,0.0,0.0,0.0,0.0,0.0,0.0,0.0
2.0158274173736572,7.384262015476143,-0.4137876537171018,0.13340321367947836,-0.019517675940650264,0.0,0.0,0.6,-0.0536227549567183,0.03697235287864253,-0.44070476818512827,-0.008144097282594479,-0.01920605557226703,0.0,0.0,0.0,0.0,0.0,0.0,0.0
2.0265519618988037,7.47374673335781,-0.4193721355733394,0.20925976640334815,-0.019922098927047858,0.0,0.0,0.6,-0.04898141033016503,0.040892990345714524,-0.46792803672652405,-0.010517390227325668,-0.01428149298526621,0.0,0.0,0.0,0.0,0.0,0.0,0.0
2.0370168685913086,7.892604041168229,-0.39570005955063275,0.2697548515186806,-0.017973883451799864,0.0,0.0,0.6,-0.041060626078091564,0.04196773719187821,-0.42158571032448944,-0.012896776727989365,-0.0073523352778215,0.0,0.0,0.0,0.0,0.0,0.0,0.0
2.0475618839263916,8.363495686580904,-0.3896634281853269,0.3669459926170206,-0.016364621247990395,0.0,0.0,0.6,-0.03599248519943839,0.04543562717141598,-0.43710983856970087,-0.016174088100311488,0.0015753087090498628,0.0,0.0,0.0,0.0,0.0,0.0,0.0
2.058169364929199,8.671050668111276,-0.37642761041293116,0.4548529017384047,-0.013231952750721667,0.0,0.0,0.6,-0.03101599042583381,0.0487786336199249,-0.4507686636940379,-0.01968994245074875,0.010337309606378391,0.0,0.0,0.0,0.0,0.0,0.0,0.0
2.0686118602752686,8.828241460593997,-0.34130192849404145,0.4949112232959938,-0.008341108803422457,0.0,0.0,0.6,-0.025324622822887284,0.050067756059819966,-0.42442995050877663,-0.02222301558627239,0.016464320109149805,0.0,0.0,0.0,0.0,0.0,0.0,0.0
2.079160213470459,8.895972484659382,-0.3127441890289565,0.5495314768827736,-0.0033088849897222007,0.0,0.0,0.6,-0.021342888723203658,0.053528333378906695,-0.44692941548036436,-0.025145359720751707,0.022752309057115287,0.0,0.0,0.0,0.0,0.0,0.0,0.0
2.0898001194000244,8.636417031915194,-0.2781383622172819,0.5783978716806817,0.0024608067861421235,0.0,0.0,0.6,-0.01756508489090335,0.05675495011609129,-0.46676707481973245,-0.0278716266588118,0.02710370931952111,0.0,0.0,0.0,0.0,0.0,0.0,0.0
2.1003432273864746,8.228318548315825,-0.22924079154862495,0.5568287828820421,0.008096021253514477,0.0,0.0,0.6,-0.013489976875239205,0.057995201646147784,-0.45153612278534416,-0.029293247544805407,0.028067547907228076,0.0,0.0,0.0,0.0,0.0,0.0,0.0
2.1108474731445312,8.076714360763603,-0.17249209010581582,0.5263885088966427,0.013127209426526554,0.0,0.0,0.6,-0.009854101437021534,0.05965062545964989,-0.44644496185898264,-0.029847876376576106,0.028188796348411718,0.0,0.0,0.0,0.0,0.0,0.0,0.0
2.121183395385742,8.413342900779883,-0.10321433697813698,0.4697544522676244,0.015966792079324867,0.0,0.0,0.6,-0.00634469394431122,0.05987575699464469,-0.4192733378255268,-0.02850502342853415,0.02648221528315172,0.0,0.0,0.0,0.0,0.0,0.0,0.0
2.1316232681274414,8.735576084778348,-0.03497452065370296,0.43759606682867414,0.019370155496273425,0.0,0.0,0.6,-0.0033188634428848226,0.06294252190709718,-0.44232945892340914,-0.02797419525164649,0.026255616555525645,0.0,0.0,0.0,0.0,0.0,0.0,0.0
2.1425509452819824,7.996399023938565,0.021442339601103977,0.43399291906737214,0.025380166262662377,0.0,0.0,0.6,-0.00023048765254867116,0.07032548921547968,-0.5349295274970155,-0.030792138433852482,0.028200529452080084,0.0,0.0,0.0,0.0,0.0,0.0,0.0
2.153035879135132,7.229003991161955,0.06273788753461294,0.3264615754389232,0.02255182966161452,0.0,0.0,0.6,0.002896254415738521,0.06685669094914115,-0.4529922437380164,-0.02991710786692601,0.023087127096757813,0.0,0.0,0.0,0.0,0.0,0.0,0.0
2.1635851860046387,7.046292810033764,0.12389553901615871,0.26786898692977906,0.02337476249839678,0.0,0.0,0.6,0.006022111294397278,0.06907233595219105,-0.463306635607324,-0.029688394138039503,0.02164148462123664,0.0,0.0,0.0,0.0,0.0,0.0,0.0
2.1741020679473877,7.520834047623611,0.19316629620360884,0.20198717314784892,0.022854634893800792,0.0,0.0,0.6,0.009057041158667064,0.0701769347994792,-0.4572142987891771,-0.02784533428446878,0.01991315609218732,0.0,0.0,0.0,0.0,0.0,0.0,0.0
2.184499979019165,8.083806622599703,0.2569133366783683,0.13178556344655673,0.02105782433756021,0.0,0.0,0.6,0.011955923838900036,0.07027247625716326,-0.4368538369134961,-0.025648008887053517,0.018068041380279523,0.0,0.0,0.0,0.0,0.0,0.0,0.0
2.194944381713867,8.60653980491115,0.3263325643940971,0.07266560580579401,0.019899601931974015,0.0,0.0,0.6,0.015232960506291585,0.0724600106251962,-0.44805872617505316,-0.024153787424296108,0.017606407716368937,0.0,0.0,0.0,0.0,0.0,0.0,0.0
2.2053186893463135,8.997919557973717,0.38021283641047354,0.011971796837495073,0.01734951350877062,0.0,0.0,0.6,0.018193247384235712,0.07322084734022066,-0.43948094667670834,-0.022739113242044827,0.01696037405597446,0.0,0.0,0.0,0.0,0.0,0.0,0.0
2.2161054611206055,8.527828037228023,0.4497043464067349,-0.03063975706755035,0.017345755251325624,0.0,0.0,0.6,0.02285989102501375,0.08018537306039189,-0.5186910016573135,-0.024672668115935614,0.019562955200731428,0.0,0.0,0.0,0.0,0.0,0.0,0.0
2.2266769409179688,7.756401905654084,0.45088826338672716,-0.08608982595999172,0.013228737829346358,0.0,0.0,0.6,0.025250613642144225,0.07866161517062545,-0.47943190902819766,-0.025703676316436178,0.019218738455194766,0.0,0.0,0.0,0.0,0.0,0.0,0.0
2.2370946407318115,7.54816790510859,0.4629508297450212,-0.14064849972607532,0.009255764498341049,0.0,0.0,0.6,0.027717927337493224,0.07779516656481134,-0.4508739694049454,-0.025592857202587405,0.01894237024527628,0.0,0.0,0.0,0.0,0.0,0.0,0.0
2.2476859092712402,7.712476863990182,0.5107435064347744,-0.1962602722829255,0.006286057736907334,0.0,0.0,0.6,0.03180829180115719,0.08138151460135815,-0.4831349775868182,-0.025429108081084412,0.020301015638043658,0.0,0.0,0.0,0.0,0.0,0.0,0.0
2.258572578430176,7.177736910337279,0.5478527579158443,-0.2491720941163688,0.003669757026353778,0.0,0.0,0.6,0.036825507757414146,0.08665127629251984,-0.5371744780416222,-0.027311299383564865,0.02311995992556942,0.0,0.0,0.0,0.0,0.0,0.0,0.0
2.2690374851226807,7.024768369875998,0.4861351253064181,-0.2765328216835189,0.00226494875769875,0.0,0.0,0.6,0.034944952084330974,0.08033835918349463,-0.4554074289550708,-0.026266525872750388,0.02112403848080467,0.0,0.0,0.0,0.0,0.0,0.0,0.0
2.2796413898468018,7.333253410948764,0.46545509412032837,-0.31571110128213076,0.0021908327761379245,0.0,0.0,0.6,0.03254642727499561,0.07995419159124632,-0.4763974750887142,-0.024015417548288374,0.01894343049211351,0.0,0.0,0.0,0.0,0.0,0.0,0.0
2.2901275157928467,8.152343324323336,0.4470594324079561,-0.38304492256736844,0.0004728684469544108,0.0,0.0,0.6,0.02935952503442983,0.07647643488149962,-0.4526595730725643,-0.018562071351262744,0.01209203432748829,0.0,0.0,0.0,0.0,0.0,0.0,0.0
2.300621509552002,8.776728889997123,0.46824470844007954,-0.4845853261980138,-0.0033901010707102068,0.0,0.0,0.6,0.030237017523876142,0.0764317390334575,-0.45456559161692567,-0.013328100593804874,0.005003315794748996,0.0,0.0,0.0,0.0,0.0,0.0,0.0
2.31117844581604,9.139864710257692,0.49616937373005626,-0.5816605247695589,-0.007611106551968823,0.0,0.0,0.6,0.033719188777467934,0.07829596670340834,-0.46844694587397606,-0.009674880044182259,0.0001909488948932172,0.0,0.0,0.0,0.0,0.0,0.0,0.0
2.321535110473633,9.401901968385053,0.48773909818738065,-0.6265202884744887,-0.009549546914743134,0.0,0.0,0.6,0.036951132569433234,0.07733280346750274,-0.4358629300182132,-0.008025709736068096,-0.0013586450400701316,0.0,0.0,0.0,0.0,0.0,0.0,0.0
2.3320014476776123,9.548674708433843,0.49271005174252236,-0.661239049834576,-0.011595159929544754,0.0,0.0,0.6,0.042845372729031,0.08095327426005397,-0.46097428641304694,-0.008358809085639591,0.0011519844696710826,0.0,0.0,0.0,0.0,0.0,0.0,0.0
2.342785120010376,8.928440209935777,0.48044259743401935,-0.6741177992574647,-0.012862540086246344,0.0,0.0,0.6,0.05089094582883423,0.08769611777390282,-0.5242658533908645,-0.012069912347267977,0.00796178033460067,0.0,0.0,0.0,0.0,0.0,0.0,0.0
2.3532631397247314,8.105704338693362,0.3901669698782526,-0.6050228958044589,-0.008848939821447832,0.0,0.0,0.6,0.05349980535225003,0.08515010095753225,-0.4693751138087091,-0.0168652120092723,0.01484966620477689,0.0,0.0,0.0,0.0,0.0,0.0,0.0
2.363858938217163,7.60909864634199,0.33729926553908784,-0.5653640173422819,-0.006680699198162115,0.0,0.0,0.6,0.05948263493387741,0.08854354794097449,-0.49195155006954805,-0.021240864274529727,0.02290982485268748,0.0,0.0,0.0,0.0,0.0,0.0,0.0
2.374678373336792,7.044748686338361,0.2819915958703797,-0.5241288072047874,-0.0042068506944129115,0.0,0.0,0.6,0.06631213575231466,0.09331661250642545,-0.5332895181099212,-0.025889028564838434,0.03151487659281167,0.0,0.0,0.0,0.0,0.0,0.0,0.0
2.3850910663604736,7.039897052755856,0.19615422598988447,-0.448372266472404,-0.00038128321895437243,0.0,0.0,0.6,0.06566037264767828,0.08805780852428247,-0.4560089060656872,-0.02739010292511448,0.03424221110329837,0.0,0.0,0.0,0.0,0.0,0.0,0.0
2.3955891132354736,7.521798902124246,0.15674523482796535,-0.42296575368854483,0.0012778261534735988,0.0,0.0,0.6,0.07015439203994153,0.09026043735677503,-0.4714044714377189,-0.027682550431534073,0.03740559608074792,0.0,0.0,0.0,0.0,0.0,0.0,0.0
2.4062845706939697,7.871901473934051,0.11812084266629673,-0.4049654287717603,0.0025595900782887037,0.0,0.0,0.6,0.07587835033593776,0.09418541294557087,-0.508965046574393,-0.02793475843641487,0.040345703527217266,0.0,0.0,0.0,0.0,0.0,0.0,0.0
2.4166831970214844,8.148874845712498,0.0586343977952697,-0.3620369393511261,0.0033990569840823413,0.0,0.0,0.6,0.07500374278852225,0.0901864293764797,-0.4551611226603919,-0.026659817789531835,0.03859396105033958,0.0,0.0,0.0,0.0,0.0,0.0,0.0
2.427105188369751,8.607287257541326,0.01888725056050167,-0.3452499456299878,0.00346708291030023,0.0,0.0,0.6,0.07805254070880686,0.09122292203957681,-0.4620173892285727,-0.02500936364648214,0.037450386022165764,0.0,0.0,0.0,0.0,0.0,0.0,0.0
2.4376156330108643,8.95715908110197,-0.020489537527381974,-0.3312670945380177,0.0033570816265337347,0.0,0.0,0.6,0.08189384586295989,0.0933338401017445,-0.48243647431098513,-0.02340346091140637,0.03616002354823042,0.0,0.0,0.0,0.0,0.0,0.0,0.0
2.4482078552246094,8.683929759269006,-0.07678689966900791,-0.30199644118124574,0.0030012296050257186,0.0,0.0,0.6,0.08549073679134661,0.09525357660507323,-0.5013465286680784,-0.023293294524265908,0.0356522636272388,0.0,0.0,0.0,0.0,0.0,0.0,0.0
2.4592080116271973,7.388603280710926,-0.16318853497158584,-0.25574753872637596,0.0025792514031385003,0.0,0.0,0.6,0.09371741400494271,0.10224846583170516,-0.5791869749720538,-0.026450038476783642,0.0391209691677847,0.0,0.0,0.0,0.0,0.0,0.0,0.0
2.46964955329895,6.828029153537555,-0.22543956124828213,-0.1885358230755872,0.00043999666504401916,0.0,0.0,0.6,0.08699555138176251,0.09305416360259304,-0.4706642853981934,-0.026184810012020998,0.03515685105850672,0.0,0.0,0.0,0.0,0.0,0.0,0.0
2.4802496433258057,6.981083321036664,-0.2670467986435575,-0.164646248681061,-0.0008572789557591183,0.0,0.0,0.6,0.09105031222244034,0.09560313816165777,-0.49756346813375985,-0.02485931756261826,0.033219888751327926,0.0,0.0,0.0,0.0,0.0,0.0,0.0
2.4908530712127686,7.615683634019092,-0.2903306853898938,-0.14602877273632003,-0.0023053403047496126,0.0,0.0,0.6,0.09283795121594685,0.09579458721536113,-0.49728531928626485,-0.02212589386099077,0.029545734344768124,0.0,0.0,0.0,0.0,0.0,0.0,0.0
2.5012543201446533,8.249594814561489,-0.3052314406429762,-0.12120695148842874,-0.003933528094202883,0.0,0.0,0.6,0.09145781623868907,0.0927963286541568,-0.46033629488564765,-0.01945801031015647,0.025406930983708772,0.0,0.0,0.0,0.0,0.0,0.0,0.0
2.511730194091797,8.88984667399112,-0.3242765596566785,-0.10028913941412261,-0.005294428454080087,0.0,0.0,0.6,0.09464597265837038,0.09448850092069178,-0.4767812596135522,-0.017144939460099103,0.022679909488423296,0.0,0.0,0.0,0.0,0.0,0.0,0.0
2.522101640701294,9.41483234119908,-0.33757879889384806,-0.0734233644239262,-0.006694363718227864,0.0,0.0,0.6,0.0950507387760286,0.09345531828882454,-0.46196930761270305,-0.015275003629390256,0.020035338767153712,0.0,0.0,0.0,0.0,0.0,0.0,0.0
2.532580614089966,9.501863930261178,-0.3686451819930928,-0.03478838847592339,-0.008251114467352702,0.0,0.0,0.6,0.09904843274639367,0.09598819216371987,-0.4874201366234142,-0.014947192749625022,0.01964667629332544,0.0,0.0,0.0,0.0,0.0,0.0,0.0
2.5431933403015137,9.000816820558747,-0.41558541466974175,0.023400496443001143,-0.010333135990391769,0.0,0.0,0.6,0.10355716790226022,0.09896575489477638,-0.5173667159935599,-0.016519344852812156,0.0213467179719454,0.0,0.0,0.0,0.0,0.0,0.0,0.0
2.5535295009613037,8.554754275589387,-0.4367716872950941,0.07524146906153932,-0.01211589166830036,0.0,0.0,0.6,0.10077398204931323,0.09501806955801043,-0.46878205493379144,-0.017923009958030683,0.02187358790879182,0.0,0.0,0.0,0.0,0.0,0.0,0.0
2.5639865398406982,8.367010521488472,-0.465651565781588,0.12287601609705115,-0.014238126984801992,0.0,0.0,0.6,0.10503179499393532,0.09775936024337512,-0.49506512039377315,-0.018825309703787083,0.022972802869651494,0.0,0.0,0.0,0.0,0.0,0.0,0.0
2.574885606765747,7.4441701707960615,-0.5293221479537866,0.20347118759417104,-0.01793770526984222,0.0,0.0,0.6,0.11530414053689456,0.1059819208600695,-0.5817179122413224,-0.02219250870220304,0.02757735228857923,0.0,0.0,0.0,0.0,0.0,0.0,0.0
2.585265636444092,6.880134008251396,-0.522171229744223,0.24472917176355372,-0.018631078493303276,0.0,0.0,0.6,0.10729178291986999,0.09742663377702679,-0.4809098161794164,-0.024153828610330046,0.028393638618643663,0.0,0.0,0.0,0.0,0.0,0.0,0.0
