T,input Acc,input Wb1,input Wb2,input Wb3,Px,Py,Pz,Vx,Vy,Vz,Roll,Pitch,Yaw,R_rate,P_rate,Y_rate,Wb1,Wb2,Wb3
0,0.0,0.0,0.0,0.0,0.0,0.0,0.3,0.0,0.0,0.0,0.0,0.0,0.0,0.0,0.0,0.0,0.0,0.0,0.0
0.00021696090698242188,9.855,0.014213994077221166,0.4269165891299623,-0.20553585060433896,0.0,0.0,0.3,0.0,0.0,0.09,0.0,0.0,0.0,0.0,0.0,0.0,0.0,0.0,0.0
0.005732059478759766,9.920684659317573,0.07548635860061172,-0.04171201184998491,-0.0014008674271704469,0.0,0.0,0.3,7.877123702508497e-05,0.00013226677568798666,0.08979288216835728,0.007521529407630561,-0.004475304855067416,0.0,0.0,0.0,0.0,0.0,0.0,0.0
0.011187553405761719,10.127134521779722,0.3124769819585077,-0.17158282277378906,-0.006744731535556901,0.0,0.0,0.3,0.0004161435270645671,0.0006986994136325255,0.0889058505871237,0.03112051881254988,-0.018538936859570088,0.0,0.0,0.0,0.0,0.0,0.0,0.0
0.016474246978759766,10.332004942338976,0.5473924642548869,-0.2927511385217608,-0.015889309632280416,0.0,0.0,0.3,0.000991895477858203,0.0016661153120890982,0.08739168862250314,0.05442650116496141,-0.03248930986709699,0.0,0.0,0.0,0.0,0.0,0.0,0.0
0.021857738494873047,10.437346956022136,0.6679529274571017,-0.34283317928567253,-0.02663314518471236,0.0,0.0,0.3,0.0016664342980371193,0.0028005425792841246,0.08561723342211525,0.06624203877894581,-0.039637961113482376,0.0,0.0,0.0,0.0,0.0,0.0,0.0
0.02728891372680664,10.53540186047089,0.7794674924223391,-0.3791646309837859,-0.041731121072735175,0.0,0.0,0.3,0.00261255882560792,0.004391272912990434,0.08312863509154293,0.07708950409072594,-0.04628557550833066,0.0,0.0,0.0,0.0,0.0,0.0,0.0
0.03259563446044922,10.572141985071617,0.8201604875744639,-0.37076366012657974,-0.05812583342363519,0.0,0.0,0.3,0.0036398288922076475,0.00611770689368513,0.08042706084521818,0.08085702654442485,-0.048726587628634466,0.0,0.0,0.0,0.0,0.0,0.0,0.0
0.037918806076049805,10.523193016776393,0.7629329747492075,-0.309936017940032,-0.07120850445489642,0.0,0.0,0.3,0.004461158719427806,0.00749781421345437,0.0782669781073351,0.07489812217751864,-0.045268084310862565,0.0,0.0,0.0,0.0,0.0,0.0,0.0
0.04335737228393555,10.47644032377237,0.7075750213366812,-0.24384343951305715,-0.08736890006429816,0.0,0.0,0.3,0.0054773427159458005,0.009205400032531515,0.07559385746937637,0.06911782922879373,-0.04192553902462265,0.0,0.0,0.0,0.0,0.0,0.0,0.0
0.048671722412109375,10.422077025999213,0.6427759829886741,-0.16476614745556767,-0.10698399470642377,0.0,0.0,0.3,0.006713633594743749,0.011282589967184904,0.072341706772246,0.06238849593032623,-0.03800909889850597,0.0,0.0,0.0,0.0,0.0,0.0,0.0
0.053972721099853516,10.302359938661155,0.5049345460997038,-0.060003662236634725,-0.11701021748093735,0.0,0.0,0.3,0.007350510989272247,0.012352354240371389,0.07066659944687526,0.04846052422692962,-0.029587919427794998,0.0,0.0,0.0,0.0,0.0,0.0,0.0
0.05937910079956055,10.196681052928476,0.3828439542035999,0.041901005436005695,-0.13006128428312383,0.0,0.0,0.3,0.008181677893750156,0.013749049529443272,0.06848080903120511,0.036075917394052484,-0.02208765864202378,0.0,0.0,0.0,0.0,0.0,0.0,0.0
0.06464529037475586,10.097356727464383,0.2672297716817952,0.1505111783695286,-0.1479907377563666,0.0,0.0,0.3,0.009325433925920081,0.01567109182514214,0.06547289260321608,0.024317327305210548,-0.014943439021987423,0.0,0.0,0.0,0.0,0.0,0.0,0.0
0.0699300765991211,9.978198923971034,0.1310162604057892,0.24359064197521157,-0.15216014302703396,0.0,0.0,0.3,0.009596478520347637,0.016126220221415546,0.06476038248070656,0.010644416850379285,-0.006539489212770918,0.0,0.0,0.0,0.0,0.0,0.0,0.0
0.07554197311401367,9.877892422965253,0.015004995597537969,0.3393637830656667,-0.16343303650169325,0.0,0.0,0.3,0.010319069004119427,0.01733963470469088,0.06286074493256612,-0.0010332431832308475,0.0006528923962107453,0.0,0.0,0.0,0.0,0.0,0.0,0.0
0.08097982406616211,9.770316835659202,-0.11204727872626111,0.48135820462179485,-0.1928941378263309,0.0,0.0,0.3,0.012208263521564271,0.020513542472208553,0.057893221628644784,-0.013916203499013208,0.008665819804519175,0.0,0.0,0.0,0.0,0.0,0.0,0.0
0.08625435829162598,9.673340563322688,-0.22184204152059206,0.5438249368200365,-0.18990953563498333,0.0,0.0,0.3,0.012019342640031285,0.020196841541596428,0.05839039778355607,-0.024871329115056358,0.015463087376135033,0.0,0.0,0.0,0.0,0.0,0.0,0.0
0.09187769889831543,9.606167186219551,-0.297598103642314,0.5825557934226187,-0.185786839651935,0.0,0.0,0.3,0.011754420245677437,0.01975345646110621,0.05908664396560134,-0.03242002635779858,0.020130633004944533,0.0,0.0,0.0,0.0,0.0,0.0,0.0
0.09723639488220215,9.506090899703604,-0.41551709738422166,0.7209384578411978,-0.21514308564558313,0.0,0.0,0.3,0.01364919519126347,0.022941139359760578,0.05410076674289719,-0.04438121954826863,0.027735420507165955,0.0,0.0,0.0,0.0,0.0,0.0,0.0
0.10256528854370117,9.482978241586578,-0.44019036393860617,0.7060991022256677,-0.20106318407398702,0.0,0.0,0.3,0.0127388104900744,0.02141509937415858,0.05648982198174841,-0.046729153597300836,0.02910149048475656,0.0,0.0,0.0,0.0,0.0,0.0,0.0
0.10828208923339844,9.453939335468739,-0.47401760468375104,0.7306707027132993,-0.20241655206204512,0.0,0.0,0.3,0.012822324711655442,0.021559155295595833,0.0562639789165948,-0.050054723369183034,0.031173186817751164,0.0,0.0,0.0,0.0,0.0,0.0,0.0
0.11371755599975586,9.372155260861023,-0.5719581416348855,0.8611966534768881,-0.23347330500961241,0.0,0.0,0.3,0.014829532490805238,0.024936783722539976,0.05097755165564584,-0.059930272870782765,0.037577464740507195,0.0,0.0,0.0,0.0,0.0,0.0,0.0
0.11906003952026367,9.395660092108947,-0.5436079268174915,0.8015733107442913,-0.21458736160716588,0.0,0.0,0.3,0.013593348255689919,0.022859019105095538,0.05422756251467623,-0.05690139160832154,0.03551433777227427,0.0,0.0,0.0,0.0,0.0,0.0,0.0
0.12523365020751953,9.411008856104543,-0.5263260330655043,0.7785494564867285,-0.20909830421800532,0.0,0.0,0.3,0.013222901052611306,0.022236058448561625,0.05520083520858564,-0.05504655879135286,0.034304770388333405,0.0,0.0,0.0,0.0,0.0,0.0,0.0
0.13062357902526855,9.276624739036404,-0.6886986040419448,1.0241126973897783,-0.27340071803929783,0.0,0.0,0.3,0.017387453662135496,0.029238526826060283,0.04424132343505872,-0.07146268145758174,0.04518549387628104,0.0,0.0,0.0,0.0,0.0,0.0,0.0
0.13600540161132812,9.406826669327852,-0.5326182644289886,0.7907027688698927,-0.21265072461496898,0.0,0.0,0.3,0.013424737369097491,0.022573026032666713,0.054674332323328106,-0.05557293043999553,0.034649488200029846,0.0,0.0,0.0,0.0,0.0,0.0,0.0
0.14177966117858887,9.442331643252826,-0.49212469352154325,0.7626178798614347,-0.21102142147864247,0.0,0.0,0.3,0.013321825628486167,0.02239761989875056,0.05495171158359181,-0.05150963796115884,0.03210125046875544,0.0,0.0,0.0,0.0,0.0,0.0,0.0
0.1471080780029297,9.440895460353026,-0.4973143791333236,0.8287666445361512,-0.23876261118922998,0.0,0.0,0.3,0.015134633829450307,0.025444992019087287,0.0501886330697811,-0.05221484670906128,0.032745659448412054,0.0,0.0,0.0,0.0,0.0,0.0,0.0
0.1524033546447754,9.54137267905547,-0.3778031103104612,0.680045250798778,-0.20465614962869277,0.0,0.0,0.3,0.012925618761835414,0.021734389410627906,0.056001254954319804,-0.0401499330957622,0.024982431130410945,0.0,0.0,0.0,0.0,0.0,0.0,0.0
0.15820002555847168,9.600546336928968,-0.30893487915657364,0.6310943740247569,-0.20106426072553144,0.0,0.0,0.3,0.012702480313670848,0.02136598353019292,0.0565860969686902,-0.0333688928128652,0.020740485323336343,0.0,0.0,0.0,0.0,0.0,0.0,0.0
0.16360259056091309,9.615427643190333,-0.29512112164237847,0.7020080183840455,-0.2361073940200509,0.0,0.0,0.3,0.01499192975603613,0.025226967005125934,0.0505578520920204,-0.03242868973974299,0.02030418551593524,0.0,0.0,0.0,0.0,0.0,0.0,0.0
0.1689598560333252,9.6819544273453,-0.21476394926284875,0.5877246828701421,-0.20688546015790232,0.0,0.0,0.3,0.013053084731772765,0.021973393112814404,0.05564967710058102,-0.024271733323693655,0.015077909361793262,0.0,0.0,0.0,0.0,0.0,0.0,0.0
0.1747875213623047,9.72731635204844,-0.16183723476821596,0.5469895201531874,-0.20392764003104946,0.0,0.0,0.3,0.012777816262286155,0.02151908572093586,0.05636067973760519,-0.01904398148884679,0.011797099838579149,0.0,0.0,0.0,0.0,0.0,0.0,0.0
0.18016958236694336,9.750900710116944,-0.13805674925900843,0.6057098156801022,-0.23913810030888008,0.0,0.0,0.3,0.014901034161751087,0.02510617047610169,0.050751097106559555,-0.017097019070378194,0.010636506669395682,0.0,0.0,0.0,0.0,0.0,0.0,0.0
0.18558073043823242,9.789968554587574,-0.0892373244885146,0.5039975031131072,-0.20853481001642932,0.0,0.0,0.3,0.012753367058663766,0.021497011292380595,0.05638794336705595,-0.011936720750721648,0.0073356813545346665,0.0,0.0,0.0,0.0,0.0,0.0,0.0
0.19124555587768555,9.821703326954733,-0.052936855074595196,0.4849571140757263,-0.21324672232422143,0.0,0.0,0.3,0.012819512036925513,0.021615571036372804,0.056192760855823455,-0.008351114087986443,0.005084026422951049,0.0,0.0,0.0,0.0,0.0,0.0,0.0
0.19672131538391113,9.85219391639879,-0.02024873658668944,0.5029490464601539,-0.23551080265140695,0.0,0.0,0.3,0.013920912367956641,0.023477414540349996,0.05326606805861171,-0.005258933049398531,0.0031391509118902667,0.0,0.0,0.0,0.0,0.0,0.0,0.0
0.20204567909240723,9.869579406982647,0.0011920169186707364,0.4596441632471006,-0.22504639910240642,0.0,0.0,0.3,0.01300632380998161,0.021937465716833714,0.05565990210310829,-0.002939476784777971,0.0016735887712637293,0.0,0.0,0.0,0.0,0.0,0.0,0.0
0.20806360244750977,9.888158806182956,0.02394705515460139,0.4225494246526301,-0.21777420254456528,0.0,0.0,0.3,0.012296165548906012,0.020742430387354016,0.057515655216877286,-0.0005475526996182864,0.00017604006506633077,0.0,0.0,0.0,0.0,0.0,0.0,0.0
0.21340656280517578,9.910747694902042,0.0441500525550697,0.5175408169894723,-0.2775288657402204,0.0,0.0,0.3,0.015438962600717488,0.02605245469460545,0.04918011586247412,0.000960508118352207,-0.000827894903750489,0.0,0.0,0.0,0.0,0.0,0.0,0.0
0.2186884880065918,9.897190894531432,0.035516144320510624,0.4182900739414901,-0.22676729872586213,0.0,0.0,0.3,0.012282598593884681,0.02073822085051635,0.05748955641514856,0.0005670101946491717,-0.0005413131236757265,0.0,0.0,0.0,0.0,0.0,0.0,0.0
0.22454142570495605,9.911948391234693,0.053753685571066835,0.3986208266795756,-0.2250052831715211,0.0,0.0,0.3,0.011972548763251626,0.02023117158305238,0.05826706784683213,0.002390962655904937,-0.0016876413149625779,0.0,0.0,0.0,0.0,0.0,0.0,0.0
0.22994637489318848,9.945312171108604,0.08882583342385725,0.4652598768371268,-0.27423196506286485,0.0,0.0,0.3,0.014492796828991298,0.024513472926041283,0.05152856191396709,0.005356478610881208,-0.00364229353807489,0.0,0.0,0.0,0.0,0.0,0.0,0.0
0.23533415794372559,9.93187413358638,0.07945777231466954,0.4040119416713395,-0.2380239433632867,0.0,0.0,0.3,0.012435903687066856,0.021053790146009256,0.05693754673110311,0.0045888917423699835,-0.00312747606034806,0.0,0.0,0.0,0.0,0.0,0.0,0.0
0.24090003967285156,9.937610519056966,0.08934150405518272,0.39757626345009395,-0.236089697843991,0.0,0.0,0.3,0.012334748018870122,0.02089753227543989,0.0571585313603926,0.005323334045630262,-0.0036138557170023056,0.0,0.0,0.0,0.0,0.0,0.0,0.0
0.2464141845703125,9.953224613691843,0.1107318930736734,0.4146576130834064,-0.24845708611713213,0.0,0.0,0.3,0.013105964259275644,0.022216194968224818,0.055055896128002484,0.006890828120695321,-0.004654167934004524,0.0,0.0,0.0,0.0,0.0,0.0,0.0
0.2517209053039551,9.949670185224658,0.11280830966880352,0.40954606567066654,-0.24057121189984465,0.0,0.0,0.3,0.01287211810519508,0.02183046192661393,0.055628195265690364,0.006631148090950871,-0.004506352257625615,0.0,0.0,0.0,0.0,0.0,0.0,0.0
0.2574319839477539,9.941748709332273,0.11095933962461782,0.38354001772016566,-0.21948724832874228,0.0,0.0,0.3,0.011974629285241963,0.020317728004009224,0.05797149768558166,0.0060916260679500945,-0.004145239815010019,0.0,0.0,0.0,0.0,0.0,0.0,0.0
0.26285314559936523,9.951929645860417,0.13208097454747283,0.43850404714317476,-0.24341714037831677,0.0,0.0,0.3,0.013764899472790235,0.02336415571801103,0.05311541613534341,0.0067597427861199495,-0.004654348930946995,0.0,0.0,0.0,0.0,0.0,0.0,0.0
0.2681586742401123,9.931158303356545,0.11726586897067816,0.4057732894629954,-0.21308837233007943,0.0,0.0,0.3,0.012481390699322949,0.02118953961405259,0.05648757753839644,0.004908205048784513,-0.0034449997981218484,0.0,0.0,0.0,0.0,0.0,0.0,0.0
0.27352285385131836,9.923374246711168,0.11814267485112558,0.3906951632347878,-0.19514018695332547,0.0,0.0,0.3,0.011992157923493953,0.02035721508975289,0.05772929684510047,0.004281958818501839,-0.0030265995860263334,0.0,0.0,0.0,0.0,0.0,0.0,0.0
0.2789320945739746,9.928677529688404,0.13670443063135573,0.39158101117812494,-0.18756710528866263,0.0,0.0,0.3,0.012269588825784356,0.02081893252785298,0.05690197776545127,0.004933910838019738,-0.0034142471096494033,0.0,0.0,0.0,0.0,0.0,0.0,0.0
0.2842586040496826,9.928379773975452,0.14981359358956756,0.3926760594924333,-0.17742004388285215,0.0,0.0,0.3,0.012502421718293504,0.021195645416674846,0.05618702843050152,0.00501132429832264,-0.0034275199873144884,0.0,0.0,0.0,0.0,0.0,0.0,0.0
0.2896573543548584,9.92002495646148,0.15176867123959903,0.3790001067609258,-0.15895791292748052,0.0,0.0,0.3,0.012186198596425226,0.02063299188826692,0.05695481826836153,0.004364490771385911,-0.0029577615820300545,0.0,0.0,0.0,0.0,0.0,0.0,0.0
0.29506874084472656,9.914026094603969,0.1615671248513365,0.3841557815100165,-0.14770203351647593,0.0,0.0,0.3,0.012550052419659095,0.02121302320269102,0.055874774849969985,0.0038572536559100747,-0.0025746901896091683,0.0,0.0,0.0,0.0,0.0,0.0,0.0
0.30031633377075195,9.90272467985826,0.16577489087516545,0.3829215819232203,-0.1323435298928352,0.0,0.0,0.3,0.012655747671279253,0.021348653424577632,0.05548670051974282,0.0028661865199473753,-0.001867186213532837,0.0,0.0,0.0,0.0,0.0,0.0,0.0
0.3056964874267578,9.889672753715184,0.16254261175313478,0.3583517083401978,-0.1099217613972167,0.0,0.0,0.3,0.011989672224239233,0.020176824556583373,0.057201487029661185,0.0018517028924318524,-0.001124857151687266,0.0,0.0,0.0,0.0,0.0,0.0,0.0
0.31124258041381836,9.883911265012346,0.1820241638200333,0.3658629181810159,-0.09757343329011389,0.0,0.0,0.3,0.012626158345852664,0.021184590568136565,0.055349043244985074,0.001469488436735667,-0.0007507276681465773,0.0,0.0,0.0,0.0,0.0,0.0,0.0
0.31653332710266113,9.869369705279128,0.19748916026226807,0.38034664021024184,-0.08394063163100374,0.0,0.0,0.3,0.013429594544581666,0.022449329977165186,0.05302408812609069,0.00019302319857091827,0.00020984242277989338,0.0,0.0,0.0,0.0,0.0,0.0,0.0
0.32194089889526367,9.849156714857665,0.18233302535645793,0.34574651915724125,-0.060960198646093915,0.0,0.0,0.3,0.012331381908743127,0.02051993916014483,0.05593847854764351,-0.0014774959471051377,0.0013790292607341569,0.0,0.0,0.0,0.0,0.0,0.0,0.0
0.3273911476135254,9.836937924576096,0.2016889212161874,0.34746314106499254,-0.04537728098105166,0.0,0.0,0.3,0.012899308913451122,0.02134977299626478,0.05425254071541288,-0.002352158042610173,0.0021529045769530957,0.0,0.0,0.0,0.0,0.0,0.0,0.0
0.33271098136901855,9.82469890432494,0.21791724687282168,0.33782332758240297,-0.028119236467930932,0.0,0.0,0.3,0.013141949214776955,0.021615433760646494,0.053463427708594254,-0.0031204753775161405,0.002895151092710565,0.0,0.0,0.0,0.0,0.0,0.0,0.0
0.33802294731140137,9.813815004535238,0.21920605485277767,0.3082173244942073,-0.010810262822952195,0.0,0.0,0.3,0.012603550184059193,0.020577822256502225,0.054862307266211524,-0.0037129105262547033,0.003499552198774254,0.0,0.0,0.0,0.0,0.0,0.0,0.0
0.34346961975097656,9.808519256413069,0.23658746734086797,0.2856487763124919,0.005305909015875585,0.0,0.0,0.3,0.012625533569758332,0.020443235944373354,0.05471036113929621,-0.003652018793149105,0.00379038992546559,0.0,0.0,0.0,0.0,0.0,0.0,0.0
0.3488271236419678,9.800780018986904,0.2682831641189982,0.2736924647477571,0.02259798525432056,0.0,0.0,0.3,0.013301738181816663,0.0213462150181055,0.0527199700284633,-0.003692426546817424,0.004287708713568054,0.0,0.0,0.0,0.0,0.0,0.0,0.0
0.35415220260620117,9.792825347927822,0.2765781407119033,0.24439732936971678,0.036700133357440906,0.0,0.0,0.3,0.012951309013249179,0.020589894806071818,0.05359233502795987,-0.00384824528773784,0.004743584713378164,0.0,0.0,0.0,0.0,0.0,0.0,0.0
0.3595449924468994,9.786959545322992,0.2931859047637931,0.21756763254163955,0.050764136099438494,0.0,0.0,0.3,0.012859728007679849,0.020242190213829846,0.053728770083946026,-0.003724865725527811,0.00508393626707639,0.0,0.0,0.0,0.0,0.0,0.0,0.0
0.3648529052734375,9.781197276972811,0.32296279499208497,0.19387618622483485,0.06710367007826684,0.0,0.0,0.3,0.013232959718783036,0.020602547616212677,0.052546265329225274,-0.0034105926075408003,0.005440258945232601,0.0,0.0,0.0,0.0,0.0,0.0,0.0
0.37018251419067383,9.77880725198601,0.33508799415752516,0.16138668894243913,0.07861291526407567,0.0,0.0,0.3,0.012906019905592297,0.019852997845776817,0.05333962237618475,-0.002922265852791278,0.005539462786320658,0.0,0.0,0.0,0.0,0.0,0.0,0.0
0.37587761878967285,9.775617875469216,0.36120402048860695,0.13291767778138905,0.09258138426888698,0.0,0.0,0.3,0.013074453232127187,0.019855244693002132,0.05272107765242505,-0.002301675534918161,0.005712528585930895,0.0,0.0,0.0,0.0,0.0,0.0,0.0
0.38123154640197754,9.752413030419119,0.42502117361641245,0.11804111499145438,0.12086880263321291,0.0,0.0,0.3,0.014887223679610873,0.02230600051875803,0.04738539533924304,-0.002761762330129446,0.00720962709868251,0.0,0.0,0.0,0.0,0.0,0.0,0.0
0.3865387439727783,9.744510385569377,0.3848129927010284,0.08888802999853357,0.11842734699057487,0.0,0.0,0.3,0.013290866039368946,0.01963504831711317,0.051794302605713244,-0.0033224848970171755,0.007560541457712973,0.0,0.0,0.0,0.0,0.0,0.0,0.0
0.3922710418701172,9.741754726389201,0.3974944104432004,0.05921851113060391,0.12671188497180652,0.0,0.0,0.3,0.013108858983756525,0.019080484979979023,0.05214249337745557,-0.002738105188236372,0.00766397177462931,0.0,0.0,0.0,0.0,0.0,0.0,0.0
0.3976020812988281,9.720960914966764,0.48346263884097807,0.028380838579529773,0.15799502031181145,0.0,0.0,0.3,0.015195089024577528,0.02178057990935458,0.045882174516876886,-0.002272038474111289,0.008956787305039671,0.0,0.0,0.0,0.0,0.0,0.0,0.0
0.4028897285461426,9.726937137151046,0.43782924152665054,0.006018447053993407,0.14446602591823954,0.0,0.0,0.3,0.013261097186924108,0.018708973685970125,0.05125823027209867,-0.0019264222414141002,0.008393981392445864,0.0,0.0,0.0,0.0,0.0,0.0,0.0
0.4084298610687256,9.732976100080831,0.4601594529965603,-0.025654788808124086,0.14811433070512253,0.0,0.0,0.3,0.013068511680011203,0.01813012223066035,0.05155912841740784,-0.00047318783804914204,0.007892276342953058,0.0,0.0,0.0,0.0,0.0,0.0,0.0
0.41379261016845703,9.732656800781024,0.5406533489818739,-0.07052176863546315,0.1670543207762628,0.0,0.0,0.3,0.014291175449826863,0.019480660168116438,0.047643800946235854,0.001693905398756214,0.007779038579271718,0.0,0.0,0.0,0.0,0.0,0.0,0.0
0.41905975341796875,9.740332054810384,0.5391559371544694,-0.0940696524893261,0.16042018136479017,0.0,0.0,0.3,0.013450604405365944,0.018004388690643316,0.04979508604227649,0.0028752033002953756,0.007075196451810536,0.0,0.0,0.0,0.0,0.0,0.0,0.0
0.4249293804168701,9.749514363399696,0.5553594239833124,-0.12131952932580052,0.15697888611682137,0.0,0.0,0.3,0.01301389515725496,0.017091273110490107,0.0507403914441083,0.004453994599455227,0.006273845568264235,0.0,0.0,0.0,0.0,0.0,0.0,0.0
0.43030214309692383,9.722840286006116,0.7115141321696966,-0.19085481200999369,0.19289702097616257,0.0,0.0,0.3,0.01597443649814313,0.020563190776927684,0.04133923934063235,0.006820571938981818,0.007517843943758607,0.0,0.0,0.0,0.0,0.0,0.0,0.0
0.4355490207672119,9.725579785586657,0.6206644524954682,-0.17345911465368974,0.16469448925073543,0.0,0.0,0.3,0.013504467771390095,0.01702234182783332,0.04843603201079863,0.005739390851552554,0.007025520052781557,0.0,0.0,0.0,0.0,0.0,0.0,0.0
0.4415309429168701,9.733931054119184,0.6234210107012947,-0.19199591282992473,0.15693613891859318,0.0,0.0,0.3,0.01289347758360412,0.01589508316335829,0.049878665129220956,0.006928471023914539,0.006214830099076989,0.0,0.0,0.0,0.0,0.0,0.0,0.0
0.4469287395477295,9.704586024643483,0.8303528596564704,-0.292534430826553,0.19574233205886557,0.0,0.0,0.3,0.016483510222930858,0.01984788117657422,0.03811561411388622,0.010906971746898787,0.007239270844010871,0.0,0.0,0.0,0.0,0.0,0.0,0.0
0.45217394828796387,9.714867758401548,0.7020113192029679,-0.25071642607549605,0.1618664045609161,0.0,0.0,0.3,0.013534445057313113,0.01589467749901463,0.046884060469119554,0.009226712488841032,0.006409162139297618,0.0,0.0,0.0,0.0,0.0,0.0,0.0
0.4578406810760498,9.72964468021426,0.692443764302916,-0.2633842250360492,0.15139573004428147,0.0,0.0,0.3,0.012773395060484777,0.014605525406787483,0.048793293353995,0.01050142218228609,0.005236766291420657,0.0,0.0,0.0,0.0,0.0,0.0,0.0
0.4632868766784668,9.732751965846218,0.8378962320146709,-0.3503518936958829,0.16892335132874825,0.0,0.0,0.3,0.014738842991508084,0.016387101372215673,0.04181662884960608,0.015258009962122475,0.004309296880161025,0.0,0.0,0.0,0.0,0.0,0.0,0.0
0.4685995578765869,9.743622949218597,0.8037899001112963,-0.34704419082312704,0.1543218563705994,0.0,0.0,0.3,0.013626901253772654,0.01471695474927984,0.044817717170680005,0.015795202030225858,0.0033489142472081118,0.0,0.0,0.0,0.0,0.0,0.0,0.0
0.4741818904876709,9.754113100826338,0.7911075539415345,-0.35392601463799417,0.14435629867716568,0.0,0.0,0.3,0.012956697413019804,0.01356544393564547,0.0464033562995929,0.01678486291689932,0.002394079122832593,0.0,0.0,0.0,0.0,0.0,0.0,0.0
0.4795541763305664,9.754167996190976,0.8910351511118074,-0.4211342437049423,0.15251664331989703,0.0,0.0,0.3,0.014185862151193926,0.01436541593440106,0.041544423869688554,0.020576461181551663,0.0015595718869480764,0.0,0.0,0.0,0.0,0.0,0.0,0.0
0.4848332405090332,9.760496825946149,0.8459908110277906,-0.4109099563086013,0.14024723730860744,0.0,0.0,0.3,0.013154097218325413,0.012860279661061886,0.04436367279817086,0.020527814861770913,0.0009244254390643586,0.0,0.0,0.0,0.0,0.0,0.0,0.0
0.4902670383453369,9.768251093933268,0.8358469326737349,-0.41906891216554676,0.13284633296479093,0.0,0.0,0.3,0.012685083041924759,0.01195310200918269,0.04525363037444757,0.02143124643601062,0.00012424420228062945,0.0,0.0,0.0,0.0,0.0,0.0,0.0
0.495635986328125,9.77181536021427,0.9006032690532327,-0.4688082877453999,0.13453417627975767,0.0,0.0,0.3,0.013355004842513922,0.012111260004318907,0.042042761467109696,0.024475017804773902,-0.0008486875535361406,0.0,0.0,0.0,0.0,0.0,0.0,0.0
0.5009167194366455,9.771541590108614,0.893629713649734,-0.4755843407857933,0.12799418731195353,0.0,0.0,0.3,0.013010041524576159,0.011334791448554649,0.04240184116215134,0.02516141933808631,-0.0013092871758267214,0.0,0.0,0.0,0.0,0.0,0.0,0.0
0.5063929557800293,9.770597186827205,0.8774052955697312,-0.47546510570871314,0.12081093681282773,0.0,0.0,0.3,0.012558982293791118,0.010490780412954984,0.04314339446589486,0.025434880314650677,-0.0016750424178640705,0.0,0.0,0.0,0.0,0.0,0.0,0.0
0.5118181705474854,9.758666877528938,0.948603418251379,-0.5242516186019726,0.12252198308074716,0.0,0.0,0.3,0.013386741675914374,0.010699230536221972,0.03899684005884838,0.02823863702428562,-0.0021138693659943594,0.0,0.0,0.0,0.0,0.0,0.0,0.0
0.5170836448669434,9.74286425374028,0.9375229067773484,-0.5199820136142961,0.11629524071478019,0.0,0.0,0.3,0.013071147885602916,0.009966181868922258,0.03909606642626095,0.02816983242095945,-0.0018975553184555217,0.0,0.0,0.0,0.0,0.0,0.0,0.0
0.5227410793304443,9.734636892888554,0.8898217700630304,-0.4958540539852424,0.10753124166342859,0.0,0.0,0.3,0.012268261035995213,0.00888439549253672,0.041142489279244236,0.027025634979994866,-0.0017480060935012893,0.0,0.0,0.0,0.0,0.0,0.0,0.0
0.5282449722290039,9.699763339999818,1.0122951178563615,-0.5775480498811059,0.11453794665558288,0.0,0.0,0.3,0.013940586431895809,0.009537887237088153,0.03319386410055748,0.03139366062520222,-0.0018567833560224488,0.0,0.0,0.0,0.0,0.0,0.0,0.0
0.533583402633667,9.675251536769355,0.9532276585019097,-0.5445073053592048,0.10726814766519649,0.0,0.0,0.3,0.0131056331081114,0.008422305294202062,0.03532252163794299,0.029649395621615005,-0.0010085796368680508,0.0,0.0,0.0,0.0,0.0,0.0,0.0
0.5389645099639893,9.663196599003497,0.8939516223021409,-0.5122796428045954,0.09960688922475083,0.0,0.0,0.3,0.012227118708830005,0.007330418801994561,0.03772036636384503,0.028044022385265745,-0.0006013582458481839,0.0,0.0,0.0,0.0,0.0,0.0,0.0
0.5443787574768066,9.657531030068844,0.9054620587796284,-0.5270098543386242,0.09665872936372792,0.0,0.0,0.3,0.01225393115211187,0.006792660589178066,0.03621936330945054,0.029147893513433273,-0.0011044908697882343,0.0,0.0,0.0,0.0,0.0,0.0,0.0
0.549677848815918,9.653432667156833,0.9137690732068925,-0.5398973771358418,0.09364698933394754,0.0,0.0,0.3,0.0122277505469616,0.006193333629048867,0.034845627278431074,0.0302719069483052,-0.0016981399389297397,0.0,0.0,0.0,0.0,0.0,0.0,0.0
0.5550894737243652,9.658995742901226,0.8766572995481586,-0.5231809106581851,0.08765266291260136,0.0,0.0,0.3,0.011574127609144426,0.005280852281939366,0.036306133214057346,0.029836203760115386,-0.002196605034463158,0.0,0.0,0.0,0.0,0.0,0.0,0.0
0.5604472160339355,9.65067230920203,0.9098337941565062,-0.5506647608985532,0.08647846826947256,0.0,0.0,0.3,0.01186471344115929,0.004791556144456315,0.033336672281526515,0.0319565001440852,-0.002958412196275666,0.0,0.0,0.0,0.0,0.0,0.0,0.0
0.5657169818878174,9.650354559552687,0.8926512172194642,-0.542392187120748,0.08211075190003658,0.0,0.0,0.3,0.011457408710107041,0.003995068001779614,0.033603396176202206,0.03222869181089101,-0.0034584848597472174,0.0,0.0,0.0,0.0,0.0,0.0,0.0
0.5709915161132812,9.654953387060637,0.8658669360463078,-0.526963493775142,0.07749374969578376,0.0,0.0,0.3,0.01091768971742198,0.00317190290689331,0.03454957273635011,0.03213357856347028,-0.003986373239271908,0.0,0.0,0.0,0.0,0.0,0.0,0.0
0.5764052867889404,9.659792430620527,0.8677437381103411,-0.5317036963861212,0.07472967524414656,0.0,0.0,0.3,0.010748281148123214,0.002462501505460087,0.033616222146788825,0.033231474522945385,-0.0048854550559812296,0.0,0.0,0.0,0.0,0.0,0.0,0.0
0.5817735195159912,9.649158151595175,0.9091498265140524,-0.560750808404351,0.07430918996687982,0.0,0.0,0.3,0.011086690137067479,0.0018177875301265268,0.029858794280913883,0.035996526847091564,-0.005850643253467228,0.0,0.0,0.0,0.0,0.0,0.0,0.0
0.5870418548583984,9.639711402186597,0.8949995369540983,-0.5472576756487942,0.07069931020883383,0.0,0.0,0.3,0.010693473381226457,0.0010178198103049866,0.029927277384421896,0.0363968755046146,-0.00607987432897262,0.0,0.0,0.0,0.0,0.0,0.0,0.0
0.5926029682159424,9.63757761507781,0.8664819008712906,-0.5220995144908723,0.06596799161026409,0.0,0.0,0.3,0.010095802284889238,0.00022937951042800378,0.031178309570887564,0.03606200410772087,-0.006267470278293878,0.0,0.0,0.0,0.0,0.0,0.0,0.0
0.5979328155517578,9.601710112827405,0.9578471233669025,-0.5706449611050352,0.0667512555694863,0.0,0.0,0.3,0.010917469844954977,-0.0005886722372185118,0.02393079059205397,0.041019116274586466,-0.007302039772189776,0.0,0.0,0.0,0.0,0.0,0.0,0.0
0.6032562255859375,9.601011688610333,0.8913230975585206,-0.512101586716159,0.05995438436337699,0.0,0.0,0.3,0.009811091796691512,-0.0013308655106177084,0.02822349461038982,0.03879635778453086,-0.006865868832230731,0.0,0.0,0.0,0.0,0.0,0.0,0.0
0.6088542938232422,9.59318330920065,0.8936745804482373,-0.4985501971267968,0.056169099906626475,0.0,0.0,0.3,0.009509158710687513,-0.002123647435286881,0.02757864036290852,0.039604426139651844,-0.007299408710858211,0.0,0.0,0.0,0.0,0.0,0.0,0.0
0.6142604351043701,9.55819403994829,0.9839587644563946,-0.5347178061383423,0.05567530705673091,0.0,0.0,0.3,0.010134451912905617,-0.0032199924188344013,0.02051239676584687,0.04460061233485454,-0.008541822505787026,0.0,0.0,0.0,0.0,0.0,0.0,0.0
0.6195211410522461,9.555961911129733,0.9302344894964446,-0.4817645241058947,0.05022509446869341,0.0,0.0,0.3,0.009167238698578377,-0.0038539273009103193,0.02421413111687528,0.042764769826968384,-0.008178065313420146,0.0,0.0,0.0,0.0,0.0,0.0,0.0
0.6250503063201904,9.567794901440795,0.8896037196606525,-0.44335852820249577,0.045393854411546225,0.0,0.0,0.3,0.008390810062483132,-0.004471077684334044,0.026839050877370128,0.04140967468857335,-0.008370784606215764,0.0,0.0,0.0,0.0,0.0,0.0,0.0
0.6303355693817139,9.5483397969171,0.9758707753681654,-0.47566558541168447,0.04466974318014347,0.0,0.0,0.3,0.008865586854595993,-0.005818121630506028,0.019834871813497718,0.04633738349457338,-0.010172229338468645,0.0,0.0,0.0,0.0,0.0,0.0,0.0
0.6356520652770996,9.574898392244794,0.9035686815753844,-0.4230594961693807,0.039929572595635156,0.0,0.0,0.3,0.0078101592544851176,-0.006191622124129015,0.024855376824006948,0.04340747910517585,-0.010126045078705709,0.0,0.0,0.0,0.0,0.0,0.0,0.0
0.6414930820465088,9.58279211050314,0.9128742294280353,-0.4170251054778875,0.038200369387267896,0.0,0.0,0.3,0.007562194383493667,-0.007141742704020905,0.02337462787967292,0.04463919072151957,-0.011211633879675935,0.0,0.0,0.0,0.0,0.0,0.0,0.0
0.6469409465789795,9.523164853083237,1.0813804639572644,-0.48232953892505687,0.04049843047387398,0.0,0.0,0.3,0.008622109459130195,-0.009590014482866904,0.009578902608432194,0.05466061266155808,-0.014090351850519992,0.0,0.0,0.0,0.0,0.0,0.0,0.0
0.652334451675415,9.530454910915616,0.9580699533072671,-0.4010713889220972,0.03695642754133849,0.0,0.0,0.3,0.007184556107083111,-0.009333003020418762,0.018866904916259336,0.04953981619954668,-0.01242283367100278,0.0,0.0,0.0,0.0,0.0,0.0,0.0
0.6582179069519043,9.530908395096304,0.9342148323012541,-0.37799395839239364,0.03630418258451484,0.0,0.0,0.3,0.006674831169420056,-0.010069519046103623,0.01965394707408884,0.04957284177123321,-0.012693393183695566,0.0,0.0,0.0,0.0,0.0,0.0,0.0
0.6635828018188477,9.473969384344684,1.0786445035286547,-0.4298526756305111,0.040737027014708396,0.0,0.0,0.3,0.007419740905090482,-0.012939376960033043,0.00651956026215218,0.059523600630595884,-0.01564728069958781,0.0,0.0,0.0,0.0,0.0,0.0,0.0
0.6689722537994385,9.522754105098267,0.9067169362995048,-0.34342426716992747,0.036712466848239235,0.0,0.0,0.3,0.005852309562424257,-0.011768316907912156,0.019425828043515465,0.051193927309711076,-0.013536405075395873,0.0,0.0,0.0,0.0,0.0,0.0,0.0
0.674705982208252,9.543366376094802,0.8939628664963446,-0.3337296548772643,0.036994850304081374,0.0,0.0,0.3,0.005514433218840599,-0.01278400644939914,0.01835623189334351,0.05183006262221293,-0.01452709146431267,0.0,0.0,0.0,0.0,0.0,0.0,0.0
0.6803054809570312,9.537696265763827,0.9730022143851608,-0.36207512527832375,0.04039177641918935,0.0,0.0,0.3,0.005761165764707244,-0.015408064573800204,0.008904491860104207,0.05841804560027438,-0.01741297309583698,0.0,0.0,0.0,0.0,0.0,0.0,0.0
0.6856927871704102,9.549590183654871,0.9179477739633606,-0.32780665913967055,0.0390524756611535,0.0,0.0,0.3,0.005085588827907208,-0.01571784188575201,0.011948013982699868,0.05700810118025068,-0.017214439148907537,0.0,0.0,0.0,0.0,0.0,0.0,0.0
0.6913623809814453,9.58029215717928,0.836155815937425,-0.2889249198751414,0.037088257208825734,0.0,0.0,0.3,0.004334329268731793,-0.015522257986701914,0.016984261306447583,0.053579071636931014,-0.016610090792452705,0.0,0.0,0.0,0.0,0.0,0.0,0.0
0.6968643665313721,9.57919158976018,0.8812003017565927,-0.3049989920742031,0.04172972254436183,0.0,0.0,0.3,0.004352286435933089,-0.01809887278142156,0.009052988533162443,0.059073614707987415,-0.019093924351345666,0.0,0.0,0.0,0.0,0.0,0.0,0.0
0.7022659778594971,9.607213112754541,0.8053739016071297,-0.2760095329293988,0.04178689683069293,0.0,0.0,0.3,0.003729113112197416,-0.01804720654752055,0.012989658331937009,0.05628156372657652,-0.01864714269973214,0.0,0.0,0.0,0.0,0.0,0.0,0.0
0.7080998420715332,9.63515585514324,0.7442213050062242,-0.25602184445660325,0.04263283762519396,0.0,0.0,0.3,0.0032408465708731785,-0.018348849652476677,0.015080611763378026,0.05440514016125751,-0.01857023458490166,0.0,0.0,0.0,0.0,0.0,0.0,0.0
0.7134368419647217,9.616126993680703,0.8116368424312065,-0.2823626455252101,0.051121806969808996,0.0,0.0,0.3,0.0033319413808655537,-0.022279494716474266,0.0027171191609003274,0.06324918063118078,-0.02195130161054768,0.0,0.0,0.0,0.0,0.0,0.0,0.0
0.7187540531158447,9.652444433461348,0.6686874006495892,-0.22449537190166752,0.04428481404302266,0.0,0.0,0.3,0.002463392633470859,-0.019726087275424783,0.015666392460538022,0.05416802220269835,-0.018849874387197544,0.0,0.0,0.0,0.0,0.0,0.0,0.0
0.7247588634490967,9.685559832723982,0.6202839081355056,-0.21048735866259133,0.04486150146556218,0.0,0.0,0.3,0.0021004436463603828,-0.020494873200085053,0.01555800856174859,0.05290397345828178,-0.019126759864319078,0.0,0.0,0.0,0.0,0.0,0.0,0.0
0.7301926612854004,9.664826615018763,0.7128601618423608,-0.24905076751847513,0.058780709978751976,0.0,0.0,0.3,0.002222599647744173,-0.026923060787310764,-0.004459278489975449,0.06629268120912132,-0.024375904784436672,0.0,0.0,0.0,0.0,0.0,0.0,0.0
0.735567569732666,9.673905143210726,0.5776898502908598,-0.1920603466532164,0.05031383227701129,0.0,0.0,0.3,0.0015055291396743266,-0.023215426372395584,0.011164344575031737,0.056551020369075916,-0.020226449246977835,0.0,0.0,0.0,0.0,0.0,0.0,0.0
0.7412867546081543,9.690468829052513,0.5228955668884748,-0.1746913156034905,0.051338783010693105,0.0,0.0,0.3,0.001151916881754962,-0.02363135898720544,0.012184091506341421,0.055009804650075426,-0.0198560930021844,0.0,0.0,0.0,0.0,0.0,0.0,0.0
0.7467567920684814,9.7019441077503,0.5219004447379284,-0.1805626372738989,0.06030230197108519,0.0,0.0,0.3,0.0009337981720065599,-0.027576156503177636,0.0017659820327998676,0.06052487399308556,-0.02238314862788402,0.0,0.0,0.0,0.0,0.0,0.0,0.0
0.7520039081573486,9.71479330333488,0.44922440784611395,-0.14985515008635503,0.05627707227650229,0.0,0.0,0.3,0.000526285448148493,-0.026258757808765885,0.008196621843247797,0.05583086192053918,-0.02054479160824974,0.0,0.0,0.0,0.0,0.0,0.0,0.0
0.757831335067749,9.743987735111133,0.37698637235668264,-0.1229048032008844,0.052073184030894115,0.0,0.0,0.3,0.00017880214964010262,-0.025117584612191414,0.013691277217422715,0.05061520746183048,-0.01894497457581677,0.0,0.0,0.0,0.0,0.0,0.0,0.0
0.7632150650024414,9.742474116429376,0.3913561790041678,-0.12971105673788857,0.06466112677191624,0.0,0.0,0.3,-0.00015198967719621913,-0.03165603897244966,-0.003937677107310916,0.06048290374682939,-0.02295685317969194,0.0,0.0,0.0,0.0,0.0,0.0,0.0
0.7684919834136963,9.745526431098014,0.31856100532443576,-0.09670192861972635,0.05537967623071879,0.0,0.0,0.3,-0.00043923400723890364,-0.028129163923350606,0.008343379051507366,0.05274713310092331,-0.019679193230831487,0.0,0.0,0.0,0.0,0.0,0.0,0.0
0.7744109630584717,9.761579594174467,0.2657089812978867,-0.07830456902983615,0.05346733619902511,0.0,0.0,0.3,-0.0007155556242784865,-0.027922024921824093,0.010609139751335145,0.049822944548632175,-0.018773119405115495,0.0,0.0,0.0,0.0,0.0,0.0,0.0
0.7798714637756348,9.748608723487896,0.2625569032490692,-0.07662317695880233,0.06679629589291555,0.0,0.0,0.3,-0.0012499078302738522,-0.035714727134467425,-0.009588395033998859,0.06102910483190442,-0.023035657927395998,0.0,0.0,0.0,0.0,0.0,0.0,0.0
0.7852969169616699,9.727746958709862,0.21976795781720995,-0.049548202557798175,0.05512138303427921,0.0,0.0,0.3,-0.0013789403208707193,-0.03151687342575127,0.0037064368330116445,0.05427338017183839,-0.019666555686776475,0.0,0.0,0.0,0.0,0.0,0.0,0.0
0.7908976078033447,9.719788464582226,0.1845114789696184,-0.03126114627510708,0.052199411900076514,0.0,0.0,0.3,-0.0016610336835652848,-0.031942063559461754,0.004042504995942347,0.05364658369859261,-0.019173952932505806,0.0,0.0,0.0,0.0,0.0,0.0,0.0
0.7963078022003174,9.722749916426293,0.1411109540910282,-0.015448625597395479,0.05338772859366699,0.0,0.0,0.3,-0.002073990493335911,-0.034782939634917534,-0.0020771378527457197,0.05560922615651709,-0.02003786862989238,0.0,0.0,0.0,0.0,0.0,0.0,0.0
0.8017699718475342,9.728678980173171,0.09778682101887887,-0.0008177059143737646,0.048327665271123324,0.0,0.0,0.3,-0.0022233133486832812,-0.03338499158548314,0.0029802451611224577,0.05162816747514246,-0.018523990122777736,0.0,0.0,0.0,0.0,0.0,0.0,0.0
0.807849645614624,9.730154379008242,0.055140785777312705,0.012695897161061164,0.047999281925731475,0.0,0.0,0.3,-0.002542445166721134,-0.0348119080297786,0.0005726517408926712,0.05164520718251338,-0.01854712675425236,0.0,0.0,0.0,0.0,0.0,0.0,0.0
0.8133251667022705,9.663327367515134,0.0308003734859623,0.029760915791581282,0.057659153432556724,0.0,0.0,0.3,-0.0034342968055512957,-0.04353297145797816,-0.020308770728625553,0.06507692344959116,-0.022418037500238783,0.0,0.0,0.0,0.0,0.0,0.0,0.0
0.8186817169189453,9.634017195315407,0.0445355615900098,0.03072383977785066,0.047140885210793515,0.0,0.0,0.3,-0.0030671690599575543,-0.03641853343823554,-0.0011042872351455235,0.05702975525071404,-0.0183805499784606,0.0,0.0,0.0,0.0,0.0,0.0,0.0
0.8244905471801758,9.643630875245124,0.010135288036942034,0.039548061613552773,0.04479193947377129,0.0,0.0,0.3,-0.0031724548229015606,-0.035561138597257916,0.002102616798698964,0.0537438918600397,-0.017204733737353487,0.0,0.0,0.0,0.0,0.0,0.0,0.0
0.8299844264984131,9.639823783842452,-0.06035492796676884,0.05985312437642955,0.05108627863498453,0.0,0.0,0.3,-0.003955775516311983,-0.042178046887641284,-0.013088916705589747,0.059430343263524685,-0.019350602021581925,0.0,0.0,0.0,0.0,0.0,0.0,0.0
0.8352773189544678,9.655284040186672,-0.07562551035545112,0.06109599678915939,0.046165428345701205,0.0,0.0,0.3,-0.003778157704519789,-0.03860557930643052,-0.0033722788999178688,0.05305054655928946,-0.0170473991427561,0.0,0.0,0.0,0.0,0.0,0.0,0.0
0.840822696685791,9.68878337283397,-0.11006038142672,0.06482323910762705,0.04342369856924702,0.0,0.0,0.3,-0.0037146850995518526,-0.03657936693762559,0.002393453643590132,0.04712269394656971,-0.015333264384920333,0.0,0.0,0.0,0.0,0.0,0.0,0.0
0.846113920211792,9.720297564968929,-0.19244567548109484,0.0814237393378269,0.04704932826669777,0.0,0.0,0.3,-0.004264767210953699,-0.04064745933200016,-0.006461912619337845,0.047140513472790455,-0.01593656528255973,0.0,0.0,0.0,0.0,0.0,0.0,0.0
0.8513820171356201,9.75981147971715,-0.2181823282785715,0.08173380419090527,0.043002104289748974,0.0,0.0,0.3,-0.004090271714238931,-0.03786957929265802,0.0008937750412663036,0.040294990106707965,-0.013983501025728092,0.0,0.0,0.0,0.0,0.0,0.0,0.0
0.8568341732025146,9.79523071581697,-0.26763082986646136,0.08882147065740571,0.04157352917162555,0.0,0.0,0.3,-0.004241474051477367,-0.03826619438051575,0.0006744313328162665,0.03663652541934887,-0.013193466001646736,0.0,0.0,0.0,0.0,0.0,0.0,0.0
0.8622488975524902,9.820580837817479,-0.33662020228395356,0.10245906485722522,0.042447905220537256,0.0,0.0,0.3,-0.004724865662268425,-0.04162628183071674,-0.006466454165652513,0.03616214496266554,-0.01341175046566245,0.0,0.0,0.0,0.0,0.0,0.0,0.0
0.8676385879516602,9.814947449369678,-0.34527042314008133,0.10537136422259384,0.040492512067432374,0.0,0.0,0.3,-0.00485764068783635,-0.04185743809351484,-0.006378378026209252,0.03547307421768236,-0.012873273358207654,0.0,0.0,0.0,0.0,0.0,0.0,0.0
0.8730125427246094,9.796013022273282,-0.34065855060683164,0.10727827037887425,0.038359575901794736,0.0,0.0,0.3,-0.0050001421643436515,-0.042228682698986664,-0.006680914121031783,0.035925384480860606,-0.012502659089279815,0.0,0.0,0.0,0.0,0.0,0.0,0.0
0.8783156871795654,9.779171972103292,-0.33530214871018843,0.10889347876737991,0.035987005200014965,0.0,0.0,0.3,-0.0051481352713254845,-0.04270903378064333,-0.007291610894494326,0.03628760838217279,-0.012159543354055856,0.0,0.0,0.0,0.0,0.0,0.0,0.0
0.8836162090301514,9.767955574044649,-0.3220856944027889,0.1077769294659354,0.03313948800631043,0.0,0.0,0.3,-0.005185564672388162,-0.04233508796699426,-0.0060152361281840755,0.035609903213914704,-0.011561279687223121,0.0,0.0,0.0,0.0,0.0,0.0,0.0
0.8890602588653564,9.76023826769923,-0.3205449016825847,0.10851887001078714,0.031184802616894013,0.0,0.0,0.3,-0.0053391828873307,-0.042979060238712744,-0.007093998524714251,0.035354466125254023,-0.011202529738089946,0.0,0.0,0.0,0.0,0.0,0.0,0.0
0.8944847583770752,9.735670522383941,-0.32950350556700136,0.11166081957748351,0.030848715977623804,0.0,0.0,0.3,-0.005771096300237374,-0.04591436944846635,-0.013353090471738183,0.037844854444392506,-0.011516188530682283,0.0,0.0,0.0,0.0,0.0,0.0,0.0
0.8997864723205566,9.694913348628695,-0.2979020612774729,0.10339424089456463,0.029805620666428227,0.0,0.0,0.3,-0.005871230584460249,-0.04626650196809329,-0.013796750703633991,0.03997437928412354,-0.011382085424733845,0.0,0.0,0.0,0.0,0.0,0.0,0.0
0.9052965641021729,9.665923498742973,-0.25633495463260353,0.08998548690383475,0.028164856489579556,0.0,0.0,0.3,-0.005744581933229051,-0.04490453358980841,-0.010430975051786211,0.04023384317816301,-0.010801019686502584,0.0,0.0,0.0,0.0,0.0,0.0,0.0
0.9106833934783936,9.620776432861254,-0.2540797427408795,0.08689476341816915,0.028901224037568868,0.0,0.0,0.3,-0.006304129310276891,-0.04890417389106186,-0.019082538288270133,0.044784761155999074,-0.011418763995218824,0.0,0.0,0.0,0.0,0.0,0.0,0.0
0.9159586429595947,9.592173065852823,-0.20259261684826868,0.07190085063947606,0.02668871190712494,0.0,0.0,0.3,-0.006155946864233538,-0.04738282121668745,-0.015454534796444102,0.04507132965696149,-0.01086476559033933,0.0,0.0,0.0,0.0,0.0,0.0,0.0
0.9213168621063232,9.582350492528926,-0.16472518962722907,0.059197685735320894,0.024039287423168174,0.0,0.0,0.3,-0.006025834643758089,-0.04601304951212035,-0.012223297252617893,0.04404032368248724,-0.010214905636017608,0.0,0.0,0.0,0.0,0.0,0.0,0.0
0.9267876148223877,9.575689409414366,-0.15738835722252317,0.0521279630257032,0.022445982541082446,0.0,0.0,0.3,-0.006318893855899144,-0.04786928403355618,-0.016198953822339095,0.044331594830364994,-0.010081306522170888,0.0,0.0,0.0,0.0,0.0,0.0,0.0
0.9322247505187988,9.551695135047689,-0.13619484714273755,0.04199549650712214,0.021211323936568813,0.0,0.0,0.3,-0.006685062703368831,-0.05025416877124801,-0.021378217035899615,0.0462124305920261,-0.010210013441376713,0.0,0.0,0.0,0.0,0.0,0.0,0.0
0.9375662803649902,9.525287155837134,-0.08700717972229806,0.027857481922040156,0.018560715183539096,0.0,0.0,0.3,-0.006578978295784279,-0.049598103735654445,-0.02038823855624718,0.04696523435543115,-0.009966694120310834,0.0,0.0,0.0,0.0,0.0,0.0,0.0
0.9429280757904053,9.523056152821937,-0.04905063002909047,0.018422361391594363,0.014311059585473702,0.0,0.0,0.3,-0.006104411342876783,-0.04703474606500668,-0.01608486324254813,0.044792317699011736,-0.009167639203624362,0.0,0.0,0.0,0.0,0.0,0.0,0.0
0.9482216835021973,9.536623412778042,-0.0440037225420631,0.015438550991934292,0.010560677766522596,0.0,0.0,0.3,-0.005847897370640849,-0.04627385097450715,-0.016014852714549582,0.041403499275196716,-0.008180393481178695,0.0,0.0,0.0,0.0,0.0,0.0,0.0
0.9535887241363525,9.577120124488212,-0.05415790019963912,0.014136843799516324,0.007326696053040241,0.0,0.0,0.3,-0.005518077143204837,-0.044466642195595665,-0.013101905019748672,0.03487736315846698,-0.006571215296165459,0.0,0.0,0.0,0.0,0.0,0.0,0.0
0.9590816497802734,9.608489242689595,-0.0762466690367117,0.01263278203646853,0.0052237591467624465,0.0,0.0,0.3,-0.005554644163349505,-0.04524957297884512,-0.015819053916686615,0.029524317158087156,-0.0051681899239377,0.0,0.0,0.0,0.0,0.0,0.0,0.0
0.9643847942352295,9.619119391631997,-0.08649827377764088,0.006496136696335506,0.0040224195171833866,0.0,0.0,0.3,-0.005759643808843448,-0.04713150190765274,-0.020833938185856077,0.025898732130944218,-0.003998067946959841,0.0,0.0,0.0,0.0,0.0,0.0,0.0
0.9696505069732666,9.64333898858736,-0.06842231925409502,-0.004362635170845249,0.0032010585059445863,0.0,0.0,0.3,-0.0054023878512209226,-0.04415699177283659,-0.014156311418191446,0.020863964489405386,-0.002694063753067475,0.0,0.0,0.0,0.0,0.0,0.0,0.0
0.9751443862915039,9.674767784149985,-0.06960747404825869,-0.01643770924722232,0.0035877597339788654,0.0,0.0,0.3,-0.005388827925843452,-0.043802126231365486,-0.013427119195450376,0.016279470344520514,-0.0016457996054116306,0.0,0.0,0.0,0.0,0.0,0.0,0.0
0.9807353019714355,9.685267197491534,-0.07525208790555053,-0.035705865530743036,0.005662155245977018,0.0,0.0,0.3,-0.005939390587015189,-0.04786486239739231,-0.022961438693447692,0.014023110300381038,-0.000985049428568708,0.0,0.0,0.0,0.0,0.0,0.0,0.0
0.9864037036895752,9.655636688673363,-0.02979023556993197,-0.06355533157423268,0.008085526177904081,0.0,0.0,0.3,-0.006266863715193609,-0.049954896945509794,-0.027697851018402758,0.015277483221036269,-0.0009291790198926844,0.0,0.0,0.0,0.0,0.0,0.0,0.0
0.991910457611084,9.58698409295726,0.05513430276272396,-0.0986195935000352,0.01014861061755307,0.0,0.0,0.3,-0.0065747142684448945,-0.05174532373939971,-0.03161921222722678,0.0201176392641809,-0.0014886203793205257,0.0,0.0,0.0,0.0,0.0,0.0,0.0
0.9973709583282471,9.546742999656164,0.1388909683807295,-0.12613251921046206,0.010661316497881395,0.0,0.0,0.3,-0.0063674273822965175,-0.04941584712531583,-0.025810009903395957,0.02339029786860647,-0.0020860224028144587,0.0,0.0,0.0,0.0,0.0,0.0,0.0
1.0027382373809814,9.534171437194875,0.19539500080137623,-0.1547437669100153,0.011599816176062885,0.0,0.0,0.3,-0.00641465522265983,-0.04904592500010108,-0.024594265659866704,0.024987664153260085,-0.00255556270128379,0.0,0.0,0.0,0.0,0.0,0.0,0.0
1.0081896781921387,9.559558176353711,0.2243715747514712,-0.17783179282831948,0.012589916775874807,0.0,0.0,0.3,-0.006362719044810861,-0.04790446190458994,-0.021588808025725253,0.02398857188988519,-0.002794392695032991,0.0,0.0,0.0,0.0,0.0,0.0,0.0
1.0138492584228516,9.575637795387346,0.2567068470628698,-0.21206556085445102,0.014794063170578962,0.0,0.0,0.3,-0.006719807382247244,-0.04980927078367848,-0.02569138242669392,0.024046212289606857,-0.0032305566973968975,0.0,0.0,0.0,0.0,0.0,0.0,0.0
1.0192959308624268,9.552108196113632,0.32253757787977383,-0.2621070888797614,0.017990270854675958,0.0,0.0,0.3,-0.007391110366961481,-0.053952452114440615,-0.03498642063727817,0.027584127445805105,-0.004235340282546064,0.0,0.0,0.0,0.0,0.0,0.0,0.0
1.024937629699707,9.549187454767374,0.367487983494657,-0.2777749430344605,0.0183407135850796,0.0,0.0,0.3,-0.007034626014539899,-0.05059269107281273,-0.026935629154939276,0.02902104089078513,-0.004919122559096539,0.0,0.0,0.0,0.0,0.0,0.0,0.0
1.0304348468780518,9.512446367038457,0.44538041289256053,-0.33096677103248656,0.020839369737872853,0.0,0.0,0.3,-0.007681559066298476,-0.05444721511101982,-0.03560699157124015,0.03382887338719325,-0.006207562692091731,0.0,0.0,0.0,0.0,0.0,0.0,0.0
1.0357704162597656,9.517450676296614,0.47588583709048393,-0.34620097671851485,0.0208807078933617,0.0,0.0,0.3,-0.007465140806100306,-0.05216282273195975,-0.030159955350576167,0.03454078406718991,-0.0067778920021545975,0.0,0.0,0.0,0.0,0.0,0.0,0.0
1.0412657260894775,9.550904337086763,0.47601746093025704,-0.3528217294740342,0.020893610354924607,0.0,0.0,0.3,-0.007197576622602415,-0.04959219525655512,-0.024114338871320123,0.03273151541645853,-0.006919117911236749,0.0,0.0,0.0,0.0,0.0,0.0,0.0
1.0466504096984863,9.57399486336712,0.5001036225680674,-0.3965683559124468,0.02327073954704049,0.0,0.0,0.3,-0.007763727696101696,-0.05276513240479862,-0.031329877065648146,0.032626480857716855,-0.007542623672491325,0.0,0.0,0.0,0.0,0.0,0.0,0.0
1.0521016120910645,9.61228237297377,0.48825634555069486,-0.4052907522049276,0.024118456619717912,0.0,0.0,0.3,-0.0076183698408734115,-0.05110333938215143,-0.027470365530827594,0.03020660609388512,-0.0075591532380183315,0.0,0.0,0.0,0.0,0.0,0.0,0.0
1.0577986240386963,9.62785720725349,0.5013844418439491,-0.4392919240926216,0.026318976716645147,0.0,0.0,0.3,-0.00794422751543249,-0.052640865392143965,-0.031000243971898715,0.030067082563962864,-0.008052049742112011,0.0,0.0,0.0,0.0,0.0,0.0,0.0
1.063185214996338,9.60076172137822,0.559032081626147,-0.5060699078928672,0.029775301302010754,0.0,0.0,0.3,-0.00878409557304243,-0.05753557823978475,-0.042281101214086576,0.03392997130538998,-0.009355165969986987,0.0,0.0,0.0,0.0,0.0,0.0,0.0
1.068498134613037,9.601548399909266,0.5378921409929361,-0.48153656863850985,0.028627947911738387,0.0,0.0,0.3,-0.008030717855952772,-0.05198868407891412,-0.02959931250106517,0.03286424047125027,-0.009107235522535775,0.0,0.0,0.0,0.0,0.0,0.0,0.0
1.074176549911499,9.627014510654362,0.5166182139417872,-0.48701649211619386,0.028918312071858705,0.0,0.0,0.3,-0.007955121455652775,-0.05086700611865688,-0.02713436130160645,0.03075483230736168,-0.008970731055905087,0.0,0.0,0.0,0.0,0.0,0.0,0.0
1.0795388221740723,9.622731411669935,0.5584758255661205,-0.5684544169532526,0.03264724709571298,0.0,0.0,0.3,-0.009176067420349087,-0.057923137136346545,-0.043553640465674594,0.03287998565579331,-0.010158145989110788,0.0,0.0,0.0,0.0,0.0,0.0,0.0
1.0850753784179688,9.638269026878236,0.5142177796968346,-0.5275416707283472,0.030987400325960094,0.0,0.0,0.3,-0.008375695431514132,-0.052170787383511996,-0.030472555516758263,0.030038130444882676,-0.009461844413589528,0.0,0.0,0.0,0.0,0.0,0.0,0.0
1.0907797813415527,9.627727839201407,0.5354619342517827,-0.5742006344618339,0.033639174053681505,0.0,0.0,0.3,-0.00905020179182688,-0.05559115560413325,-0.03859257291574102,0.0314075757536764,-0.010215987753403493,0.0,0.0,0.0,0.0,0.0,0.0,0.0
1.0961689949035645,9.599004293728498,0.5666894251334801,-0.6227927603451238,0.03678777139555723,0.0,0.0,0.3,-0.009735158213545987,-0.0589466848879096,-0.04660688124237379,0.03400673239098423,-0.01118674908703789,0.0,0.0,0.0,0.0,0.0,0.0,0.0
1.1014692783355713,9.599809636427759,0.5247795154223192,-0.575449174946597,0.03612941716318741,0.0,0.0,0.3,-0.008881790082477838,-0.053020187229416295,-0.03310093111078354,0.03201986567225249,-0.010520671705265784,0.0,0.0,0.0,0.0,0.0,0.0,0.0
1.1071195602416992,9.637148561468528,0.4717084603106683,-0.5666129508478522,0.03810237407073491,0.0,0.0,0.3,-0.008742786502592864,-0.05147142045087999,-0.02972614342757103,0.028217394066570967,-0.009955258684632342,0.0,0.0,0.0,0.0,0.0,0.0,0.0
1.1125307083129883,9.650798714018979,0.46747130779675233,-0.6472427478226234,0.045650676969907586,0.0,0.0,0.3,-0.010026015459317717,-0.05822188963327633,-0.04568458426179762,0.02798497919286305,-0.01083661705012663,0.0,0.0,0.0,0.0,0.0,0.0,0.0
1.117910623550415,9.666241849571042,0.4144562808809755,-0.6097812408428236,0.04604823643964647,0.0,0.0,0.3,-0.00939113746788768,-0.0537716228682509,-0.035561603848137995,0.025226891344792585,-0.01013024094161857,0.0,0.0,0.0,0.0,0.0,0.0,0.0
1.123713731765747,9.682291165929392,0.3773229825935149,-0.6120521393198052,0.0493748706783916,0.0,0.0,0.3,-0.009449685594135698,-0.05330022700726214,-0.0347199730270253,0.023275320147380336,-0.009957366222035443,0.0,0.0,0.0,0.0,0.0,0.0,0.0
1.1291389465332031,9.656747557245692,0.3977802850071746,-0.7131215768446071,0.06026971509722062,0.0,0.0,0.3,-0.011098657227474586,-0.06159448000648948,-0.05444500029931079,0.02608756085966363,-0.011612651513414157,0.0,0.0,0.0,0.0,0.0,0.0,0.0
1.1344656944274902,9.645730058647025,0.3651102071710915,-0.6392870419840515,0.056317792027712255,0.0,0.0,0.3,-0.0099503004057315,-0.05427884168936174,-0.037580340576057865,0.025029637871132836,-0.010857798854278233,0.0,0.0,0.0,0.0,0.0,0.0,0.0
1.1402790546417236,9.667219561220868,0.32230937707258894,-0.6200010174135386,0.05698926385676773,0.0,0.0,0.3,-0.009790220640921242,-0.05246329620530733,-0.03359798358245704,0.022514353419506587,-0.010469061621660544,0.0,0.0,0.0,0.0,0.0,0.0,0.0
1.145634651184082,9.659204020302171,0.3182578542090491,-0.7293563324886022,0.07034868944379814,0.0,0.0,0.3,-0.011766366710548228,-0.06192150349671861,-0.05621981478749182,0.02395337869056796,-0.012236001482098014,0.0,0.0,0.0,0.0,0.0,0.0,0.0
1.1509966850280762,9.673361318335846,0.27101874203475596,-0.6308669710858944,0.06323618251704889,0.0,0.0,0.3,-0.01027071823036348,-0.053046055234732534,-0.03556372684662918,0.021049289230767806,-0.010946418278327394,0.0,0.0,0.0,0.0,0.0,0.0,0.0
1.1567847728729248,9.703720458086067,0.22660666006499638,-0.626922113692176,0.06577811112870711,0.0,0.0,0.3,-0.010505699105920965,-0.05318238891582844,-0.036209029556150414,0.01826588411102335,-0.010821961894263434,0.0,0.0,0.0,0.0,0.0,0.0,0.0
1.1622252464294434,9.712346337007077,0.20287264939782593,-0.7124892602773043,0.07836584404575661,0.0,0.0,0.3,-0.01240177574205267,-0.061471943583475686,-0.05626730295963034,0.018121658059040518,-0.012438416147121231,0.0,0.0,0.0,0.0,0.0,0.0,0.0
1.167534351348877,9.706875231037762,0.18762809094283706,-0.6316539399959976,0.07054726410371935,0.0,0.0,0.3,-0.011273466167325219,-0.05468079107462809,-0.04045778033812037,0.017263058784595896,-0.011792298762276254,0.0,0.0,0.0,0.0,0.0,0.0,0.0
1.1729705333709717,9.734655893828442,0.15126022548623927,-0.5911089990618551,0.06772026497999785,0.0,0.0,0.3,-0.011008835158076425,-0.052207006943891854,-0.03490371638542923,0.014482786239272852,-0.011368270809259628,0.0,0.0,0.0,0.0,0.0,0.0,0.0
1.1784765720367432,9.78967668821659,0.093037971552286,-0.5972656120654175,0.07128032169947679,0.0,0.0,0.3,-0.011794592743137459,-0.05465674664947689,-0.04114225888518817,0.010178994421938535,-0.011481326641672233,0.0,0.0,0.0,0.0,0.0,0.0,0.0
1.1839408874511719,9.815165124556149,0.05582676980156714,-0.5967243173565582,0.07363886930961112,0.0,0.0,0.3,-0.012382036955323621,-0.05608678144172397,-0.04495862893132428,0.008000062567571402,-0.011925533196432631,0.0,0.0,0.0,0.0,0.0,0.0,0.0
1.1893908977508545,9.810877041840222,0.04255527324543853,-0.5791606266099762,0.0732524950433817,0.0,0.0,0.3,-0.012502953229120007,-0.05537735994022367,-0.043626738005065405,0.007899002994568007,-0.01242381724039803,0.0,0.0,0.0,0.0,0.0,0.0,0.0
1.1947834491729736,9.804553878730143,0.03210595063870803,-0.5662644545036709,0.0733468803849797,0.0,0.0,0.3,-0.01274632435215694,-0.05518867336198723,-0.043551957396673543,0.008039059443788998,-0.013059407135743523,0.0,0.0,0.0,0.0,0.0,0.0,0.0
1.200096845626831,9.8069577326192,0.019178716018901164,-0.5428180671073631,0.07182460600843125,0.0,0.0,0.3,-0.012806210205296589,-0.054186283506504285,-0.04150881247049178,0.007504236015432251,-0.01336308317877712,0.0,0.0,0.0,0.0,0.0,0.0,0.0
1.2054507732391357,9.822594619873712,-0.0007624920205963392,-0.5131928204616777,0.06963156046032981,0.0,0.0,0.3,-0.012773069117310947,-0.05281246410179617,-0.0385506481349418,0.006000967920015508,-0.013331638436632098,0.0,0.0,0.0,0.0,0.0,0.0,0.0
1.210921049118042,9.843136559083263,-0.02895300863030449,-0.5038991551329446,0.07110594160012619,0.0,0.0,0.3,-0.013297827420085258,-0.053745147083336955,-0.041197962059809703,0.004327477035138492,-0.01376180974946473,0.0,0.0,0.0,0.0,0.0,0.0,0.0
1.2163472175598145,9.841016623011361,-0.04528205896330134,-0.5117718986563528,0.07549401805028778,0.0,0.0,0.3,-0.01420673990699837,-0.05617026822479277,-0.0474972039114281,0.004452154481746727,-0.01498283577485845,0.0,0.0,0.0,0.0,0.0,0.0,0.0
1.2218077182769775,9.810917264790286,-0.034419633899581394,-0.4979890985640517,0.07593888033746292,0.0,0.0,0.3,-0.01433764881485532,-0.0554960127727082,-0.0462063780593328,0.006486603733082375,-0.01587402341797327,0.0,0.0,0.0,0.0,0.0,0.0,0.0
1.2273001670837402,9.773498525217782,-0.022201148948074883,-0.4976364454905425,0.0787588817179266,0.0,0.0,0.3,-0.014856719098890837,-0.056315745116663235,-0.04857362021911608,0.00919341662097243,-0.017268302682845814,0.0,0.0,0.0,0.0,0.0,0.0,0.0
1.2327995300292969,9.732267129441452,-0.006604810379921643,-0.4963582659873998,0.08127967028731554,0.0,0.0,0.3,-0.01536944311219644,-0.05706135027404826,-0.05076795546576341,0.012209363333276772,-0.01869978725038461,0.0,0.0,0.0,0.0,0.0,0.0,0.0
1.2383506298065186,9.68624751746693,0.016231077676566966,-0.49086428116925224,0.08241995133350215,0.0,0.0,0.3,-0.015750625585063426,-0.057271897099223035,-0.051657594855492796,0.015571300345592589,-0.020056154306209776,0.0,0.0,0.0,0.0,0.0,0.0,0.0
1.243880033493042,9.635292314793881,0.043413805438733036,-0.4912357533266454,0.0840718419589941,0.0,0.0,0.3,-0.016379384437200304,-0.05831483348004978,-0.05463012235787946,0.019354862495757096,-0.021754345919954815,0.0,0.0,0.0,0.0,0.0,0.0,0.0
1.249223232269287,9.591354709849258,0.07405341865453892,-0.4783516628747282,0.08269618034365595,0.0,0.0,0.3,-0.016599685849042305,-0.05785190697945173,-0.053887346211099175,0.022535227170404955,-0.022878516638506527,0.0,0.0,0.0,0.0,0.0,0.0,0.0
1.2548606395721436,9.59351156345896,0.08458035850682162,-0.43502794688446605,0.07592307707577303,0.0,0.0,0.3,-0.015879790798721028,-0.05417838889738954,-0.0451390536158613,0.022162295432673118,-0.0220911618168988,0.0,0.0,0.0,0.0,0.0,0.0,0.0
1.2603678703308105,9.56795239445594,0.08462928433495935,-0.45790952417283165,0.08348584918360567,0.0,0.0,0.3,-0.017924908480047574,-0.05989596991527574,-0.05982988024471443,0.024360750058517025,-0.024783877268765877,0.0,0.0,0.0,0.0,0.0,0.0,0.0
1.2658088207244873,9.560263687213494,0.09958729525495517,-0.42633920433447686,0.07842485258676199,0.0,0.0,0.3,-0.017478453654813136,-0.05723174407736547,-0.05357248837377198,0.024725311000746902,-0.024516515290135012,0.0,0.0,0.0,0.0,0.0,0.0,0.0
1.2712743282318115,9.559886898911317,0.10623104031499786,-0.4027977763693914,0.07539539928687908,0.0,0.0,0.3,-0.01739843141114932,-0.05583525921814364,-0.050475726506285186,0.024640184282300727,-0.024453500728832442,0.0,0.0,0.0,0.0,0.0,0.0,0.0
1.2766966819763184,9.57980692265546,0.09548747427796922,-0.385167241487284,0.07484082117143968,0.0,0.0,0.3,-0.017877182994938755,-0.05621768906974241,-0.05187185945995634,0.023191277491972872,-0.02452585182503767,0.0,0.0,0.0,0.0,0.0,0.0,0.0
1.282113790512085,9.610751031048048,0.08499493040889512,-0.35838187819288225,0.07222625389867576,0.0,0.0,0.3,-0.017954442890226734,-0.055303056535122706,-0.050019271807576676,0.02084550851444861,-0.02393252467940972,0.0,0.0,0.0,0.0,0.0,0.0,0.0
1.2874953746795654,9.641160516391842,0.07611106329783222,-0.3359903705813994,0.07034390869585092,0.0,0.0,0.3,-0.01828129459698373,-0.055143670653155376,-0.05009120053876448,0.01855869559185007,-0.023597740214828532,0.0,0.0,0.0,0.0,0.0,0.0,0.0
1.293004035949707,9.676610342257646,0.06688714847600083,-0.3111194880758813,0.067608781343305,0.0,0.0,0.3,-0.018424349321251043,-0.054435174242802295,-0.04876859835005203,0.015851185357503256,-0.02295803303293362,0.0,0.0,0.0,0.0,0.0,0.0,0.0
1.2982888221740723,9.690122502373786,0.06593436086410534,-0.3060648524475647,0.06916588795767835,0.0,0.0,0.3,-0.01964617627715831,-0.05688146965383489,-0.05550101854839144,0.01486393357442773,-0.023922354927162746,0.0,0.0,0.0,0.0,0.0,0.0,0.0
1.3036935329437256,9.718092102348733,0.06899616121318879,-0.27161381917814736,0.06266458215132252,0.0,0.0,0.3,-0.018529804089650215,-0.05260018087927994,-0.045006686851054425,0.012458621899119117,-0.02214766715208033,0.0,0.0,0.0,0.0,0.0,0.0,0.0
1.3094544410705566,9.743245129584576,0.06164571151264871,-0.26502739640649636,0.06439050657083074,0.0,0.0,0.3,-0.019724764969554862,-0.05492083094079689,-0.05144248008949901,0.010625542325159528,-0.02275918059388008,0.0,0.0,0.0,0.0,0.0,0.0,0.0
1.3147714138031006,9.715147745358115,0.08912663771458385,-0.29126230754738763,0.07201975714007101,0.0,0.0,0.3,-0.02246197788177065,-0.06162660349387308,-0.06956438598687474,0.012612970874151285,-0.026333538623861827,0.0,0.0,0.0,0.0,0.0,0.0,0.0
1.3201334476470947,9.6952248702888,0.1335226877545947,-0.2624753610344807,0.06190909615300893,0.0,0.0,0.3,-0.019136306941055673,-0.05211386895638548,-0.04614851567512532,0.013008109952810428,-0.023558411564283684,0.0,0.0,0.0,0.0,0.0,0.0,0.0
1.3256056308746338,9.721080664185536,0.13186526420915418,-0.2542216344045965,0.06330781849948802,0.0,0.0,0.3,-0.01921141452761476,-0.05199058492467247,-0.0471728089551008,0.010339706301315216,-0.02274956590693486,0.0,0.0,0.0,0.0,0.0,0.0,0.0
1.3309838771820068,9.775259067647793,0.10633527474203336,-0.23785843510930535,0.06618446035757444,0.0,0.0,0.3,-0.01989806689929818,-0.05332398138796394,-0.05185741820031989,0.00542357466671879,-0.021346202029097545,0.0,0.0,0.0,0.0,0.0,0.0,0.0
