T,Px,Py,Pz,Vx,Vy,Vz,Roll,Pitch,Yaw,R_rate,P_rate,Y_rate,T,M1,M2,M3,Wb1,Wb2,Wb3
0,0.0,0.0,0.0,0.0,0.0,0.0,-0.0022986346216992207,-0.042591062159321826,0.020654917223456495,0.0,0.0,0.0,0.0,0.0,0.0,0.0,0.0,0.0,0.0
0.00021696090698242188,-7.877123702508497e-05,-0.00013226677568798666,0.0006903927721424165,0.014993334034014035,0.025205887634484746,-0.13157643646678818,-1.4848552199520578e-05,-0.00025613672290949,0.00012444029285907233,0.0,0.0,0.0,0.0,0.0,0.0,0.0,0.0,0.0,0.0
0.005732059478759766,-0.0004161435270645671,-0.0006986994136325255,0.003647164709587646,0.0621444242924003,0.10447434485895674,-0.5453631929723174,-7.680050147964856e-05,-0.0013541189877231516,0.0006570786769017107,0.0,0.0,0.0,0.0,0.0,0.0,0.0,0.0,0.0,0.0
0.011187553405761719,-0.000991895477858203,-0.0016661153120890982,0.008694371258322831,0.1090053773026697,0.18325714487721725,-0.9566181960554467,-0.00019827785615952718,-0.003223979358502096,0.0015658828135409752,0.0,0.0,0.0,0.0,0.0,0.0,0.0,0.0,0.0,0.0
0.016474246978759766,-0.0016664342980371193,-0.0028005425792841246,0.014609221926282502,0.13321143434622915,0.22395428069510775,-1.169076678622154,-0.00036475598666065425,-0.005406561073658139,0.0026316225831722424,0.0,0.0,0.0,0.0,0.0,0.0,0.0,0.0,0.0,0.0
0.021857738494873047,-0.00261255882560792,-0.004391272912990434,0.0229045496948569,0.15583562518947547,0.2619910575737931,-1.367675085850236,-0.0005924563909607319,-0.00846680720595372,0.004128474491064741,0.0,0.0,0.0,0.0,0.0,0.0,0.0,0.0,0.0,0.0
0.02728891372680664,-0.0036398288922076475,-0.00611770689368513,0.031909797182606066,0.1645077962634977,0.2765715193435803,-1.4438569092980174,-0.0008251701384064217,-0.011791766923325502,0.005755750435666508,0.0,0.0,0.0,0.0,0.0,0.0,0.0,0.0,0.0,0.0
0.03259563446044922,-0.004461158719427806,-0.00749781421345437,0.03911007297554965,0.1535887661361589,0.25821709651159197,-1.3481190554454492,-0.0010007375733514631,-0.014452220818738006,0.0070586382986640404,0.0,0.0,0.0,0.0,0.0,0.0,0.0,0.0,0.0,0.0
0.037918806076049805,-0.0054773427159458005,-0.009205400032531515,0.04802047510207874,0.1432263305019724,0.24080118325453298,-1.2572867900753617,-0.0012093904169956215,-0.017745720254498935,0.008670329286854763,0.0,0.0,0.0,0.0,0.0,0.0,0.0,0.0,0.0,0.0
0.04335737228393555,-0.006713633594743749,-0.011282589967184904,0.05886097742584665,0.13119277554864645,0.22057932013176224,-1.1518123452261786,-0.001456707399511856,-0.021752311843342708,0.010630504153565123,0.0,0.0,0.0,0.0,0.0,0.0,0.0,0.0,0.0,0.0
0.048671722412109375,-0.007350510989272247,-0.012352354240371389,0.06444466851041579,0.10409005413201458,0.1750244462176076,-0.9140532778754336,-0.0015841967363652023,-0.023811639012332547,0.011639678610590912,0.0,0.0,0.0,0.0,0.0,0.0,0.0,0.0,0.0,0.0
0.053972721099853516,-0.008181677893750156,-0.013749049529443272,0.07173063656264962,0.08024340255867805,0.13494568431759407,-0.7048812968257445,-0.001778811916524855,-0.02649172701843822,0.012953276173430527,0.0,0.0,0.0,0.0,0.0,0.0,0.0,0.0,0.0,0.0
0.05937910079956055,-0.009325433925920081,-0.01567109182514214,0.08175702465594639,0.05793504765028787,0.09745524323017311,-0.5092405623255483,-0.0020459319602014496,-0.030182308800012023,0.014760670242426537,0.0,0.0,0.0,0.0,0.0,0.0,0.0,0.0,0.0,0.0
0.06464529037475586,-0.009596478520347637,-0.016126220221415546,0.08413205839764476,0.030853413294603397,0.05193456412938992,-0.2716374654613594,-0.0021080777424334726,-0.031053841146057054,0.015187381688279331,0.0,0.0,0.0,0.0,0.0,0.0,0.0,0.0,0.0,0.0
0.0699300765991211,-0.010319069004119427,-0.01733963470469088,0.09046418355811292,0.008199289692594211,0.01386041358006879,-0.07292410099794087,-0.0022573052006405287,-0.03339137070716036,0.016329463824716804,0.0,0.0,0.0,0.0,0.0,0.0,0.0,0.0,0.0,0.0
0.07554197311401367,-0.012208263521564271,-0.020513542472208553,0.10702259457118404,-0.01577631619910841,-0.026423158344186768,0.13725955031024395,-0.002668072437831163,-0.03950301584085929,0.019318885045918846,0.0,0.0,0.0,0.0,0.0,0.0,0.0,0.0,0.0,0.0
0.08097982406616211,-0.012019342640031285,-0.020196841541596428,0.10536534072147975,-0.037938121385761386,-0.0636729480188011,0.3317092711381825,-0.002648489109769115,-0.03888563440138118,0.019021078181521052,0.0,0.0,0.0,0.0,0.0,0.0,0.0,0.0,0.0,0.0
0.08625435829162598,-0.011754420245677437,-0.01975345646110621,0.10304452011466217,-0.053325836890645836,-0.08954282313484244,0.4667522715265011,-0.002626892998411181,-0.03801996903107995,0.018602929238724298,0.0,0.0,0.0,0.0,0.0,0.0,0.0,0.0,0.0,0.0
0.09187769889831543,-0.01364919519126347,-0.022941139359760578,0.11966411085700933,-0.07558542558448408,-0.12695855377800663,0.6619189673356897,-0.0030955082933957676,-0.04414565875672387,0.021600102435725556,0.0,0.0,0.0,0.0,0.0,0.0,0.0,0.0,0.0,0.0
0.09723639488220215,-0.0127388104900744,-0.02141509937415858,0.11170059339417196,-0.08110720572974364,-0.1362721373363197,0.7105333388085949,-0.0029082925293102335,-0.04121592588075319,0.020155266983216173,0.0,0.0,0.0,0.0,0.0,0.0,0.0,0.0,0.0,0.0
0.10256528854370117,-0.012822324711655442,-0.021559155295595833,0.11245340361135064,-0.08768280318689821,-0.14736316879609482,0.7683853079791171,-0.0029219938284881755,-0.0415098515544034,0.020283907706977175,0.0,0.0,0.0,0.0,0.0,0.0,0.0,0.0,0.0,0.0
0.10828208923339844,-0.014829532490805238,-0.024936783722539976,0.13007482781451385,-0.10570859861797642,-0.1777138123530901,0.9266670299336013,-0.0033608070376684477,-0.04803166304422385,0.02345753038938239,0.0,0.0,0.0,0.0,0.0,0.0,0.0,0.0,0.0,0.0
0.11371755599975586,-0.013593348255689919,-0.022859019105095538,0.11924145828441254,-0.1006824068233472,-0.1693136814786122,0.8829073782967833,-0.003054646446315995,-0.04404603464146829,0.021502040577234937,0.0,0.0,0.0,0.0,0.0,0.0,0.0,0.0,0.0,0.0
0.11906003952026367,-0.013222901052611306,-0.022236058448561625,0.1159972159713812,-0.0972629932271591,-0.16360434354059106,0.853183122999503,-0.0029431455402469057,-0.042860804570547674,0.0209201019481028,0.0,0.0,0.0,0.0,0.0,0.0,0.0,0.0,0.0,0.0
0.12523365020751953,-0.017387453662135496,-0.029238526826060283,0.1525289218831376,-0.12661891610901446,-0.21302484202489724,1.1109918453622527,-0.003864900448853398,-0.05636491366876061,0.027520944381110517,0.0,0.0,0.0,0.0,0.0,0.0,0.0,0.0,0.0,0.0
0.13062357902526855,-0.013424737369097491,-0.022573026032666713,0.1177522255889063,-0.09811148323169663,-0.16508233374159773,0.8610209936676244,-0.003019990237630975,-0.043504085012878696,0.021249346540723305,0.0,0.0,0.0,0.0,0.0,0.0,0.0,0.0,0.0,0.0
0.13600540161132812,-0.013321825628486167,-0.02239761989875056,0.11682762805469396,-0.09004219781871792,-0.1515168598402532,0.7902884250779401,-0.0030516935482113473,-0.0431495987915367,0.021064064798248447,0.0,0.0,0.0,0.0,0.0,0.0,0.0,0.0,0.0,0.0
0.14177966117858887,-0.015134633829450307,-0.025444992019087287,0.13270455643406298,-0.08982843011581497,-0.1511624319538507,0.7883977123637314,-0.0035628653690119192,-0.048997046432546036,0.0238919284763092,0.0,0.0,0.0,0.0,0.0,0.0,0.0,0.0,0.0,0.0
0.1471080780029297,-0.012925618761835414,-0.021734389410627906,0.11332915015226729,-0.06760510025479814,-0.11376761095589673,0.5932558968433799,-0.0031755259617434945,-0.041824888109943455,0.020375779990632482,0.0,0.0,0.0,0.0,0.0,0.0,0.0,0.0,0.0,0.0
0.1524033546447754,-0.012702480313670848,-0.02136598353019292,0.11137967677103264,-0.0541950726361997,-0.0912235021562675,0.47549342311075693,-0.0032886387855458688,-0.041093321918333085,0.019992246608504325,0.0,0.0,0.0,0.0,0.0,0.0,0.0,0.0,0.0,0.0
0.15820002555847168,-0.01499192975603613,-0.025226967005125934,0.131473826359932,-0.0501223828250878,-0.08443368300408902,0.4397025657113545,-0.0040900495733875745,-0.04850428349557659,0.023569349856992237,0.0,0.0,0.0,0.0,0.0,0.0,0.0,0.0,0.0,0.0
0.16360259056091309,-0.013053084731772765,-0.021973393112814404,0.11450107633139658,-0.03553319799179929,-0.05994824770316527,0.3117408224099828,-0.0037183053289451293,-0.04225038928562234,0.0205537402899753,0.0,0.0,0.0,0.0,0.0,0.0,0.0,0.0,0.0,0.0
0.1689598560333252,-0.012777816262286155,-0.02151908572093586,0.112131067541316,-0.025253721835901924,-0.042743309143893266,0.22172797564072583,-0.003771565079548014,-0.041391228076488686,0.020229534452708364,0.0,0.0,0.0,0.0,0.0,0.0,0.0,0.0,0.0,0.0
0.1747875213623047,-0.014901034161751087,-0.02510617047610169,0.13082967631146813,-0.01918704033357753,-0.032711898707334736,0.16894967687267204,-0.004534899561520421,-0.048318389485654485,0.0238116083795552,0.0,0.0,0.0,0.0,0.0,0.0,0.0,0.0,0.0,0.0
0.18016958236694336,-0.012753367058663766,-0.021497011292380595,0.11204018877648014,-0.010872062963609685,-0.018788502823133494,0.09645083419191032,-0.00396923624170933,-0.0414129477473157,0.020651041577686012,0.0,0.0,0.0,0.0,0.0,0.0,0.0,0.0,0.0,0.0
0.18558073043823242,-0.012819512036925513,-0.021615571036372804,0.11269079714725513,-0.00353606355697517,-0.006572880974478898,0.032786106946357266,-0.004044580330528396,-0.04169860889973588,0.021103148394256796,0.0,0.0,0.0,0.0,0.0,0.0,0.0,0.0,0.0,0.0
0.19124555587768555,-0.013920912367956641,-0.023477414540349996,0.1224464398046276,0.0038690886353240756,0.00570817744236229,-0.0311217647389679,-0.004403539134676991,-0.045364498457553054,0.02334308443838105,0.0,0.0,0.0,0.0,0.0,0.0,0.0,0.0,0.0,0.0
0.19672131538391113,-0.01300632380998161,-0.021937465716833714,0.11446699298963903,0.007647004089879951,0.012017555638867436,-0.0634989118621839,-0.004111577744557151,-0.042455688255211566,0.022243496144168807,0.0,0.0,0.0,0.0,0.0,0.0,0.0,0.0,0.0,0.0
0.20204567909240723,-0.012296165548906012,-0.020742430387354016,0.10828114927707569,0.011748690843393465,0.018905075726187326,-0.09880195714903411,-0.0039094887067362884,-0.04020074867158642,0.021473678966562236,0.0,0.0,0.0,0.0,0.0,0.0,0.0,0.0,0.0,0.0
0.20806360244750977,-0.015438962600717488,-0.02605245469460545,0.13606628045841956,0.018109410713255936,0.029328918635635158,-0.15231527394161046,-0.004949906665700435,-0.05058907501038254,0.027537437106210646,0.0,0.0,0.0,0.0,0.0,0.0,0.0,0.0,0.0,0.0
0.21340656280517578,-0.012282598593884681,-0.02073822085051635,0.1083681452828381,0.01404431002418105,0.02266808559526559,-0.11689223264771309,-0.003978974607348586,-0.040375073372219704,0.022337699282006677,0.0,0.0,0.0,0.0,0.0,0.0,0.0,0.0,0.0,0.0
0.2186884880065918,-0.011972548763251626,-0.02023117158305238,0.10577644051055954,0.01742024512039692,0.028323602906985556,-0.14562971462255203,-0.00394370626067264,-0.039508716282981346,0.022134732708363903,0.0,0.0,0.0,0.0,0.0,0.0,0.0,0.0,0.0,0.0
0.22454142570495605,-0.014492796828991298,-0.024513472926041283,0.12823812695344303,0.026145104879288873,0.04269108426692411,-0.21909578030323845,-0.004905927480043219,-0.0480257438676266,0.027122176398738596,0.0,0.0,0.0,0.0,0.0,0.0,0.0,0.0,0.0,0.0
0.22994637489318848,-0.012435903687066856,-0.021053790146009256,0.11020817756298963,0.022499733507703276,0.03659004651331411,-0.18681072044165437,-0.00438906168751747,-0.04136856809490813,0.023421593790581816,0.0,0.0,0.0,0.0,0.0,0.0,0.0,0.0,0.0,0.0
0.23533415794372559,-0.012334748018870122,-0.02089753227543989,0.10947156213202464,0.023965757941917697,0.03891684390366984,-0.19806250675353798,-0.00461784436142167,-0.041159860340940276,0.023216639940131983,0.0,0.0,0.0,0.0,0.0,0.0,0.0,0.0,0.0,0.0
0.24090003967285156,-0.013105964259275644,-0.022216194968224818,0.11648034623999169,0.02805309561077393,0.04555840402758442,-0.23139333125568334,-0.005293781525836741,-0.04383666730395701,0.02447477642317543,0.0,0.0,0.0,0.0,0.0,0.0,0.0,0.0,0.0,0.0
0.2464141845703125,-0.01287211810519508,-0.02183046192661393,0.11457268244769878,0.0273656981074279,0.044283768577089905,-0.22371217518362613,-0.005694357871398072,-0.043123880028532784,0.0236805867807039,0.0,0.0,0.0,0.0,0.0,0.0,0.0,0.0,0.0,0.0
0.2517209053039551,-0.011974629285241963,-0.020317728004009224,0.10676167438139444,0.025351473705854628,0.04091608939430717,-0.2055259209789647,-0.005876099728790579,-0.04012520663283888,0.021543464690320573,0.0,0.0,0.0,0.0,0.0,0.0,0.0,0.0,0.0,0.0
0.2574319839477539,-0.013764899472790235,-0.02336415571801103,0.12294861288218861,0.028733466980251875,0.04626293426748801,-0.2307438755854915,-0.007548357347261706,-0.046023653912969496,0.024032030819460568,0.0,0.0,0.0,0.0,0.0,0.0,0.0,0.0,0.0,0.0
0.26285314559936523,-0.012481390699322949,-0.02118953961405259,0.11170807487201183,0.02361937264396798,0.037787257880275496,-0.1858290291746926,-0.0076643884414140575,-0.04151412064890063,0.020955996571327556,0.0,0.0,0.0,0.0,0.0,0.0,0.0,0.0,0.0,0.0
0.2681586742401123,-0.011992157923493953,-0.02035721508975289,0.10756901051633175,0.02180558679694111,0.03482102879253922,-0.16901919657723435,-0.008249431973535172,-0.039544462762218784,0.019154950350110722,0.0,0.0,0.0,0.0,0.0,0.0,0.0,0.0,0.0,0.0
0.27352285385131836,-0.012269588825784356,-0.02081893252785298,0.11032674078182908,0.02334539360354305,0.037472243460092355,-0.18045308161135704,-0.009415524690180043,-0.039958983923977655,0.018429802578669927,0.0,0.0,0.0,0.0,0.0,0.0,0.0,0.0,0.0,0.0
0.2789320945739746,-0.012502421718293504,-0.021195645416674846,0.11270990523166156,0.0236342995944026,0.03809685544305545,-0.1805725195204036,-0.010592023286745673,-0.04002423019393364,0.017448347742543783,0.0,0.0,0.0,0.0,0.0,0.0,0.0,0.0,0.0,0.0
0.2842586040496826,-0.012186198596425226,-0.02063299188826692,0.11015060577212821,0.021817252590730925,0.035333326418071506,-0.16309509465459726,-0.011310719917302193,-0.03815079484506063,0.01560049797309671,0.0,0.0,0.0,0.0,0.0,0.0,0.0,0.0,0.0,0.0
0.2896573543548584,-0.012550052419659095,-0.02121302320269102,0.11375075050010001,0.02094471518908341,0.034193822128364554,-0.15217741435796778,-0.012737609159647698,-0.038229687136429685,0.014523748354263837,0.0,0.0,0.0,0.0,0.0,0.0,0.0,0.0,0.0,0.0
0.29506874084472656,-0.012655747671279253,-0.021348653424577632,0.11504433160085725,0.018754732085985173,0.030982865923653128,-0.12996265919677374,-0.014059371849631514,-0.03735580574996199,0.013025513047837875,0.0,0.0,0.0,0.0,0.0,0.0,0.0,0.0,0.0,0.0
0.30031633377075195,-0.011989672224239233,-0.020176824556583373,0.10932837656779604,0.01567258053604317,0.02638914563521285,-0.10214402040070446,-0.014608636387077833,-0.03414066583728209,0.010757640971355537,0.0,0.0,0.0,0.0,0.0,0.0,0.0,0.0,0.0,0.0
0.3056964874267578,-0.012626158345852664,-0.021184590568136565,0.11550318918338306,0.01508140179135801,0.026106704458549804,-0.09247348677970682,-0.016880520294356986,-0.034469993258979745,0.009608918221258676,0.0,0.0,0.0,0.0,0.0,0.0,0.0,0.0,0.0,0.0
0.31124258041381836,-0.013429594544581666,-0.022449329977165186,0.12325303957969767,0.012724760336639029,0.023086865023024823,-0.06571532243216324,-0.01964017794065173,-0.03491162155439014,0.008367933218350347,0.0,0.0,0.0,0.0,0.0,0.0,0.0,0.0,0.0,0.0
0.31653332710266113,-0.012331381908743127,-0.02051993916014483,0.1135384048411883,0.007764230623930725,0.015567478942770952,-0.02237495116768587,-0.019658408075466427,-0.030288513072144772,0.005996049341329421,0.0,0.0,0.0,0.0,0.0,0.0,0.0,0.0,0.0,0.0
0.32194089889526367,-0.012899308913451122,-0.02134977299626478,0.1191581976152904,0.005758567993582929,0.01347680285557306,0.00037669156321945866,-0.022396047980106824,-0.02966270888542526,0.0045321049975988945,0.0,0.0,0.0,0.0,0.0,0.0,0.0,0.0,0.0,0.0
0.3273911476135254,-0.013141949214776955,-0.021615433760646494,0.1217885743046858,0.003521232431202271,0.011186292322333863,0.02406561905871475,-0.024704437398006433,-0.0279484906290612,0.00285989441258065,0.0,0.0,0.0,0.0,0.0,0.0,0.0,0.0,0.0,0.0
0.33271098136901855,-0.012603550184059193,-0.020577822256502225,0.11712564244596159,0.0009516794782629134,0.008188928492370273,0.04723229819573743,-0.02534222003386633,-0.024391104693797107,0.0010743507368463998,0.0,0.0,0.0,0.0,0.0,0.0,0.0,0.0,0.0,0.0
0.33802294731140137,-0.012625533569758332,-0.020443235944373354,0.11763212953567928,-1.5769673252979738e-05,0.008276766648610722,0.05767184831315996,-0.02695016022428475,-0.021852572793449463,-0.0005480850353314624,0.0,0.0,0.0,0.0,0.0,0.0,0.0,0.0,0.0,0.0
0.34346961975097656,-0.013301738181816663,-0.0213462150181055,0.12426676657178898,-0.001017929899003432,0.009069905691686836,0.07115993205465536,-0.030092937182140123,-0.020180714466610492,-0.0022213837602252555,0.0,0.0,0.0,0.0,0.0,0.0,0.0,0.0,0.0,0.0
0.3488271236419678,-0.012951309013249179,-0.020589894806071818,0.12135888324013375,-0.002907911622371593,0.007820900848330748,0.087941639172317,-0.03102431413288711,-0.016814855425379083,-0.003693596972387734,0.0,0.0,0.0,0.0,0.0,0.0,0.0,0.0,0.0,0.0
0.35415220260620117,-0.012859728007679849,-0.020242190213829846,0.12090409972017989,-0.004150396017885102,0.007913342426786613,0.0998096794379631,-0.032514317071381964,-0.013819352110411293,-0.0051460488507255354,0.0,0.0,0.0,0.0,0.0,0.0,0.0,0.0,0.0,0.0
0.3595449924468994,-0.013232959718783036,-0.020602547616212677,0.12484578223591575,-0.004978120435568029,0.009357474773774157,0.11015171138360184,-0.03513128308798349,-0.011143360015071777,-0.006799711985322393,0.0,0.0,0.0,0.0,0.0,0.0,0.0,0.0,0.0,0.0
0.3648529052734375,-0.012906019905592297,-0.019852997845776817,0.12220125874605081,-0.005636637310769116,0.010261002700802973,0.11572511840416613,-0.035824532488253506,-0.007825979072105228,-0.008046482156440066,0.0,0.0,0.0,0.0,0.0,0.0,0.0,0.0,0.0,0.0
0.37018251419067383,-0.013074453232127187,-0.019855244693002132,0.12426307449191647,-0.00603941290088986,0.01236443251070709,0.1214853267139947,-0.03778561163066961,-0.004861836033183636,-0.009510430952868718,0.0,0.0,0.0,0.0,0.0,0.0,0.0,0.0,0.0,0.0
0.37587761878967285,-0.014887223679610873,-0.02230600051875803,0.14204868220252317,-0.009256281382701315,0.013396418431209612,0.16255933450100624,-0.04459396026919427,-0.00205233836957158,-0.012300361129970138,0.0,0.0,0.0,0.0,0.0,0.0,0.0,0.0,0.0,0.0
0.38123154640197754,-0.013290866039368946,-0.01963504831711317,0.1273523246476225,-0.012044280042071115,0.008868625926905868,0.1827735314669581,-0.04112487076128314,0.0012694584581790108,-0.012209815900588531,0.0,0.0,0.0,0.0,0.0,0.0,0.0,0.0,0.0,0.0
0.3865387439727783,-0.013108858983756525,-0.019080484979979023,0.12619168874181474,-0.012555481720935086,0.010290067949309588,0.1886330405990532,-0.04179861375004394,0.004299113289396485,-0.013145456493781717,0.0,0.0,0.0,0.0,0.0,0.0,0.0,0.0,0.0,0.0
0.3922710418701172,-0.015195089024577528,-0.02178057990935458,0.14705941827707703,-0.014780762914436193,0.014696525276831704,0.2239603445833499,-0.04994801505617242,0.008415398183559849,-0.016359058378679677,0.0,0.0,0.0,0.0,0.0,0.0,0.0,0.0,0.0,0.0
0.3976020812988281,-0.013261097186924108,-0.018708973685970125,0.12913923242633774,-0.014812698878807921,0.012711192642289322,0.21738395597001015,-0.04500087206640255,0.010222550863271417,-0.015114724111039323,0.0,0.0,0.0,0.0,0.0,0.0,0.0,0.0,0.0,0.0
0.4028897285461426,-0.013068511680011203,-0.01813012223066035,0.1281362386086405,-0.013260493728335319,0.01696371615372786,0.2056069282557458,-0.04576843972609665,0.012850906055472898,-0.015611890736817905,0.0,0.0,0.0,0.0,0.0,0.0,0.0,0.0,0.0,0.0
0.4084298610687256,-0.014291175449826863,-0.019480660168116438,0.1411873301792138,-0.011534748864011703,0.025585943597666576,0.20233019938418945,-0.051682543755995625,0.017020748919622044,-0.0177339672128706,0.0,0.0,0.0,0.0,0.0,0.0,0.0,0.0,0.0,0.0
0.41379261016845703,-0.013450604405365944,-0.018004388690643316,0.13401637985907836,-0.009965370070263714,0.027991876080061703,0.18913097642150772,-0.050303512531474984,0.01871103272633451,-0.017168799916730725,0.0,0.0,0.0,0.0,0.0,0.0,0.0,0.0,0.0,0.0
0.41905975341796875,-0.01301389515725496,-0.017091273110490107,0.13086536185297232,-0.007644280726946822,0.03229024432156944,0.17171166464471666,-0.050304032604546634,0.02063057178519883,-0.016949996776933478,0.0,0.0,0.0,0.0,0.0,0.0,0.0,0.0,0.0,0.0
0.4249293804168701,-0.01597443649814313,-0.020563190776927684,0.1622025355312255,-0.008599403090476625,0.04382249138886563,0.21565866732839967,-0.06370883554038421,0.028339939177510702,-0.02111651398579495,0.0,0.0,0.0,0.0,0.0,0.0,0.0,0.0,0.0,0.0
0.43030214309692383,-0.013504467771390095,-0.01702234182783332,0.13854655996400456,-0.009564980547666623,0.03657301366676235,0.21727646083748567,-0.05550815236401833,0.026410191982261574,-0.018041601776471558,0.0,0.0,0.0,0.0,0.0,0.0,0.0,0.0,0.0,0.0
0.4355490207672119,-0.01289347758360412,-0.01589508316335829,0.1337377829025968,-0.007419088457494356,0.039345691628328,0.20201655689085532,-0.05451764737223354,0.027483351002998632,-0.017338908222215135,0.0,0.0,0.0,0.0,0.0,0.0,0.0,0.0,0.0,0.0
0.4415309429168701,-0.016483510222930858,-0.01984788117657422,0.1729479529537126,-0.0068333357249832985,0.056731827939707075,0.24894356482692348,-0.07149008630446954,0.03793406057519827,-0.02222877045262809,0.0,0.0,0.0,0.0,0.0,0.0,0.0,0.0,0.0,0.0
0.4469287395477295,-0.013534445057313113,-0.01589467749901463,0.14371979843626814,-0.007264395370299812,0.047035276936180884,0.23714854366602567,-0.06001848475764662,0.03334531833599891,-0.018256910505721875,0.0,0.0,0.0,0.0,0.0,0.0,0.0,0.0,0.0,0.0
0.45217394828796387,-0.012773395060484777,-0.014605525406787483,0.13735568882001664,-0.0040773410784937375,0.04990556180640314,0.20950393292547628,-0.057670127624188654,0.03350402218775257,-0.01721466393395316,0.0,0.0,0.0,0.0,0.0,0.0,0.0,0.0,0.0,0.0
0.4578406810760498,-0.014738842991508084,-0.016387101372215673,0.1606112371679797,0.0013839862914357362,0.06752147878794063,0.19631269715717134,-0.06758474397609782,0.040923176277087706,-0.01979389396917626,0.0,0.0,0.0,0.0,0.0,0.0,0.0,0.0,0.0,0.0
0.4632868766784668,-0.013626901253772654,-0.01471695474927984,0.15060760943106663,0.00342177620402475,0.06756165613987603,0.17757181873348774,-0.06345107878180903,0.0397589215243453,-0.01815996420211836,0.0,0.0,0.0,0.0,0.0,0.0,0.0,0.0,0.0,0.0
0.4685995578765869,-0.012956697413019804,-0.01356544393564547,0.14532214566802365,0.005934999979995887,0.06964335173163555,0.15817715464691753,-0.06105126591363582,0.03954749189928878,-0.01711264355166649,0.0,0.0,0.0,0.0,0.0,0.0,0.0,0.0,0.0,0.0
0.4741818904876709,-0.014185862151193926,-0.01436541593440106,0.16151858710103814,0.01026285389354454,0.08303838650146207,0.15320843148773788,-0.06730348289719305,0.04520489401982153,-0.018585415524021882,0.0,0.0,0.0,0.0,0.0,0.0,0.0,0.0,0.0,0.0
0.4795541763305664,-0.013154097218325413,-0.012860279661061886,0.15212109067276378,0.011242506714794995,0.08132899671480884,0.14337002090587397,-0.06265108586875644,0.043656257787236266,-0.017090487556103717,0.0,0.0,0.0,0.0,0.0,0.0,0.0,0.0,0.0,0.0
0.4848332405090332,-0.012685083041924759,-0.01195310200918269,0.14915456541850808,0.013435783315608997,0.08338784618888345,0.12875144250791376,-0.06059762616585421,0.04369477272702202,-0.016305782960838046,0.0,0.0,0.0,0.0,0.0,0.0,0.0,0.0,0.0,0.0
0.4902670383453369,-0.013355004842513922,-0.012111260004318907,0.159857461776301,0.01756413555585025,0.09363509815304356,0.11841204103857128,-0.06400989423911847,0.04756013843757701,-0.01692309108899366,0.0,0.0,0.0,0.0,0.0,0.0,0.0,0.0,0.0,0.0
0.495635986328125,-0.013010041524576159,-0.011334791448554649,0.15866052945949552,0.018734928650179093,0.09512431386976641,0.119318660944924,-0.062487667975792374,0.04778024880255605,-0.016229979784878834,0.0,0.0,0.0,0.0,0.0,0.0,0.0,0.0,0.0,0.0
0.5009167194366455,-0.012558982293791118,-0.010490780412954984,0.15618868511368378,0.0194477324401443,0.09517765232289474,0.12194902081148486,-0.06044009164702413,0.04741675612835107,-0.01540391930421355,0.0,0.0,0.0,0.0,0.0,0.0,0.0,0.0,0.0,0.0
0.5063929557800293,-0.013386741675914374,-0.010699230536221972,0.17001053313717204,0.021945879279495508,0.1047025265422256,0.14166308500097197,-0.06473964518575828,0.05170339082765651,-0.016083102074197043,0.0,0.0,0.0,0.0,0.0,0.0,0.0,0.0,0.0,0.0
0.5118181705474854,-0.013071147885602916,-0.009966181868922258,0.16967977857913016,0.020837863168960778,0.10375739247614695,0.17336755894570313,-0.06354574514706259,0.051485029358125316,-0.015360408521107718,0.0,0.0,0.0,0.0,0.0,0.0,0.0,0.0,0.0,0.0
0.5170836448669434,-0.012268261035995213,-0.00888439549253672,0.16285836906918585,0.01936740529206747,0.09887851042047537,0.19186870350213653,-0.05971841238214637,0.04927129910532044,-0.014131932200240362,0.0,0.0,0.0,0.0,0.0,0.0,0.0,0.0,0.0,0.0
0.5227410793304443,-0.013940586431895809,-0.009537887237088153,0.18935378633147504,0.021779105026384374,0.11407282335594013,0.25366718410092337,-0.06767484301402411,0.05708167099468364,-0.015768265142615433,0.0,0.0,0.0,0.0,0.0,0.0,0.0,0.0,0.0,0.0
0.5282449722290039,-0.0131056331081114,-0.008422305294202062,0.18225826120685668,0.017907111853471547,0.1071941532727157,0.30481944809923334,-0.06329438863435888,0.05467541494676208,-0.014569818700352077,0.0,0.0,0.0,0.0,0.0,0.0,0.0,0.0,0.0,0.0
0.533583402633667,-0.012227118708830005,-0.007330418801994561,0.1742654454538499,0.015480199134079928,0.1007753755877559,0.3313271683568517,-0.05876217435783597,0.05190836575742209,-0.0133586642969239,0.0,0.0,0.0,0.0,0.0,0.0,0.0,0.0,0.0,0.0
0.5389645099639893,-0.01225393115211187,-0.006792660589178066,0.17926878896849818,0.01721170809561013,0.10389555198976964,0.3411573031717626,-0.058700301962202835,0.05282640071485417,-0.013138120997740085,0.0,0.0,0.0,0.0,0.0,0.0,0.0,0.0,0.0,0.0
0.5443787574768066,-0.0122277505469616,-0.006193333629048867,0.1838479090718964,0.019187554664932036,0.10701840386549519,0.3479802929647663,-0.058291335546536996,0.05347310316699141,-0.01288167846189714,0.0,0.0,0.0,0.0,0.0,0.0,0.0,0.0,0.0,0.0
0.549677848815918,-0.011574127609144426,-0.005280852281939366,0.17897955595314216,0.020088603746652,0.10463987922418527,0.3383146474116051,-0.0548380596692163,0.05131429844132974,-0.011995642337655625,0.0,0.0,0.0,0.0,0.0,0.0,0.0,0.0,0.0,0.0
0.5550894737243652,-0.01186471344115929,-0.004791556144456315,0.18887775906157828,0.023012333902075435,0.11118630614062924,0.3519920538774674,-0.05595274514270297,0.05321993437254917,-0.01208202583775551,0.0,0.0,0.0,0.0,0.0,0.0,0.0,0.0,0.0,0.0
0.5604472160339355,-0.011457408710107041,-0.003995068001779614,0.1879886794126593,0.024217571446987336,0.1112846934498082,0.3528942770708292,-0.05380790578462202,0.05187312643689254,-0.011474239921887137,0.0,0.0,0.0,0.0,0.0,0.0,0.0,0.0,0.0,0.0
0.5657169818878174,-0.01091768971742198,-0.00317190290689331,0.1848347575454996,0.025359129241153622,0.11013441332271436,0.34464279861507896,-0.05106313847925033,0.0497910328352042,-0.010776789303567565,0.0,0.0,0.0,0.0,0.0,0.0,0.0,0.0,0.0,0.0
0.5709915161132812,-0.010748281148123214,-0.002462501505460087,0.18794592617737058,0.02819110464399277,0.11305765318930076,0.33403136090573526,-0.05002882195248607,0.04932220008681735,-0.010461940052390366,0.0,0.0,0.0,0.0,0.0,0.0,0.0,0.0,0.0,0.0
0.5764052867889404,-0.011086690137067479,-0.0018177875301265268,0.20047068573028703,0.03186323284320164,0.1215921191393352,0.35154249109056396,-0.05132301452281443,0.051175627925154746,-0.010630396115949743,0.0,0.0,0.0,0.0,0.0,0.0,0.0,0.0,0.0,0.0
0.5817735195159912,-0.010693473381226457,-0.0010178198103049866,0.20024240871859367,0.03218219445541364,0.1221301898706995,0.37050447301122846,-0.04935722459958715,0.04956711404889922,-0.01008485982416338,0.0,0.0,0.0,0.0,0.0,0.0,0.0,0.0,0.0,0.0
0.5870418548583984,-0.010095802284889238,-0.00022937951042800378,0.19607230143037477,0.03210918472069629,0.12023569014961968,0.3760230794152707,-0.046675817398420895,0.046848102180547066,-0.009340100062557281,0.0,0.0,0.0,0.0,0.0,0.0,0.0,0.0,0.0,0.0
0.5926029682159424,-0.010917469844954977,0.0005886722372185118,0.22023069802648676,0.036606408594571226,0.13589473103200064,0.4405105649372437,-0.05080116935597534,0.05054784963562352,-0.009873551505868916,0.0,0.0,0.0,0.0,0.0,0.0,0.0,0.0,0.0,0.0
0.5979328155517578,-0.009811091796691512,0.0013308655106177084,0.20592168463203392,0.03381522810963995,0.12778749800626338,0.4462001173897253,-0.046158785678145756,0.04514605634136254,-0.008651151678663807,0.0,0.0,0.0,0.0,0.0,0.0,0.0,0.0,0.0,0.0
0.6032562255859375,-0.009509158710687513,0.002123647435286881,0.20807119879030492,0.03491796957143505,0.12968797096752394,0.46121202196160993,-0.04544362681790865,0.043318659731116815,-0.008167815008173233,0.0,0.0,0.0,0.0,0.0,0.0,0.0,0.0,0.0,0.0
0.6088542938232422,-0.010134451912905617,0.0032199924188344013,0.23162534411384375,0.039867957644302954,0.14520170521954381,0.5241243168692683,-0.04939112593732874,0.045591890812121935,-0.008487359094311179,0.0,0.0,0.0,0.0,0.0,0.0,0.0,0.0,0.0,0.0
0.6142604351043701,-0.009167238698578377,0.0038539273009103193,0.21928622961041572,0.03749507158200434,0.13848699131803746,0.5322903088574095,-0.04566344123883405,0.04065987149577036,-0.007494890007514082,0.0,0.0,0.0,0.0,0.0,0.0,0.0,0.0,0.0,0.0
0.6195211410522461,-0.008390810062483132,0.004471077684334044,0.2105364970754329,0.03721811497843486,0.1333710210676872,0.5112492479957804,-0.04279223560843509,0.036615026213503446,-0.006703675833965599,0.0,0.0,0.0,0.0,0.0,0.0,0.0,0.0,0.0,0.0
0.6250503063201904,-0.008865586854595993,0.005818121630506028,0.23388376062167426,0.04384339326694359,0.1484009553746785,0.5431552779792987,-0.04639295823539273,0.037960558008860966,-0.006935216538316703,0.0,0.0,0.0,0.0,0.0,0.0,0.0,0.0,0.0,0.0
0.6303355693817139,-0.0078101592544851176,0.006191622124129015,0.21714874391997682,0.042434547914496815,0.13829404364299047,0.4950585923344182,-0.041921511535879155,0.032746373519904545,-0.006023311949782658,0.0,0.0,0.0,0.0,0.0,0.0,0.0,0.0,0.0,0.0
0.6356520652770996,-0.007562194383493667,0.007141742704020905,0.22208457373442358,0.04579711693679005,0.14143619214967446,0.477790406873392,-0.04149600425885455,0.031014703789660925,-0.005802818068521157,0.0,0.0,0.0,0.0,0.0,0.0,0.0,0.0,0.0,0.0
0.6414930820465088,-0.008622109459130195,0.009590014482866904,0.26807032463855934,0.05679571760024987,0.17229694384529248,0.5832491964419595,-0.048244692378188146,0.03454857122429626,-0.006623458712056764,0.0,0.0,0.0,0.0,0.0,0.0,0.0,0.0,0.0,0.0
0.6469409465789795,-0.007184556107083111,0.009333003020418762,0.2371103169458022,0.049514280075096256,0.15556621494462702,0.5779570830850305,-0.04085110789056721,0.028106651503274842,-0.005576890628442347,0.0,0.0,0.0,0.0,0.0,0.0,0.0,0.0,0.0,0.0
0.652334451675415,-0.006674831169420056,0.010069519046103623,0.23448684308637052,0.04986415657802391,0.1549459774369401,0.5778371568814826,-0.03830230056061801,0.025498256400936142,-0.005317127359685028,0.0,0.0,0.0,0.0,0.0,0.0,0.0,0.0,0.0,0.0
0.6582179069519043,-0.007419740905090482,0.012939376960033043,0.2782681324594927,0.060795165210665705,0.18514848773474635,0.6785807915727857,-0.04270048521173653,0.027629808873084947,-0.006142842639309799,0.0,0.0,0.0,0.0,0.0,0.0,0.0,0.0,0.0,0.0
0.6635828018188477,-0.005852309562424257,0.011768316907912156,0.23524723985494844,0.05183624388207566,0.15864769226313968,0.5939176178469817,-0.03367007493919215,0.021124543417275266,-0.005058207204188589,0.0,0.0,0.0,0.0,0.0,0.0,0.0,0.0,0.0,0.0
0.6689722537994385,-0.005514433218840599,0.01278400644939914,0.23881256035552162,0.054798275735943286,0.15973945526724412,0.5516234797037415,-0.031643197472815424,0.01913162427193368,-0.004982488246441847,0.0,0.0,0.0,0.0,0.0,0.0,0.0,0.0,0.0,0.0
0.674705982208252,-0.005761165764707244,0.015408064573800204,0.2703183604663193,0.06486505960328084,0.17899945013500124,0.5535119603324518,-0.032853504209581386,0.019016287901056656,-0.005451318314573152,0.0,0.0,0.0,0.0,0.0,0.0,0.0,0.0,0.0,0.0
0.6803054809570312,-0.005085588827907208,0.01571784188575201,0.26017328672433376,0.06342838435674568,0.1740162162728059,0.5327676466729586,-0.0286279443862354,0.015773739990130445,-0.005062813130117125,0.0,0.0,0.0,0.0,0.0,0.0,0.0,0.0,0.0,0.0
0.6856927871704102,-0.004334329268731793,0.015522257986701914,0.2433857956451747,0.06052427446777464,0.16281743469980134,0.47639994694789023,-0.02375957591619187,0.012482497944833054,-0.004611319975684576,0.0,0.0,0.0,0.0,0.0,0.0,0.0,0.0,0.0,0.0
0.6913623809814453,-0.004352286435933089,0.01809887278142156,0.2698233715561252,0.06899750859882313,0.17848753667419476,0.47066980901280475,-0.02266867951125963,0.011561595006082814,-0.005076540920699362,0.0,0.0,0.0,0.0,0.0,0.0,0.0,0.0,0.0,0.0
0.6968643665313721,-0.003729113112197416,0.01804720654752055,0.2567011388935433,0.06680065785360827,0.16925257005336558,0.4185634328228542,-0.01777177254283115,0.00909855504676583,-0.00487803909011221,0.0,0.0,0.0,0.0,0.0,0.0,0.0,0.0,0.0,0.0
0.7022659778594971,-0.0032408465708731785,0.018348849652476677,0.24973129412207323,0.0660137081576037,0.1627016035625668,0.3647689014768968,-0.013438656351006245,0.007163541587633663,-0.004812780015723491,0.0,0.0,0.0,0.0,0.0,0.0,0.0,0.0,0.0,0.0
0.7080998420715332,-0.0033319413808655537,0.022279494716474266,0.29094293613033223,0.07768895929119074,0.1881357440321193,0.39046313179949477,-0.011244697429419775,0.006381472755071378,-0.0056309607977054164,0.0,0.0,0.0,0.0,0.0,0.0,0.0,0.0,0.0,0.0
0.7134368419647217,-0.002463392633470859,0.019726087275424783,0.24777869179820658,0.06615499700904187,0.16053287926534165,0.3307775255378446,-0.005938012317600936,0.003700561401689591,-0.004759660849275224,0.0,0.0,0.0,0.0,0.0,0.0,0.0,0.0,0.0,0.0
0.7187540531158447,-0.0021004436463603828,0.020494873200085053,0.24813997146083802,0.06668946962838128,0.1555482574249712,0.2644383431137868,-0.0022849713554239813,0.0020128364475791305,-0.004728618312788983,0.0,0.0,0.0,0.0,0.0,0.0,0.0,0.0,0.0,0.0
0.7247588634490967,-0.002222599647744173,0.026923060787310764,0.3148642616332515,0.08480436459910448,0.19355941532992207,0.2858874914724987,0.0019321297096729579,0.0006104158782476584,-0.006019801427984926,0.0,0.0,0.0,0.0,0.0,0.0,0.0,0.0,0.0,0.0
0.7301926612854004,-0.0015055291396743266,0.023215426372395584,0.26278551808322753,0.06988870540366562,0.16494124186767972,0.28335405815357834,0.005779177269669279,-0.0009458257873169606,-0.005106337317859963,0.0,0.0,0.0,0.0,0.0,0.0,0.0,0.0,0.0,0.0
0.735567569732666,-0.001151916881754962,0.02363135898720544,0.2593863616455286,0.06828142404275683,0.15939170182753773,0.2512464334013156,0.009780754743593911,-0.002313680193581791,-0.005144959109698013,0.0,0.0,0.0,0.0,0.0,0.0,0.0,0.0,0.0,0.0
0.7412867546081543,-0.0009337981720065599,0.027576156503177636,0.29411339322400043,0.07673896040391573,0.17372758520975073,0.21787776653220003,0.015464529609390633,-0.0042345742979394635,-0.005928065805487048,0.0,0.0,0.0,0.0,0.0,0.0,0.0,0.0,0.0,0.0
0.7467567920684814,-0.000526285448148493,0.026258757808765885,0.272677927189174,0.07003690326176631,0.15946260654660818,0.19861001517349114,0.018090283197357518,-0.0054775427006557905,-0.005529367894149567,0.0,0.0,0.0,0.0,0.0,0.0,0.0,0.0,0.0,0.0
0.7520039081573486,-0.00017880214964010262,0.025117584612191414,0.2543624092752576,0.06419316533280453,0.14327368613165076,0.14571580699515624,0.02013984483270201,-0.006585184370878386,-0.005128590379761345,0.0,0.0,0.0,0.0,0.0,0.0,0.0,0.0,0.0,0.0
0.757831335067749,0.00015198967719621913,0.03165603897244966,0.31312559035770304,0.07763089704142039,0.169470863521055,0.13111409003393668,0.028637753399510545,-0.00985535842101317,-0.006257383770539718,0.0,0.0,0.0,0.0,0.0,0.0,0.0,0.0,0.0,0.0
0.7632150650024414,0.00043923400723890364,0.028129163923350606,0.27218873649497544,0.0661108261405546,0.14733620939610328,0.13729051685548052,0.028204339744154035,-0.009918315415475542,-0.005424289599742959,0.0,0.0,0.0,0.0,0.0,0.0,0.0,0.0,0.0,0.0
0.7684919834136963,0.0007155556242784865,0.027922024921824093,0.26463620082888284,0.06273453980156127,0.13782287615059255,0.10744995140240131,0.030592599529898047,-0.010854323103553224,-0.005262040197873036,0.0,0.0,0.0,0.0,0.0,0.0,0.0,0.0,0.0,0.0
0.7744109630584717,0.0012499078302738522,0.035714727134467425,0.3319613167799962,0.07685699021756837,0.16721195080317092,0.11319415799021068,0.04217852906702303,-0.01517986284722927,-0.0065034778623359255,0.0,0.0,0.0,0.0,0.0,0.0,0.0,0.0,0.0,0.0
0.7798714637756348,0.0013789403208707193,0.03151687342575127,0.28764521055662784,0.06516299401901642,0.14903378414853152,0.16821251941328988,0.03970097196545153,-0.014584573750563552,-0.005459752180807452,0.0,0.0,0.0,0.0,0.0,0.0,0.0,0.0,0.0,0.0
0.7852969169616699,0.0016610336835652848,0.031942063559461754,0.28652498334685883,0.06318593059982408,0.14654338009471804,0.1844655758314918,0.042617057019545296,-0.015920066665655305,-0.0052267920773541,0.0,0.0,0.0,0.0,0.0,0.0,0.0,0.0,0.0,0.0
0.7908976078033447,0.002073990493335911,0.034782939634917534,0.3069237928424857,0.06571847890089992,0.15021791656022832,0.17242302929466802,0.048943526413764205,-0.018327580977628034,-0.005397765377972554,0.0,0.0,0.0,0.0,0.0,0.0,0.0,0.0,0.0,0.0
0.7963078022003174,0.0022233133486832812,0.03338499158548314,0.29006584946292513,0.060376149828198555,0.1384005185979069,0.16562228481478042,0.04928970959271173,-0.01829841060029841,-0.0049600393711526705,0.0,0.0,0.0,0.0,0.0,0.0,0.0,0.0,0.0,0.0
0.8017699718475342,0.002542445166721134,0.0348119080297786,0.2980911608636911,0.06014035714842216,0.13702785267173773,0.16026389372440894,0.05357621318485685,-0.01965067735612986,-0.00499458446336572,0.0,0.0,0.0,0.0,0.0,0.0,0.0,0.0,0.0,0.0
0.807849645614624,0.0034342968055512957,0.04353297145797816,0.36769590242875183,0.07261185247431123,0.1729311096578683,0.273036494241109,0.0694903698782514,-0.02507609210312347,-0.0060885677314389776,0.0,0.0,0.0,0.0,0.0,0.0,0.0,0.0,0.0,0.0
0.8133251667022705,0.0030671690599575543,0.03641853343823554,0.30368095745048507,0.059153958668793506,0.15337098199755378,0.35086132213404364,0.06002042229610884,-0.02125054130852159,-0.005015288976703416,0.0,0.0,0.0,0.0,0.0,0.0,0.0,0.0,0.0,0.0
0.8186817169189453,0.0031724548229015606,0.035561138597257916,0.2929912773376701,0.05504136486091599,0.14330604934584723,0.33484086630844967,0.06016136848533235,-0.02096428519434238,-0.0048305751523984595,0.0,0.0,0.0,0.0,0.0,0.0,0.0,0.0,0.0,0.0
0.8244905471801758,0.003955775516311983,0.042178046887641284,0.3436297223519658,0.06166432363944925,0.15555554863446375,0.32726351560950806,0.0729196752545205,-0.025021942146961566,-0.0056492739586758624,0.0,0.0,0.0,0.0,0.0,0.0,0.0,0.0,0.0,0.0
0.8299844264984131,0.003778157704519789,0.03860557930643052,0.3112409296663929,0.053953809272064626,0.13793544855908327,0.3060596407267402,0.06802477468863964,-0.022895883697810697,-0.005135044279628341,0.0,0.0,0.0,0.0,0.0,0.0,0.0,0.0,0.0,0.0
0.8352773189544678,0.0037146850995518526,0.03657936693762559,0.2920218211880329,0.04816013992381237,0.12024564201862493,0.2448267079756506,0.06550511068797707,-0.0215764499439547,-0.004867414060996884,0.0,0.0,0.0,0.0,0.0,0.0,0.0,0.0,0.0,0.0
0.840822696685791,0.004264767210953699,0.04064745933200016,0.32153970873112614,0.0497046296475168,0.11619851967393025,0.17294295744280658,0.07375129363899458,-0.023759354425102637,-0.005398482458615037,0.0,0.0,0.0,0.0,0.0,0.0,0.0,0.0,0.0,0.0
0.846113920211792,0.004090271714238931,0.03786957929265802,0.29702074986244564,0.04318691794140749,0.09621424975469557,0.10127081560696549,0.06942353984473934,-0.021878258291977197,-0.0049591435064442,0.0,0.0,0.0,0.0,0.0,0.0,0.0,0.0,0.0,0.0
0.8513820171356201,0.004241474051477367,0.03826619438051575,0.2977518955572791,0.04033129048622531,0.08363981310390238,0.03021299969887621,0.0706651511502078,-0.021788527498852007,-0.004872751842210526,0.0,0.0,0.0,0.0,0.0,0.0,0.0,0.0,0.0,0.0
0.8568341732025146,0.004724865662268425,0.04162628183071674,0.3215548472188417,0.04059705608019761,0.0786839138079514,-0.027628129800609247,0.07705165049295261,-0.02331674893483701,-0.005115912615713457,0.0,0.0,0.0,0.0,0.0,0.0,0.0,0.0,0.0,0.0
0.8622488975524902,0.00485764068783635,0.04185743809351484,0.32126126008736416,0.038636962312742724,0.07617268599409638,-0.016273276765564365,0.07717028920057842,-0.023070367764589393,-0.0049408004975810185,0.0,0.0,0.0,18644.0,22806.0,19016.0,20419.0,0.0,0.0,0.0
0.8676385879516602,0.0050001421643436515,0.042228682698986664,0.3222697137367726,0.03724236354427099,0.07732377433378762,0.021293041332405272,0.07710453233518985,-0.022893637313963856,-0.0047385331575363785,0.0,0.0,0.0,18644.0,22806.0,19016.0,20419.0,0.0,0.0,0.0
0.8730125427246094,0.0051481352713254845,0.04270903378064333,0.3243053696483144,0.03592860795219484,0.07806569323119236,0.05436444489892179,0.07687441618937915,-0.022717658753111512,-0.0045085294091475984,0.0,0.0,0.0,19468.0,21978.0,19128.0,21753.0,0.0,0.0,0.0
0.8783156871795654,0.005185564672388162,0.04233508796699426,0.3200507870939469,0.033849182755685,0.07620203042499854,0.07807361578252095,0.07481607423855835,-0.022025340987093342,-0.004191152062334954,0.0,0.0,0.0,19626.0,21658.0,19851.0,23019.0,0.0,0.0,0.0
0.8836162090301514,0.0053391828873307,0.042979060238712744,0.3236466617490475,0.03247294603737828,0.0747190851771882,0.09242946607682706,0.0743524275969025,-0.02174382823873403,-0.0039937997277378285,0.0,0.0,0.0,19626.0,21658.0,19851.0,23019.0,0.0,0.0,0.0
0.8890602588653564,0.005771096300237374,0.04591436944846635,0.3445103015724606,0.033122638785814784,0.08007992361393626,0.13530586476037865,0.0776918155277974,-0.02234666859555436,-0.004017067141277777,0.0,0.0,0.0,19396.0,21811.0,19789.0,22706.0,0.0,0.0,0.0
0.8944847583770752,0.005871230584460249,0.04626650196809329,0.3459891690121133,0.0325797779475907,0.08683494900592614,0.21637655203897627,0.07660779261458094,-0.021388074824849054,-0.003834986612805471,0.0,0.0,0.0,19396.0,21811.0,19789.0,22706.0,0.0,0.0,0.0
0.8997864723205566,0.005744581933229051,0.04490453358980841,0.33476991683928736,0.030732183534094855,0.08908030242809478,0.27772202746226826,0.07265699159769337,-0.01948551523855719,-0.0035312956035905107,0.0,0.0,0.0,19289.0,22168.0,19637.0,22169.0,0.0,0.0,0.0
0.9052965641021729,0.006304129310276891,0.04890417389106186,0.36360846096090044,0.03229795132151034,0.1002397590640656,0.3593645959892221,0.07694487744143316,-0.019764083178158243,-0.003615854806450741,0.0,0.0,0.0,18859.0,22509.0,19095.0,20915.0,0.0,0.0,0.0
0.9106833934783936,0.006155946864233538,0.04738282121668745,0.351515115988147,0.03054699054518347,0.10273670090841996,0.42019933349790994,0.07203527302333915,-0.017739238006493536,-0.0032431487525907917,0.0,0.0,0.0,18859.0,22509.0,19095.0,20915.0,0.0,0.0,0.0
0.9159586429595947,0.006025834643758089,0.04601304951212035,0.34074432417539297,0.028443164803939245,0.10069014041561959,0.44307571768952964,0.0671765101745224,-0.01584803557516748,-0.002857292063540605,0.0,0.0,0.0,18592.0,22877.0,18838.0,20090.0,0.0,0.0,0.0
0.9213168621063232,0.006318893855899144,0.04786928403355618,0.3539965127411303,0.02767640936828269,0.09981325024108469,0.45242222734892973,0.06670067081780136,-0.015014818679624207,-0.002646416958010011,0.0,0.0,0.0,18592.0,22877.0,18838.0,20090.0,0.0,0.0,0.0
0.9267876148223877,0.006685062703368831,0.05025416877124801,0.3712607234529987,0.027726031868280168,0.1037033292248698,0.49523151286872236,0.066431896741943,-0.01413649703706034,-0.0024527113800088926,0.0,0.0,0.0,18409.0,23293.0,18520.0,19153.0,0.0,0.0,0.0
0.9322247505187988,0.006578978295784279,0.049598103735654445,0.3679607951874906,0.02696913665971625,0.10688318333203073,0.5490374497694843,0.06223831411936021,-0.012505435465518766,-0.0020815829209374585,0.0,0.0,0.0,18409.0,23293.0,18520.0,19153.0,0.0,0.0,0.0
0.9375662803649902,0.006104411342876783,0.04703474606500668,0.35361621080849376,0.0246912965668303,0.1022242952434079,0.5578028311135805,0.05624663847881263,-0.010798302249613624,-0.0015869851623030186,0.0,0.0,0.0,18409.0,23293.0,18520.0,19153.0,0.0,0.0,0.0
0.9429280757904053,0.005847897370640849,0.04627385097450715,0.35338284238183193,0.021584161416693073,0.09170529331509067,0.5307383217293699,0.05233374689397716,-0.009536989116106814,-0.0011890287091431435,0.0,0.0,0.0,18402.0,23216.0,18375.0,18878.0,0.0,0.0,0.0
0.9482216835021973,0.005518077143204837,0.044466642195595665,0.34367301673249556,0.016484900306741972,0.07177255275537556,0.45265784600382747,0.046803531038725255,-0.007817611553128307,-0.000850990989653865,0.0,0.0,0.0,18402.0,23216.0,18375.0,18878.0,0.0,0.0,0.0
0.9535887241363525,0.005554644163349505,0.04524957297884512,0.3527301797222887,0.01173460271912127,0.053153953693646463,0.38720246070412345,0.0436391002395128,-0.006274632598000828,-0.0006294867342126601,0.0,0.0,0.0,18402.0,23216.0,18375.0,18878.0,0.0,0.0,0.0
0.9590816497802734,0.005759643808843448,0.04713150190765274,0.36944646061952024,0.007608743776864609,0.03919118936057998,0.36092727855014844,0.041018083293964426,-0.004497172697589976,-0.00048067183507779853,0.0,0.0,0.0,18282.0,23405.0,18402.0,18768.0,0.0,0.0,0.0
0.9643847942352295,0.0054023878512209226,0.04415699177283659,0.3471877047273048,0.0036026437672440057,0.02538634725001871,0.3191657114070919,0.03415782056877011,-0.0021143793853766264,-0.0003568786840604293,0.0,0.0,0.0,18282.0,23405.0,18402.0,18768.0,0.0,0.0,0.0
0.9696505069732666,0.005388827925843452,0.043802126231365486,0.3447570639848346,0.00011678357841609082,0.010460788546395624,0.25703731250458084,0.029674410414199742,0.00013840563118963352,-0.0003614339636935363,0.0,0.0,0.0,18391.0,23311.0,18428.0,19258.0,0.0,0.0,0.0
0.9751443862915039,0.005939390587015189,0.04786486239739231,0.37653812897815897,-0.0026317096009518368,-0.0011228664030838277,0.22650416632348608,0.027963858022263477,0.002725847126824917,-0.0005173602181319006,0.0,0.0,0.0,18283.0,23388.0,18383.0,19345.0,0.0,0.0,0.0
0.9807353019714355,0.006266863715193609,0.049954896945509794,0.3923261700613425,-0.003133836991252152,0.0009678593885573425,0.2810287716348716,0.024657966430056046,0.005562117690044007,-0.0007022902370370664,0.0,0.0,0.0,18283.0,23388.0,18383.0,19345.0,0.0,0.0,0.0
0.9864037036895752,0.0065747142684448945,0.05174532373939971,0.40539737409075594,-0.001555138798978746,0.015309193697866003,0.4144126018582544,0.02100132596405445,0.008497753450279347,-0.0008575962033264902,0.0,0.0,0.0,18630.0,23076.0,18753.0,19934.0,0.0,0.0,0.0
0.991910457611084,0.0063674273822965175,0.04941584712531583,0.3860333663446532,0.0006573008745795678,0.028545418984472763,0.5007039907842782,0.015905335517492833,0.010631970454149105,-0.0009147788611222454,0.0,0.0,0.0,18630.0,23076.0,18753.0,19934.0,0.0,0.0,0.0
0.9973709583282471,0.00641465522265983,0.04904592500010108,0.381980885532889,0.002189253318593546,0.03423751398052359,0.5270628599503839,0.011865208776318074,0.013001421491389714,-0.0010249540640515633,0.0,0.0,0.0,18640.0,22845.0,18978.0,20427.0,0.0,0.0,0.0
1.0027382373809814,0.006362719044810861,0.04790446190458994,0.37196269341908417,0.0030450559793135414,0.032046540525984525,0.4792948392668539,0.00798435133366692,0.015045905159655662,-0.0011647927307125209,0.0,0.0,0.0,18640.0,22845.0,18978.0,20427.0,0.0,0.0,0.0
1.0081896781921387,0.006719807382247244,0.04980927078367848,0.38563794142231306,0.004162838055043309,0.03032935526156164,0.44303302679861534,0.004824503098825858,0.01800398007155979,-0.0014239340511290378,0.0,0.0,0.0,18640.0,22845.0,18978.0,20427.0,0.0,0.0,0.0
1.0138492584228516,0.007391110366961481,0.053952452114440615,0.4166214021242606,0.006891952447840225,0.03796911256327399,0.48079718713545766,0.0017978835408120576,0.021966897995941925,-0.001797607400058108,0.0,0.0,0.0,21240.0,20741.0,21824.0,17694.0,0.0,0.0,0.0
1.0192959308624268,0.007034626014539899,0.05059269107281273,0.38978543051646425,0.009547425973058991,0.0461125759792682,0.49468946131031544,-0.0012265633298788022,0.02280977743283291,-0.0019124767865601497,0.0,0.0,0.0,21240.0,20741.0,21824.0,17694.0,0.0,0.0,0.0
1.024937629699707,0.007681559066298476,0.05444721511101982,0.4186899719041338,0.013265685390826334,0.058268537248217976,0.559500274351845,-0.0041773986794869334,0.02679254627332247,-0.0022651252539666127,0.0,0.0,0.0,21207.0,20478.0,22005.0,17797.0,0.0,0.0,0.0
1.0304348468780518,0.007465140806100306,0.05216282273195975,0.40053318450192055,0.015398715166419325,0.06291963814212735,0.5549386920561974,-0.0064692681735533525,0.027697305081295556,-0.00235326540240868,0.0,0.0,0.0,21259.0,20289.0,21860.0,18098.0,0.0,0.0,0.0
1.0357704162597656,0.007197576622602415,0.04959219525655512,0.38038112957106707,0.01613007814177632,0.059456730624084755,0.4940769869551537,-0.00824349450616696,0.02817010332673293,-0.002419651185140539,0.0,0.0,0.0,21259.0,20289.0,21860.0,18098.0,0.0,0.0,0.0
1.0412657260894775,0.007763727696101696,0.05276513240479862,0.4044329235521605,0.017681687181763765,0.055919232338872873,0.4406803962001126,-0.010723614670827709,0.031863190847862634,-0.002790073105261166,0.0,0.0,0.0,21345.0,20096.0,22042.0,18497.0,0.0,0.0,0.0
1.0466504096984863,0.0076183698408734115,0.05110333938215143,0.39156788510275864,0.017873748141247828,0.04951107985494761,0.3679648885216351,-0.011912968616184143,0.03266424854325546,-0.002930310580453147,0.0,0.0,0.0,21345.0,20096.0,22042.0,18497.0,0.0,0.0,0.0
1.0521016120910645,0.00794422751543249,0.052640865392143965,0.4033341465729957,0.01922163569159192,0.04749495280922341,0.33328534152112343,-0.013330766301765468,0.03550963713717218,-0.0032511284184640788,0.0,0.0,0.0,21351.0,19956.0,21985.0,18691.0,0.0,0.0,0.0
1.0577986240386963,0.00878409557304243,0.05753557823978475,0.44093700404695524,0.022826973533047752,0.055445674433582316,0.376195456029475,-0.015209918299836308,0.04080946105255647,-0.0037790149051563577,0.0,0.0,0.0,18804.0,21888.0,19259.0,21406.0,0.0,0.0,0.0
1.063185214996338,0.008030717855952772,0.05198868407891412,0.39866437500355056,0.02271759896123355,0.057449717254489295,0.3873038876804051,-0.01408654093614323,0.03855052221618334,-0.003569770607496494,0.0,0.0,0.0,18804.0,21888.0,19259.0,21406.0,0.0,0.0,0.0
1.068498134613037,0.007955121455652775,0.05086700611865688,0.39044787100535483,0.022316230802312525,0.051540773363068566,0.33883661738966864,-0.014016112079396872,0.03917462579978579,-0.0036005075981790243,0.0,0.0,0.0,21524.0,19338.0,21909.0,19190.0,0.0,0.0,0.0
1.074176549911499,0.009176067420349087,0.057923137136346545,0.44517880155224865,0.02514471978946823,0.05153354671307606,0.3309835361944543,-0.016067949434420876,0.046046269243603305,-0.004202565238925543,0.0,0.0,0.0,21524.0,19338.0,21909.0,19190.0,0.0,0.0,0.0
1.0795388221740723,0.008375695431514132,0.052170787383511996,0.4015751850558609,0.023551955232915714,0.047833214836692214,0.3129893907267704,-0.014400388129747834,0.04259592588053959,-0.003879145138948402,0.0,0.0,0.0,21528.0,19489.0,21846.0,19112.0,0.0,0.0,0.0
1.0850753784179688,0.00905020179182688,0.05559115560413325,0.42864190971913674,0.025447845517446943,0.04895505142451091,0.32595174868144655,-0.015129391048715675,0.04642949968669375,-0.004251176744605786,0.0,0.0,0.0,21528.0,19489.0,21846.0,19112.0,0.0,0.0,0.0
1.0907797813415527,0.009735158213545987,0.0589466848879096,0.45535627080791263,0.02808278201562075,0.054233776164460915,0.37538453130062926,-0.015628161284470164,0.05023354365818534,-0.0046683537737169795,0.0,0.0,0.0,21528.0,19489.0,21846.0,19112.0,0.0,0.0,0.0
1.0961689949035645,0.008881790082477838,0.053020187229416295,0.41033643703594513,0.02665557196505467,0.053557638360999985,0.38727979603369916,-0.013335568046821001,0.04610627842233191,-0.0043922371046780624,0.0,0.0,0.0,18834.0,21269.0,19035.0,21720.0,0.0,0.0,0.0
1.1014692783355713,0.008742786502592864,0.05147142045087999,0.3990871447585701,0.02486306892336943,0.04243673128876997,0.31597673363537315,-0.011783717956076158,0.04572293567591026,-0.004486543387565782,0.0,0.0,0.0,18834.0,21269.0,19035.0,21720.0,0.0,0.0,0.0
1.1071195602416992,0.010026015459317717,0.05822188963327633,0.4522819475393254,0.02659220750758167,0.034867723507518315,0.2727179877002439,-0.011619113637088278,0.05281641247071141,-0.005324433132579187,0.0,0.0,0.0,21416.0,19296.0,21755.0,19020.0,0.0,0.0,0.0
1.1125307083129883,0.00939113746788768,0.0537716228682509,0.4185386794937933,0.024809504184071133,0.030142769911977677,0.2519546970097794,-0.009008270867775043,0.049715285706104145,-0.005156672552955051,0.0,0.0,0.0,21571.0,19232.0,21682.0,19002.0,0.0,0.0,0.0
1.117910623550415,0.009449685594135698,0.05330022700726214,0.41573324342341766,0.024158333897323157,0.02410453615154097,0.220697695114191,-0.007221395218008804,0.05004694884545001,-0.0053784114551695805,0.0,0.0,0.0,21571.0,19232.0,21682.0,19002.0,0.0,0.0,0.0
1.123713731765747,0.011098657227474586,0.06159448000648948,0.48148333433103596,0.028173779153435566,0.02511098076235051,0.2520598852093053,-0.006524294458250236,0.05840749403079957,-0.006490649001208772,0.0,0.0,0.0,21061.0,18927.0,21813.0,19170.0,0.0,0.0,0.0
1.1291389465332031,0.0099503004057315,0.05427884168936174,0.42526780192019287,0.026733268091216508,0.028938610415195666,0.29095954212989084,-0.004204478771722428,0.05171726989210927,-0.005891454803841586,0.0,0.0,0.0,21061.0,18927.0,21813.0,19170.0,0.0,0.0,0.0
1.1344656944274902,0.009790220640921242,0.05246329620530733,0.4119932786081901,0.025543846809210832,0.022379701842103743,0.25196289397580685,-0.0023963861426152906,0.05011208707366314,-0.005833500299556527,0.0,0.0,0.0,20964.0,18805.0,21869.0,19317.0,0.0,0.0,0.0
1.1402790546417236,0.011766366710548228,0.06192150349671861,0.48739938262497273,0.029583616441099442,0.01763282338930317,0.24537214460816625,-0.0006479385435353675,0.05920064427905178,-0.007067917282024254,0.0,0.0,0.0,20964.0,18805.0,21869.0,19317.0,0.0,0.0,0.0
1.145634651184082,0.01027071823036348,0.053046055234732534,0.4185457561554306,0.026652934846802315,0.01688999461352026,0.23771363648168045,0.0013003757468830462,0.050577130117969736,-0.006218267895395081,0.0,0.0,0.0,20964.0,18805.0,21869.0,19317.0,0.0,0.0,0.0
1.1509966850280762,0.010505699105920965,0.05318238891582844,0.42069676518716803,0.025954222396702725,0.007473109393178188,0.17635005427171685,0.0029718569443830073,0.05024187266937616,-0.006363472505516863,0.0,0.0,0.0,21212.0,18945.0,21668.0,19159.0,0.0,0.0,0.0
1.1567847728729248,0.01240177574205267,0.061471943583475686,0.48755767653210114,0.02950804805392407,-0.0013766777962949384,0.13904002302621776,0.005111439249798162,0.05711504510921797,-0.007442848447833822,0.0,0.0,0.0,21212.0,18945.0,21668.0,19159.0,0.0,0.0,0.0
1.1622252464294434,0.011273466167325219,0.05468079107462809,0.43485926779373457,0.028415664802089482,0.002600296376208379,0.16579175758635847,0.005887009992918326,0.04960219849546238,-0.0066443422316114975,0.0,0.0,0.0,21110.0,18816.0,21729.0,19312.0,0.0,0.0,0.0
1.167534351348877,0.011008835158076425,0.052207006943891854,0.4163457212847641,0.027190020472832185,-0.0041717251179087655,0.1157844959576885,0.0067922549001712355,0.0459043385922421,-0.006325712285711793,0.0,0.0,0.0,21110.0,18816.0,21729.0,19312.0,0.0,0.0,0.0
1.1729705333709717,0.011794592743137459,0.05465674664947689,0.4371408629506272,0.026699025825089186,-0.02097943668964104,-0.0004956353183668688,0.008298070578189272,0.04634711697851588,-0.0065829869687392805,0.0,0.0,0.0,21110.0,18816.0,21729.0,19312.0,0.0,0.0,0.0
1.1784765720367432,0.012382036955323621,0.05608678144172397,0.4498620964377476,0.027548106412319865,-0.029687734392041143,-0.055288878043620454,0.00983505370657814,0.045789082834111684,-0.006722407407476963,0.0,0.0,0.0,18547.0,20745.0,19088.0,21951.0,0.0,0.0,0.0
1.1839408874511719,0.012502953229120007,0.05537735994022367,0.4454224600168847,0.029083252067832098,-0.029322213137723874,-0.0453808216855068,0.011076962620713135,0.043472608877127866,-0.006623270359595928,0.0,0.0,0.0,18547.0,20745.0,19088.0,21951.0,0.0,0.0,0.0
1.1893908977508545,0.01274632435215694,0.05518867336198723,0.44517319132224514,0.030960245597570612,-0.028678547755900764,-0.03265971485695732,0.012271780149976878,0.04148737512445254,-0.006573704433176778,0.0,0.0,0.0,21263.0,18772.0,21602.0,19335.0,0.0,0.0,0.0
1.1947834491729736,0.012806210205296589,0.054186283506504285,0.4383627082349726,0.03189663807183304,-0.029457862554467897,-0.03542427770888895,0.013047198634834885,0.03877722956967848,-0.006402452872136108,0.0,0.0,0.0,21263.0,18772.0,21602.0,19335.0,0.0,0.0,0.0
1.200096845626831,0.012773069117310947,0.05281246410179617,0.428502160449806,0.03178869733958241,-0.033084703992453925,-0.06373988788236407,0.013555405843279827,0.035785335865539586,-0.006190194920837805,0.0,0.0,0.0,21359.0,18800.0,21494.0,19328.0,0.0,0.0,0.0
1.2054507732391357,0.013297827420085258,0.053745147083336955,0.4373265401993657,0.032664665403788956,-0.039608945378536806,-0.10747108022633481,0.014693331296658835,0.034374991578927344,-0.006287802925116015,0.0,0.0,0.0,18747.0,20583.0,18899.0,22099.0,0.0,0.0,0.0
1.210921049118042,0.01420673990699837,0.05617026822479277,0.45832401303809367,0.03583321222795856,-0.041660756204693915,-0.10953044993415101,0.016427514511016497,0.03389821044781334,-0.006621177140058791,0.0,0.0,0.0,18747.0,20583.0,18899.0,22099.0,0.0,0.0,0.0
1.2163472175598145,0.01433764881485532,0.0554960127727082,0.454021260197776,0.03871806778486739,-0.034225576400312034,-0.0480409076399014,0.01737707364549378,0.03157675664966925,-0.0066354189736945865,0.0,0.0,0.0,21443.0,18588.0,21487.0,19445.0,0.0,0.0,0.0
1.2218077182769775,0.014856719098890837,0.056315745116663235,0.4619120673970536,0.04291252053709615,-0.02606539481890379,0.02442932934532125,0.01885359520239851,0.030103199135342873,-0.006838973120966564,0.0,0.0,0.0,21443.0,18588.0,21487.0,19445.0,0.0,0.0,0.0
1.2273001670837402,0.01536944311219644,0.05706135027404826,0.46922651821921135,0.04724716511783142,-0.016801771723974738,0.10469778565133323,0.020305724380356164,0.02850006126381245,-0.007015608201677239,0.0,0.0,0.0,21501.0,18731.0,21369.0,19382.0,0.0,0.0,0.0
1.2327995300292969,0.015750625585063426,0.057271897099223035,0.47219198285164266,0.05146911664600689,-0.005842303056913299,0.1958473702106499,0.021388812107971614,0.026546287799281695,-0.007081759490657093,0.0,0.0,0.0,21501.0,18731.0,21369.0,19382.0,0.0,0.0,0.0
1.2383506298065186,0.016379384437200304,0.05831483348004978,0.4821004078595982,0.056596944890516615,0.00567850391980541,0.2947852480543583,0.02245973724093192,0.02483837493993799,-0.007187651889326216,0.0,0.0,0.0,21501.0,18731.0,21369.0,19382.0,0.0,0.0,0.0
1.243880033493042,0.016599685849042305,0.05785190697945173,0.4796244873703306,0.0601909618651691,0.016724725146096873,0.3834032340903851,0.022596692629645504,0.022367457921763315,-0.007066725276104555,0.0,0.0,0.0,18600.0,20544.0,18971.0,22202.0,0.0,0.0,0.0
1.249223232269287,0.015879790798721028,0.05417838889738954,0.450463512052871,0.05823916382271927,0.0192125748356455,0.38783781946621987,0.02120800707435517,0.01874797683433603,-0.006542571889817145,0.0,0.0,0.0,18600.0,20544.0,18971.0,22202.0,0.0,0.0,0.0
1.2548606395721436,0.017924908480047574,0.05989596991527574,0.4994329341490481,0.06526604094666046,0.020714247930316725,0.42426533084340795,0.023394500893454885,0.018321078217150358,-0.007144342495115903,0.0,0.0,0.0,21174.0,18250.0,21479.0,19542.0,0.0,0.0,0.0
1.2603678703308105,0.017478453654813136,0.05723174407736547,0.4785749612459066,0.06479803459720482,0.024632145624279546,0.4459001371992395,0.022293741750355492,0.015363025343249733,-0.006753873019649327,0.0,0.0,0.0,21150.0,18417.0,21549.0,19344.0,0.0,0.0,0.0
1.2658088207244873,0.01739843141114932,0.05583525921814364,0.46825242168761727,0.06464764442275894,0.02576485713415904,0.4497504756710791,0.021567146227067555,0.01301405933619027,-0.006527717290294353,0.0,0.0,0.0,21150.0,18417.0,21549.0,19344.0,0.0,0.0,0.0
1.2712743282318115,0.017877182994938755,0.05621768906974241,0.47290619819985447,0.06437787386592125,0.02055197112134063,0.4085142952291267,0.02120767561571045,0.011130904259028171,-0.0065191522394460405,0.0,0.0,0.0,18441.0,20685.0,18935.0,21791.0,0.0,0.0,0.0
1.2766966819763184,0.017954442890226734,0.055303056535122706,0.4667309060252556,0.06226064981356727,0.01367354690429327,0.3484786660963275,0.019927996780664033,0.008991300671042155,-0.0063556806623481284,0.0,0.0,0.0,18441.0,20685.0,18935.0,21791.0,0.0,0.0,0.0
1.282113790512085,0.01828129459698373,0.055143670653155376,0.46697066846254826,0.06076318689162957,0.006225505510919693,0.2875877666775531,0.018542992681993373,0.0070364895030661494,-0.006254021081176791,0.0,0.0,0.0,21020.0,18800.0,21560.0,19113.0,0.0,0.0,0.0
