T,input Acc,input Wb1,input Wb2,input Wb3,Px,Py,Pz,Vx,Vy,Vz,Roll,Pitch,Yaw,R_rate,P_rate,Y_rate,Wb1,Wb2,Wb3
0,11.81,0.13829863398340464,0.015110539327312824,0.03685119478372511,0.0,0.0,0.2,0.0,0.0,0.0,0.0,0.0,0.0,0.0,0.0,0.0,0.0,0.0,0.0
0.00022411346435546875,11.03996687262635,-0.2528725540490466,0.3919206279824413,0.04482544080269737,0.0,0.0,0.2,0.0,0.0,0.0,0.0,0.0,0.0,0.0,0.0,0.0,0.0,0.0,0.0
0.010632991790771484,11.045011767204645,-0.25373952064051214,0.3949668769196311,0.0450375382862569,0.0,0.0,0.2,0.0,0.0,0.0,0.0,0.0,0.0,0.0,0.0,0.0,0.0,0.0,0.0
0.02101755142211914,11.050343917650133,-0.2553064474265583,0.3953245450693676,0.046060134566654025,0.0,0.0,0.2,0.0,0.0,0.0,0.0,0.0,0.0,0.0,0.0,0.0,0.0,0.0,0.0
0.03157305717468262,11.056546174507748,-0.2576529320317194,0.3963899890310139,0.045058186981571,0.0,0.0,0.2,0.0,0.0,0.0,0.0,0.0,0.0,0.0,0.0,0.0,0.0,0.0,0.0
0.04204750061035156,11.063135499019246,-0.25794148398778677,0.3977794986100831,0.04522681019243602,0.0,0.0,0.2,0.0,0.0,0.0,0.0,0.0,0.0,0.0,0.0,0.0,0.0,0.0,0.0
0.052660465240478516,11.06904013239878,-0.25944085213101814,0.39932364955938743,0.044899741100212595,0.0,0.0,0.2,0.0,0.0,0.0,0.0,0.0,0.0,0.0,0.0,0.0,0.0,0.0,0.0
0.06363511085510254,11.074280968585605,-0.2613963991231545,0.40237716791182637,0.045997144518537994,0.0,0.0,0.2,0.0,0.0,0.0,0.0,0.0,0.0,0.0,0.0,0.0,0.0,0.0,0.0
0.07494926452636719,11.07927799814531,-0.2617641239091387,0.4048710304811633,0.046282432363375925,0.0,0.0,0.2,0.0,0.0,0.0,0.0,0.0,0.0,0.0,0.0,0.0,0.0,0.0,0.0
0.08536744117736816,11.08586323543249,-0.2626990092844192,0.40492311359516536,0.04586011706102037,0.0,0.0,0.2,0.0,0.0,0.0,0.0,0.0,0.0,0.0,0.0,0.0,0.0,0.0,0.0
0.09600305557250977,11.092949927932692,-0.26363256550679676,0.40648835441906606,0.045896204639697034,0.0,0.0,0.2,0.0,0.0,0.0,0.0,0.0,0.0,0.0,0.0,0.0,0.0,0.0,0.0
0.1066584587097168,11.100903199274983,-0.26311018408820874,0.40955640505232466,0.04703137531526878,0.0,0.0,0.2,0.0,0.0,0.0,0.0,0.0,0.0,0.0,0.0,0.0,0.0,0.0,0.0
0.11706924438476562,11.108357892227307,-0.26416219425541165,0.41068717007391786,0.046146845520393644,0.0,0.0,0.2,0.0,0.0,0.0,0.0,0.0,0.0,0.0,0.0,0.0,0.0,0.0,0.0
0.1275498867034912,11.113600056587883,-0.26768159823517834,0.41052263367099123,0.04460875247156944,0.0,0.0,0.2,0.0,0.0,0.0,0.0,0.0,0.0,0.0,0.0,0.0,0.0,0.0,0.0
0.13791298866271973,11.122335806937233,-0.25446704384701885,0.41843869094679725,0.034665871987702906,0.0,0.0,0.2,0.0,0.0,0.0,0.0,0.0,0.0,0.0,0.0,0.0,0.0,0.0,0.0
0.1483304500579834,11.136299301607593,-0.25982750869949683,0.4032806936160354,0.03331435973357139,0.0,0.0,0.2,0.0,0.0,0.0,0.0,0.0,0.0,0.0,0.0,0.0,0.0,0.0,0.0
0.15889501571655273,11.151777551536092,-0.26671510200612913,0.3976012681419914,0.030170845817339146,0.0,0.0,0.2,0.0,0.0,0.0,0.0,0.0,0.0,0.0,0.0,0.0,0.0,0.0,0.0
0.16928815841674805,11.163219897429716,-0.27444303867801345,0.4007259617621301,0.02378438981403999,0.0,0.0,0.2,0.0,0.0,0.0,0.0,0.0,0.0,0.0,0.0,0.0,0.0,0.0,0.0
0.17982888221740723,11.171663619562931,-0.27709269176215223,0.40735701687985904,0.016607913349729022,0.0,0.0,0.2,0.0,0.0,0.0,0.0,0.0,0.0,0.0,0.0,0.0,0.0,0.0,0.0
0.19075775146484375,11.178663461603035,-0.28182195891633044,0.41325378256394335,-0.005095073307841231,0.0,0.0,0.2,0.0,0.0,0.0,0.0,0.0,0.0,0.0,0.0,0.0,0.0,0.0,0.0
0.20116853713989258,11.180730360835224,-0.2825440800874022,0.42360889941727503,-0.01143701377394655,0.0,0.0,0.2,0.0,0.0,0.0,0.0,0.0,0.0,0.0,0.0,0.0,0.0,0.0,0.0
0.2116994857788086,11.18563091700393,-0.2822517678934711,0.4323968751025406,-0.015632138417095976,0.0,0.0,0.2,0.0,0.0,0.0,0.0,0.0,0.0,0.0,0.0,0.0,0.0,0.0,0.0
0.22219181060791016,11.191774097013854,-0.28895642720971115,0.43799234447321256,-0.012061448555769074,0.0,0.0,0.2,0.0,0.0,0.0,0.0,0.0,0.0,0.0,0.0,0.0,0.0,0.0,0.0
0.23289752006530762,11.199674404612324,-0.29568686299721864,0.44503139906379,-0.0067159819875222,0.0,0.0,0.2,0.0,0.0,0.0,0.0,0.0,0.0,0.0,0.0,0.0,0.0,0.0,0.0
0.243330717086792,11.200370156788109,-0.3076163950650664,0.4425569299168797,0.0037599689236637594,0.0,0.0,0.2,0.0,0.0,0.0,0.0,0.0,0.0,0.0,0.0,0.0,0.0,0.0,0.0
0.25373029708862305,11.197232509594834,-0.31159223665957547,0.44869100221929464,0.013205265601012121,0.0,0.0,0.2,0.0,0.0,0.0,0.0,0.0,0.0,0.0,0.0,0.0,0.0,0.0,0.0
0.2646017074584961,11.20174023256988,-0.3192454742524927,0.46189046758719277,0.0311110987101368,0.0,0.0,0.2,0.0,0.0,0.0,0.0,0.0,0.0,0.0,0.0,0.0,0.0,0.0,0.0
0.27541160583496094,11.210710539648463,-0.3388925838632557,0.4478846283569845,0.045308347521132795,0.0,0.0,0.2,0.0,0.0,0.0,0.0,0.0,0.0,0.0,0.0,0.0,0.0,0.0,0.0
0.2858254909515381,11.215790384817515,-0.35286246629552825,0.4406188010384907,0.054844863339842696,0.0,0.0,0.2,0.0,0.0,0.0,0.0,0.0,0.0,0.0,0.0,0.0,0.0,0.0,0.0
0.29625439643859863,11.223940973650263,-0.35664633935342827,0.44577829615239856,0.0574294944464577,0.0,0.0,0.2,0.0,0.0,0.0,0.0,0.0,0.0,0.0,0.0,0.0,0.0,0.0,0.0
0.3068115711212158,11.224022164143792,-0.35291312654548634,0.4582793588239613,0.06794340126713751,0.0,0.0,0.2,0.0,0.0,0.0,0.0,0.0,0.0,0.0,0.0,0.0,0.0,0.0,0.0
0.31721925735473633,11.221645032773106,-0.35681800665995683,0.4644089533008936,0.06878910571848582,0.0,0.0,0.2,0.0,0.0,0.0,0.0,0.0,0.0,0.0,0.0,0.0,0.0,0.0,0.0
0.3276638984680176,11.214311835005898,-0.37249715070882466,0.456159783458971,0.07417700246401292,0.0,0.0,0.2,0.0,0.0,0.0,0.0,0.0,0.0,0.0,0.0,0.0,0.0,0.0,0.0
0.33817052841186523,11.21776493568844,-0.3692418541630621,0.46682275647305344,0.06759143667677489,0.0,0.0,0.2,0.0,0.0,0.0,0.0,0.0,0.0,0.0,0.0,0.0,0.0,0.0,0.0
0.3487708568572998,11.21924223706992,-0.38022866638567393,0.45659392091984274,0.0680923464481557,0.0,0.0,0.2,0.0,0.0,0.0,0.0,0.0,0.0,0.0,0.0,0.0,0.0,0.0,0.0
0.35926032066345215,11.235329406972015,-0.39363118038724015,0.4315738028873071,0.06280115667150707,0.0,0.0,0.2,0.0,0.0,0.0,0.0,0.0,0.0,0.0,0.0,0.0,0.0,0.0,0.0
0.36965107917785645,11.251178368534644,-0.3575884256021799,0.44142408077404455,0.05208761715549573,0.0,0.0,0.2,0.0,0.0,0.0,0.0,0.0,0.0,0.0,0.0,0.0,0.0,0.0,0.0
0.38019490242004395,11.264005344416525,-0.3461149761471876,0.43285634751738933,0.046445646394389715,0.0,0.0,0.2,0.0,0.0,0.0,0.0,0.0,0.0,0.0,0.0,0.0,0.0,0.0,0.0
0.391315221786499,11.268489062863576,-0.384041955662521,0.39405614049381177,0.040103021622032914,0.0,0.0,0.2,0.0,0.0,0.0,0.0,0.0,0.0,0.0,0.0,0.0,0.0,0.0,0.0
0.4016711711883545,11.266301780900774,-0.3524909393486084,0.4380788478836073,0.026164088578372866,0.0,0.0,0.2,0.0,0.0,0.0,0.0,0.0,0.0,0.0,0.0,0.0,0.0,0.0,0.0
0.41262197494506836,11.263653160524811,-0.37181272543320637,0.4298004902274247,0.027314990129682408,0.0,0.0,0.2,0.0,0.0,0.0,0.0,0.0,0.0,0.0,0.0,0.0,0.0,0.0,0.0
0.4236290454864502,11.26729912883952,-0.367467324871946,0.4403347969449524,0.01702143537087456,0.0,0.0,0.2,0.0,0.0,0.0,0.0,0.0,0.0,0.0,0.0,0.0,0.0,0.0,0.0
0.4340693950653076,11.292024346746386,-0.40428686798163765,0.5340121768999864,0.031258688932694345,0.0,0.0,0.2,0.0,0.0,0.0,0.0,0.0,0.0,0.0,0.0,0.0,0.0,0.0,0.0
0.44489002227783203,11.310880493469142,-0.30739137272271244,0.4361039543852556,0.011729653113620148,0.0,0.0,0.2,0.0,0.0,0.0,0.0,0.0,0.0,0.0,0.0,0.0,0.0,0.0,0.0
0.4555330276489258,11.317081627572582,-0.30831004535595957,0.4437774280779633,0.011704011959360567,0.0,0.0,0.2,0.0,0.0,0.0,0.0,0.0,0.0,0.0,0.0,0.0,0.0,0.0,0.0
0.4660375118255615,11.313049636355144,-0.32837724722783496,0.45339009347146986,0.013577703664998813,0.0,0.0,0.2,0.0,0.0,0.0,0.0,0.0,0.0,0.0,0.0,0.0,0.0,0.0,0.0
0.4765312671661377,11.313010832627075,-0.3410841960458107,0.461628206899193,0.015630243044351812,0.0,0.0,0.2,0.0,0.0,0.0,0.0,0.0,0.0,0.0,0.0,0.0,0.0,0.0,0.0
0.48693394660949707,11.325881726801516,-0.3339875454705982,0.4783291364955193,0.020074607421565787,0.0,0.0,0.2,0.0,0.0,0.0,0.0,0.0,0.0,0.0,0.0,0.0,0.0,0.0,0.0
0.49736714363098145,11.34764028684168,-0.33256287466311607,0.4702154431561667,0.029242385597599622,0.0,0.0,0.2,0.0,0.0,0.0,0.0,0.0,0.0,0.0,0.0,0.0,0.0,0.0,0.0
0.508213996887207,11.370772307367478,-0.33425974537839503,0.45993011073424644,0.03388876514234665,0.0,0.0,0.2,0.0,0.0,0.0,0.0,0.0,0.0,0.0,0.0,0.0,0.0,0.0,0.0
0.5187869071960449,11.381358067796947,-0.3335570945317907,0.455088729181507,0.038139788252708744,0.0,0.0,0.2,0.0,0.0,0.0,0.0,0.0,0.0,0.0,0.0,0.0,0.0,0.0,0.0
0.5294201374053955,11.387673249797217,-0.33186217366904575,0.4548552583361692,0.043858356663020896,0.0,0.0,0.2,0.0,0.0,0.0,0.0,0.0,0.0,0.0,0.0,0.0,0.0,0.0,0.0
0.540367603302002,11.392646297774201,-0.3383251195371208,0.4561618165320435,0.04859987421138454,0.0,0.0,0.2,0.0,0.0,0.0,0.0,0.0,0.0,0.0,0.0,0.0,0.0,0.0,0.0
0.5509800910949707,11.392508389237706,-0.34700964440654497,0.46361207615631533,0.05487497353469845,0.0,0.0,0.2,0.0,0.0,0.0,0.0,0.0,0.0,0.0,0.0,0.0,0.0,0.0,0.0
0.5616552829742432,11.393660751934345,-0.35475752351214607,0.47796234202004656,0.05394351962687848,0.0,0.0,0.2,0.0,0.0,0.0,0.0,0.0,0.0,0.0,0.0,0.0,0.0,0.0,0.0
0.5724351406097412,11.394015950535426,-0.35860072735953535,0.48498121546980477,0.05720330990207359,0.0,0.0,0.2,0.0,0.0,0.0,0.0,0.0,0.0,0.0,0.0,0.0,0.0,0.0,0.0
0.5833323001861572,11.395122522099395,-0.3647039086577089,0.4888306813249724,0.054518435434428844,0.0,0.0,0.2,0.0,0.0,0.0,0.0,0.0,0.0,0.0,0.0,0.0,0.0,0.0,0.0
0.5941693782806396,11.387566038886561,-0.37153230903823187,0.4829079692729401,0.05319366872300541,0.0,0.0,0.2,0.0,0.0,0.0,0.0,0.0,0.0,0.0,0.0,0.0,0.0,0.0,0.0
0.604778528213501,11.377282069596822,-0.36305520087558885,0.492061289157905,0.05112796558151817,0.0,0.0,0.2,0.0,0.0,0.0,0.0,0.0,0.0,0.0,0.0,0.0,0.0,0.0,0.0
0.6153085231781006,11.377962255896204,-0.35814616682623684,0.5034866417490808,0.0401302414125978,0.0,0.0,0.2,0.0,0.0,0.0,0.0,0.0,0.0,0.0,0.0,0.0,0.0,0.0,0.0
0.6259393692016602,11.391921139594281,-0.36563339154076346,0.49549549954408095,0.037422486407326525,0.0,0.0,0.2,0.0,0.0,0.0,0.0,0.0,0.0,0.0,0.0,0.0,0.0,0.0,0.0
0.6363286972045898,11.385452517400447,-0.3390874533466973,0.5249400179668255,0.04931532497139018,0.0,0.0,0.2,0.0,0.0,0.0,0.0,0.0,0.0,0.0,0.0,0.0,0.0,0.0,0.0
0.6469295024871826,11.360888596464365,-0.32645455696133635,0.5427887741368057,0.039087304581032226,0.0,0.0,0.2,0.0,0.0,0.0,0.0,0.0,0.0,0.0,0.0,0.0,0.0,0.0,0.0
0.6580038070678711,11.336131491276227,-0.33493346449632155,0.5315119834689122,0.03449105768142983,0.0,0.0,0.2,0.0,0.0,0.0,0.0,0.0,0.0,0.0,0.0,0.0,0.0,0.0,0.0
0.6683993339538574,11.340471680847738,-0.3664371130876939,0.5045445988442013,0.040337536107319036,0.0,0.0,0.2,0.0,0.0,0.0,0.0,0.0,0.0,0.0,0.0,0.0,0.0,0.0,0.0
0.6790256500244141,11.339239403430065,-0.36844065672587345,0.5239435454233934,0.035982341249996636,0.0,0.0,0.2,0.0,0.0,0.0,0.0,0.0,0.0,0.0,0.0,0.0,0.0,0.0,0.0
0.6897273063659668,11.348449844295452,-0.38106716563986565,0.5380997849353197,0.037950671912971704,0.0,0.0,0.2,0.0,0.0,0.0,0.0,0.0,0.0,0.0,0.0,0.0,0.0,0.0,0.0
0.7001891136169434,11.369521543091773,-0.3868694973975249,0.5482889590713612,0.0447397037806498,0.0,0.0,0.2,0.0,0.0,0.0,0.0,0.0,0.0,0.0,0.0,0.0,0.0,0.0,0.0
0.7109684944152832,11.391849027928394,-0.368875447324098,0.5714865951339021,0.03858530104076449,0.0,0.0,0.2,0.0,0.0,0.0,0.0,0.0,0.0,0.0,0.0,0.0,0.0,0.0,0.0
0.721731424331665,11.423580069865167,-0.36354614407093605,0.5596985486396203,0.040009604572253187,0.0,0.0,0.2,0.0,0.0,0.0,0.0,0.0,0.0,0.0,0.0,0.0,0.0,0.0,0.0
0.732264518737793,11.456174877426069,-0.36001165805195934,0.5455003949342622,0.04807511213990747,0.0,0.0,0.2,0.0,0.0,0.0,0.0,0.0,0.0,0.0,0.0,0.0,0.0,0.0,0.0
0.7427723407745361,11.481763747452176,-0.35812506302328834,0.5403564909901419,0.050857287865188366,0.0,0.0,0.2,0.0,0.0,0.0,0.0,0.0,0.0,0.0,0.0,0.0,0.0,0.0,0.0
0.7531096935272217,11.499757930359944,-0.3587654013417307,0.5365590617906753,0.05175990610331704,0.0,0.0,0.2,0.0,0.0,0.0,0.0,0.0,0.0,0.0,0.0,0.0,0.0,0.0,0.0
0.7636263370513916,11.513005311395757,-0.3553438474744566,0.5406839229568343,0.05480925630154893,0.0,0.0,0.2,0.0,0.0,0.0,0.0,0.0,0.0,0.0,0.0,0.0,0.0,0.0,0.0
0.7748367786407471,11.525548594138598,-0.3532478933434242,0.5418697584484722,0.057939299307207495,0.0,0.0,0.2,0.0,0.0,0.0,0.0,0.0,0.0,0.0,0.0,0.0,0.0,0.0,0.0
0.7854185104370117,11.52841337331815,-0.35100848062311535,0.5487668201570628,0.059960554581961804,0.0,0.0,0.2,0.0,0.0,0.0,0.0,0.0,0.0,0.0,0.0,0.0,0.0,0.0,0.0
0.7960495948791504,11.534935395940119,-0.3504449740371809,0.5537787581462627,0.062610875997657,0.0,0.0,0.2,0.0,0.0,0.0,0.0,0.0,0.0,0.0,0.0,0.0,0.0,0.0,0.0
0.8069679737091064,11.54965142125237,-0.3643363327736471,0.5405340538546548,0.04324868925715517,0.0,0.0,0.2,0.0,0.0,0.0,0.0,0.0,0.0,0.0,0.0,0.0,0.0,0.0,0.0
0.8173511028289795,11.561197371894261,-0.34919951230493307,0.5529978946401899,0.04223766069216505,0.0,0.0,0.2,0.0,0.0,0.0,0.0,0.0,0.0,0.0,0.0,0.0,0.0,0.0,0.0
0.8279383182525635,11.579981112402765,-0.3531149966966102,0.5473183688377957,0.05728632654082109,0.0,0.0,0.2,0.0,0.0,0.0,0.0,0.0,0.0,0.0,0.0,0.0,0.0,0.0,0.0
0.8383598327636719,11.594676129618211,-0.35891069693445005,0.535920884803087,0.04672613321028006,0.0,0.0,0.2,0.0,0.0,0.0,0.0,0.0,0.0,0.0,0.0,0.0,0.0,0.0,0.0
0.8489687442779541,11.599169241877865,-0.32756254208366586,0.5578559590301733,0.03562645313985423,0.0,0.0,0.2,0.0,0.0,0.0,0.0,0.0,0.0,0.0,0.0,0.0,0.0,0.0,0.0
0.859410285949707,11.5935246974439,-0.3496424099804564,0.5376274690209409,0.0389299672576505,0.0,0.0,0.2,0.0,0.0,0.0,0.0,0.0,0.0,0.0,0.0,0.0,0.0,0.0,0.0
0.8697803020477295,11.581995939719382,-0.3211281737362067,0.5600426173232966,0.030442886016988538,0.0,0.0,0.2,0.0,0.0,0.0,0.0,0.0,0.0,0.0,0.0,0.0,0.0,0.0,0.0
0.8802387714385986,11.577380427028041,-0.34900355753605855,0.5369357659595136,0.03546757715499345,0.0,0.0,0.2,0.0,0.0,0.0,0.0,0.0,0.0,0.0,0.0,0.0,0.0,0.0,0.0
0.8913912773132324,11.576107521714693,-0.34823142210619706,0.5320731207966837,0.03308363190150961,0.0,0.0,0.2,0.0,0.0,0.0,0.0,0.0,0.0,0.0,0.0,0.0,0.0,0.0,0.0
0.9017848968505859,11.575635596724444,-0.3569587940541271,0.5269017361117923,0.03226748224691904,0.0,0.0,0.2,0.0,0.0,0.0,0.0,0.0,0.0,0.0,0.0,0.0,0.0,0.0,0.0
0.9122989177703857,11.576989673597465,-0.36723193570256774,0.5248545373275855,0.03266172589202607,0.0,0.0,0.2,0.0,0.0,0.0,0.0,0.0,0.0,0.0,0.0,0.0,0.0,0.0,0.0
0.9230818748474121,11.5862514584284,-0.4592701982877998,0.6103927932980074,0.03497295222501883,0.0,0.0,0.2,0.0,0.0,0.0,0.0,0.0,0.0,0.0,0.0,0.0,0.0,0.0,0.0
0.9334695339202881,11.585694292509222,-0.3594402764486002,0.519190675919245,0.03780910310738399,0.0,0.0,0.2,0.0,0.0,0.0,0.0,0.0,0.0,0.0,0.0,0.0,0.0,0.0,0.0
0.9439475536346436,11.584298605384454,-0.36131394880033957,0.5424755155256095,0.035589017006832716,0.0,0.0,0.2,0.0,0.0,0.0,0.0,0.0,0.0,0.0,0.0,0.0,0.0,0.0,0.0
0.9543876647949219,11.587460509225025,-0.3948324866976152,0.5528701177007799,0.0407425915770447,0.0,0.0,0.2,0.0,0.0,0.0,0.0,0.0,0.0,0.0,0.0,0.0,0.0,0.0,0.0
0.964984655380249,11.597377827486685,-0.4175618758292678,0.5567528199666771,0.04883087902027256,0.0,0.0,0.2,0.0,0.0,0.0,0.0,0.0,0.0,0.0,0.0,0.0,0.0,0.0,0.0
0.9754059314727783,11.602642122101809,-0.42016178931839515,0.5554960118997418,0.049517478547451296,0.0,0.0,0.2,0.0,0.0,0.0,0.0,0.0,0.0,0.0,0.0,0.0,0.0,0.0,0.0
0.9857876300811768,11.596767923719053,-0.40214378634013814,0.5674323528975144,0.047393088737661376,0.0,0.0,0.2,0.0,0.0,0.0,0.0,0.0,0.0,0.0,0.0,0.0,0.0,0.0,0.0
0.9964215755462646,11.601316484564741,-0.504189882871493,0.6364044049599991,-0.01994448952882921,0.0,0.0,0.2,0.0,0.0,0.0,0.0,0.0,0.0,0.0,0.0,0.0,0.0,0.0,0.0
1.0071518421173096,11.609041422045056,-0.39610351131217286,0.5190747429877912,0.047063852652132,0.0,0.0,0.2,0.0,0.0,0.0,0.0,0.0,0.0,0.0,0.0,0.0,0.0,0.0,0.0
1.0175344944000244,11.64685726637308,-0.42480180466244805,0.5856452058510404,0.037809713428309535,0.0,0.0,0.2,0.0,0.0,0.0,0.0,0.0,0.0,0.0,0.0,0.0,0.0,0.0,0.0
1.0279910564422607,11.669392796948475,-0.45219670839974,0.5237999941928484,0.045904473645633,0.0,0.0,0.2,0.0,0.0,0.0,0.0,0.0,0.0,0.0,0.0,0.0,0.0,0.0,0.0
1.0386109352111816,11.67245513954791,-0.45622084203727953,0.537073934920559,0.04444292748495195,0.0,0.0,0.2,0.0,0.0,0.0,0.0,0.0,0.0,0.0,0.0,0.0,0.0,0.0,0.0
1.0491182804107666,11.64678513765544,-0.47430567304508636,0.5265246251571838,0.04341976001151433,0.0,0.0,0.2,0.0,0.0,0.0,0.0,0.0,0.0,0.0,0.0,0.0,0.0,0.0,0.0
1.0599005222320557,11.628832940559972,-0.4732849047935123,0.542068438480932,0.04349476357099319,0.0,0.0,0.2,0.0,0.0,0.0,0.0,0.0,0.0,0.0,0.0,0.0,0.0,0.0,0.0
1.0704944133758545,11.628763972661469,-0.4613685611738463,0.5557228697815615,0.0373392104889491,0.0,0.0,0.2,0.0,0.0,0.0,0.0,0.0,0.0,0.0,0.0,0.0,0.0,0.0,0.0
1.0809378623962402,11.640435128059067,-0.46466272292320226,0.5439547975827986,0.03664387850807092,0.0,0.0,0.2,0.0,0.0,0.0,0.0,0.0,0.0,0.0,0.0,0.0,0.0,0.0,0.0
1.091444492340088,11.653472344895594,-0.4526008930163564,0.5485118049713034,0.03485147345081826,0.0,0.0,0.2,0.0,0.0,0.0,0.0,0.0,0.0,0.0,0.0,0.0,0.0,0.0,0.0
1.1018290519714355,11.665669316388582,-0.4495330229078543,0.5403348438901424,0.0337796519615099,0.0,0.0,0.2,0.0,0.0,0.0,0.0,0.0,0.0,0.0,0.0,0.0,0.0,0.0,0.0
1.1122996807098389,11.67038059773126,-0.4592679956025451,0.5301535416864563,0.03764228458835026,0.0,0.0,0.2,0.0,0.0,0.0,0.0,0.0,0.0,0.0,0.0,0.0,0.0,0.0,0.0
1.1231017112731934,11.668369732849657,-0.4576374505336866,0.5435352741934872,0.03759181064966238,0.0,0.0,0.2,0.0,0.0,0.0,0.0,0.0,0.0,0.0,0.0,0.0,0.0,0.0,0.0
1.1334824562072754,11.663256000411458,-0.427642938491089,0.5843993543277486,0.0338651945646355,0.0,0.0,0.2,0.0,0.0,0.0,0.0,0.0,0.0,0.0,0.0,0.0,0.0,0.0,0.0
1.1442253589630127,11.66681038528089,-0.44151536162914645,0.5703818526985809,0.036897901018741956,0.0,0.0,0.2,0.0,0.0,0.0,0.0,0.0,0.0,0.0,0.0,0.0,0.0,0.0,0.0
1.155247449874878,11.678555999940201,-0.44559918165227963,0.5549255974580491,0.040994711217597735,0.0,0.0,0.2,0.0,0.0,0.0,0.0,0.0,0.0,0.0,0.0,0.0,0.0,0.0,0.0
1.1657886505126953,11.700566441360104,-0.4338948342329145,0.5585367288339596,0.041444973890854525,0.0,0.0,0.2,0.0,0.0,0.0,0.0,0.0,0.0,0.0,0.0,0.0,0.0,0.0,0.0
1.176628589630127,11.71830552122585,-0.42987963457987255,0.5487130581444405,0.04386471303760273,0.0,0.0,0.2,0.0,0.0,0.0,0.0,0.0,0.0,0.0,0.0,0.0,0.0,0.0,0.0
1.1872038841247559,11.72934253920581,-0.4419989244105337,0.53747725069619,0.046887477418896914,0.0,0.0,0.2,0.0,0.0,0.0,0.0,0.0,0.0,0.0,0.0,0.0,0.0,0.0,0.0
1.1976861953735352,11.731200720368047,-0.4414019845356863,0.5477836335705278,0.04778924614716186,0.0,0.0,0.2,0.0,0.0,0.0,0.0,0.0,0.0,0.0,0.0,0.0,0.0,0.0,0.0
1.2084131240844727,11.73210801852673,-0.4398410378723436,0.5610324051471507,0.049273149324718435,0.0,0.0,0.2,0.0,0.0,0.0,0.0,0.0,0.0,0.0,0.0,0.0,0.0,0.0,0.0
1.219071865081787,11.73424737888848,-0.40112350511377043,0.59790419940571,0.04216112809318693,0.0,0.0,0.2,0.0,0.0,0.0,0.0,0.0,0.0,0.0,0.0,0.0,0.0,0.0,0.0
1.2298688888549805,11.755062055101709,-0.5394248789806049,0.6440975367950682,0.033807305432158694,0.0,0.0,0.2,0.0,0.0,0.0,0.0,0.0,0.0,0.0,0.0,0.0,0.0,0.0,0.0
1.2407817840576172,11.7663649520028,-0.3655679891163732,0.5782719016996095,0.04594405721204636,0.0,0.0,0.2,0.0,0.0,0.0,0.0,0.0,0.0,0.0,0.0,0.0,0.0,0.0,0.0
1.2512946128845215,11.769566987412803,-0.39512947712370494,0.5709305844919746,0.051796998937449504,0.0,0.0,0.2,0.0,0.0,0.0,0.0,0.0,0.0,0.0,0.0,0.0,0.0,0.0,0.0
1.2618823051452637,11.760056980441716,-0.39182025421381467,0.6120640371251338,0.04731782471013204,0.0,0.0,0.2,0.0,0.0,0.0,0.0,0.0,0.0,0.0,0.0,0.0,0.0,0.0,0.0
1.2726478576660156,11.756695635446368,-0.40052680944945745,0.633438607667409,0.0458406545043687,0.0,0.0,0.2,0.0,0.0,0.0,0.0,0.0,0.0,0.0,0.0,0.0,0.0,0.0,0.0
1.2831330299377441,11.759358355644018,-0.4088244749243729,0.6414207622029147,0.04518033732390473,0.0,0.0,0.2,0.0,0.0,0.0,0.0,0.0,0.0,0.0,0.0,0.0,0.0,0.0,0.0
1.2937510013580322,11.774421829218863,-0.446586028752568,0.6131512613912243,0.04542429660647009,0.0,0.0,0.2,0.0,0.0,0.0,0.0,0.0,0.0,0.0,0.0,0.0,0.0,0.0,0.0
1.3044545650482178,11.787922673155943,-0.42497227292176987,0.6387827535324035,0.04422080332340546,0.0,0.0,0.2,0.0,0.0,0.0,0.0,0.0,0.0,0.0,0.0,0.0,0.0,0.0,0.0
1.3149802684783936,11.790093467239604,-0.4743548673455146,0.5978765838764651,0.044344176951967615,0.0,0.0,0.2,0.0,0.0,0.0,0.0,0.0,0.0,0.0,0.0,0.0,0.0,0.0,0.0
1.3254516124725342,11.816933708749506,-0.4255533703921138,0.595561904525745,0.05892708191749346,0.0,0.0,0.2,0.0,0.0,0.0,0.0,0.0,0.0,0.0,0.0,0.0,0.0,0.0,0.0
1.3359932899475098,11.870556349698044,-0.44240173643189046,0.5879174582624669,0.05981297210745706,0.0,0.0,0.2,0.0,0.0,0.0,0.0,0.0,0.0,0.0,0.0,0.0,0.0,0.0,0.0
1.3466763496398926,11.92889934394077,-0.45301047764193864,0.5878226259408202,0.062202408397818286,0.0,0.0,0.2,0.0,0.0,0.0,0.0,0.0,0.0,0.0,0.0,0.0,0.0,0.0,0.0
1.357666015625,11.963834157181145,-0.47074592194059073,0.5787143578424655,0.058746235079553406,0.0,0.0,0.2,0.0,0.0,0.0,0.0,0.0,0.0,0.0,0.0,0.0,0.0,0.0,0.0
1.3680753707885742,11.959382593517756,-0.47362255982109647,0.5710427310213558,0.05871646283540253,0.0,0.0,0.2,0.0,0.0,0.0,0.0,0.0,0.0,0.0,0.0,0.0,0.0,0.0,0.0
1.3785068988800049,11.947040671902462,-0.6492501427764439,0.6719112295759697,0.033351872447626454,0.0,0.0,0.2,0.0,0.0,0.0,0.0,0.0,0.0,0.0,0.0,0.0,0.0,0.0,0.0
1.3889648914337158,11.933126802704148,-0.44752557902266143,0.5433243217285176,0.04882203053684049,0.0,0.0,0.2,0.0,0.0,0.0,0.0,0.0,0.0,0.0,0.0,0.0,0.0,0.0,0.0
1.3995091915130615,11.9200001658897,-0.4617625073334041,0.5295061736436002,0.043780814353576246,0.0,0.0,0.2,0.0,0.0,0.0,0.0,0.0,0.0,0.0,0.0,0.0,0.0,0.0,0.0
1.4099056720733643,11.907642216266403,-0.47789883773905495,0.5297760538938515,0.042676479424666694,0.0,0.0,0.2,0.0,0.0,0.0,0.0,0.0,0.0,0.0,0.0,0.0,0.0,0.0,0.0
1.4202911853790283,11.88532372954874,-0.4695347918000632,0.55372194381885,0.03093297807051244,0.0,0.0,0.2,0.0,0.0,0.0,0.0,0.0,0.0,0.0,0.0,0.0,0.0,0.0,0.0
1.4307339191436768,11.855465857427625,-0.46240008820887907,0.5710239961162416,0.046829744090795086,0.0,0.0,0.2,0.0,0.0,0.0,0.0,0.0,0.0,0.0,0.0,0.0,0.0,0.0,0.0
1.4416849613189697,11.824312746545672,-0.4834264577980854,0.5805603681769715,0.05253686784238941,0.0,0.0,0.2,0.0,0.0,0.0,0.0,0.0,0.0,0.0,0.0,0.0,0.0,0.0,0.0
1.452111005783081,11.815353094482367,-0.46789826055360634,0.6047595726484917,0.05197586136292744,0.0,0.0,0.2,0.0,0.0,0.0,0.0,0.0,0.0,0.0,0.0,0.0,0.0,0.0,0.0
1.4626743793487549,11.81487515907602,-0.4537122231177323,0.625580792623233,0.05167115880928019,0.0,0.0,0.2,0.0,0.0,0.0,0.0,0.0,0.0,0.0,0.0,0.0,0.0,0.0,0.0
1.4736261367797852,11.821320017694012,-0.4519020742255766,0.6302479911285537,0.04122769199211012,0.0,0.0,0.2,0.0,0.0,0.0,0.0,0.0,0.0,0.0,0.0,0.0,0.0,0.0,0.0
1.484123945236206,11.843236271580505,-0.458377810944516,0.624570796668627,0.049345809222258695,0.0,0.0,0.2,0.0,0.0,0.0,0.0,0.0,0.0,0.0,0.0,0.0,0.0,0.0,0.0
1.4946715831756592,11.858471641988464,-0.4605741713991118,0.624291036807922,0.04806743661022559,0.0,0.0,0.2,0.0,0.0,0.0,0.0,0.0,0.0,0.0,0.0,0.0,0.0,0.0,0.0
1.5050477981567383,11.87441294002822,-0.46286520498508654,0.6289532725390484,0.04692681178876576,0.0,0.0,0.2,0.0,0.0,0.0,0.0,0.0,0.0,0.0,0.0,0.0,0.0,0.0,0.0
1.5157520771026611,11.879302305594758,-0.43465599646063713,0.6589724014375569,0.03591398923223188,0.0,0.0,0.2,0.0,0.0,0.0,0.0,0.0,0.0,0.0,0.0,0.0,0.0,0.0,0.0
1.52632737159729,11.887945007094778,-0.4684392948269008,0.6259895668224587,0.04620507379478446,0.0,0.0,0.2,0.0,0.0,0.0,0.0,0.0,0.0,0.0,0.0,0.0,0.0,0.0,0.0
1.5373375415802002,11.897939101207673,-0.47532921250709326,0.6232039810475187,0.037994587463992355,0.0,0.0,0.2,0.0,0.0,0.0,0.0,0.0,0.0,0.0,0.0,0.0,0.0,0.0,0.0
1.5479042530059814,11.919578762348776,-0.4803672074037934,0.6163153962130762,0.04830667618680932,0.0,0.0,0.2,0.0,0.0,0.0,0.0,0.0,0.0,0.0,0.0,0.0,0.0,0.0,0.0
1.558387279510498,11.93062475642371,-0.4590054595115455,0.6421024021943168,0.04073621942497896,0.0,0.0,0.2,0.0,0.0,0.0,0.0,0.0,0.0,0.0,0.0,0.0,0.0,0.0,0.0
1.5688540935516357,11.938942056267965,-0.4843627498390498,0.6263566573377506,0.04773100471799713,0.0,0.0,0.2,0.0,0.0,0.0,0.0,0.0,0.0,0.0,0.0,0.0,0.0,0.0,0.0
1.5793464183807373,11.942701644470532,-0.45903899276547855,0.6619605925400143,0.04467152035100002,0.0,0.0,0.2,0.0,0.0,0.0,0.0,0.0,0.0,0.0,0.0,0.0,0.0,0.0,0.0
1.5900673866271973,11.945484729358302,-0.4724505352315237,0.661824078488382,0.03746939452771664,0.0,0.0,0.2,0.0,0.0,0.0,0.0,0.0,0.0,0.0,0.0,0.0,0.0,0.0,0.0
1.6005725860595703,11.96607556061268,-0.6137508077679068,0.7073433588400913,0.036302343645613126,0.0,0.0,0.2,0.0,0.0,0.0,0.0,0.0,0.0,0.0,0.0,0.0,0.0,0.0,0.0
1.6110222339630127,11.985293086498146,-0.4682426986712679,0.6278750649468953,0.04692132796825147,0.0,0.0,0.2,0.0,0.0,0.0,0.0,0.0,0.0,0.0,0.0,0.0,0.0,0.0,0.0
1.6216785907745361,11.99097651473856,-0.47510150491344755,0.6362375162910301,0.04883242908749891,0.0,0.0,0.2,0.0,0.0,0.0,0.0,0.0,0.0,0.0,0.0,0.0,0.0,0.0,0.0
1.6322171688079834,11.987833630090872,-0.48733955805238843,0.6565842938319477,0.04734172990603244,0.0,0.0,0.2,0.0,0.0,0.0,0.0,0.0,0.0,0.0,0.0,0.0,0.0,0.0,0.0
1.6427078247070312,11.994287081822737,-0.5053552165359928,0.6571491660003944,0.04622608061286757,0.0,0.0,0.2,0.0,0.0,0.0,0.0,0.0,0.0,0.0,0.0,0.0,0.0,0.0,0.0
1.6530120372772217,12.003816890715482,-0.5148568580919216,0.653885054383841,0.04680961605897533,0.0,0.0,0.2,0.0,0.0,0.0,0.0,0.0,0.0,0.0,0.0,0.0,0.0,0.0,0.0
1.6636602878570557,12.011684339662928,-0.5224646976787961,0.6549739685948973,0.04595126371608079,0.0,0.0,0.2,0.0,0.0,0.0,0.0,0.0,0.0,0.0,0.0,0.0,0.0,0.0,0.0
1.674638271331787,12.016959574761954,-0.519754397780074,0.6614604375546322,0.046335375540829844,0.0,0.0,0.2,0.0,0.0,0.0,0.0,0.0,0.0,0.0,0.0,0.0,0.0,0.0,0.0
1.684967279434204,12.025349606595281,-0.5410298278637609,0.6317568674572559,0.050391576074245305,0.0,0.0,0.2,0.0,0.0,0.0,0.0,0.0,0.0,0.0,0.0,0.0,0.0,0.0,0.0
1.6956837177276611,12.032291774839262,-0.5051639418933445,0.6565875131524651,0.04637853549993605,0.0,0.0,0.2,0.0,0.0,0.0,0.0,0.0,0.0,0.0,0.0,0.0,0.0,0.0,0.0
1.706529140472412,12.030468657658796,-0.48564648654445697,0.6605294374295209,0.044844504360894016,0.0,0.0,0.2,0.0,0.0,0.0,0.0,0.0,0.0,0.0,0.0,0.0,0.0,0.0,0.0
1.7170686721801758,12.022073148102482,-0.46443923209485255,0.6670206029879213,0.04445479585618702,0.0,0.0,0.2,0.0,0.0,0.0,0.0,0.0,0.0,0.0,0.0,0.0,0.0,0.0,0.0
1.727950096130371,12.02113901334079,-0.47394136716585494,0.6397247005407632,0.04829576607342332,0.0,0.0,0.2,0.0,0.0,0.0,0.0,0.0,0.0,0.0,0.0,0.0,0.0,0.0,0.0
1.7385361194610596,12.022805293948053,-0.4280557634330999,0.6718865420045658,0.04631931994889305,0.0,0.0,0.2,0.0,0.0,0.0,0.0,0.0,0.0,0.0,0.0,0.0,0.0,0.0,0.0
1.7489445209503174,12.006141512954349,-0.4242489260691342,0.6621361649264959,0.045362747167509716,0.0,0.0,0.2,0.0,0.0,0.0,0.0,0.0,0.0,0.0,0.0,0.0,0.0,0.0,0.0
1.7594208717346191,11.97544515335986,-0.4083891967424295,0.6676885213894821,0.04530090702907218,0.0,0.0,0.2,0.0,0.0,0.0,0.0,0.0,0.0,0.0,0.0,0.0,0.0,0.0,0.0
1.7697899341583252,11.952934050462495,-0.3928327170809869,0.6746453429343366,0.04709865851441397,0.0,0.0,0.2,0.0,0.0,0.0,0.0,0.0,0.0,0.0,0.0,0.0,0.0,0.0,0.0
1.7803161144256592,11.940212545712946,-0.38483279377944474,0.6763728990749557,0.0465680667492848,0.0,0.0,0.2,0.0,0.0,0.0,0.0,0.0,0.0,0.0,0.0,0.0,0.0,0.0,0.0
1.7913427352905273,11.933166786033942,-0.3728957348077899,0.6792477215449932,0.046153146251849526,0.0,0.0,0.2,0.0,0.0,0.0,0.0,0.0,0.0,0.0,0.0,0.0,0.0,0.0,0.0
1.8019628524780273,11.958390725845106,-0.3817974708761316,0.6855624346090635,0.045039575126479776,0.0,0.0,0.2,0.0,0.0,0.0,0.0,0.0,0.0,0.0,0.0,0.0,0.0,0.0,0.0
1.8126533031463623,11.981048807583107,-0.38378324388633006,0.6919664125613852,0.04440502317087672,0.0,0.0,0.2,0.0,0.0,0.0,0.0,0.0,0.0,0.0,0.0,0.0,0.0,0.0,0.0
1.8234295845031738,12.004853609345611,-0.38779486533616847,0.7005031947268193,0.045252244637735015,0.0,0.0,0.2,0.0,0.0,0.0,0.0,0.0,0.0,0.0,0.0,0.0,0.0,0.0,0.0
1.833951473236084,12.072669556142682,-0.6044738049764885,0.7579510369453537,0.03747087721500233,0.0,0.0,0.2,0.0,0.0,0.0,0.0,0.0,0.0,0.0,0.0,0.0,0.0,0.0,0.0
1.84464430809021,12.126878000269024,-0.4196533086005211,0.7497857212624656,0.04659951415012799,0.0,0.0,0.2,0.0,0.0,0.0,0.0,0.0,0.0,0.0,0.0,0.0,0.0,0.0,0.0
1.8555257320404053,12.144799255842798,-0.4304362958723508,0.7514206681535126,0.04670841202408933,0.0,0.0,0.2,0.0,0.0,0.0,0.0,0.0,0.0,0.0,0.0,0.0,0.0,0.0,0.0
1.8663702011108398,12.125295431953397,-0.44379570746719527,0.7326876491758063,0.04594821454010479,0.0,0.0,0.2,0.0,0.0,0.0,0.0,0.0,0.0,0.0,0.0,0.0,0.0,0.0,0.0
1.8769543170928955,12.114940965823678,-0.4578795861497311,0.7250272184561402,0.04684095658063981,0.0,0.0,0.2,0.0,0.0,0.0,0.0,0.0,0.0,0.0,0.0,0.0,0.0,0.0,0.0
1.8876700401306152,12.113142860542704,-0.4737135618478392,0.7193078004610645,0.04503868759247604,0.0,0.0,0.2,0.0,0.0,0.0,0.0,0.0,0.0,0.0,0.0,0.0,0.0,0.0,0.0
1.8982741832733154,12.119423097509985,-0.495062221611042,0.7166152877671932,0.044862427114970266,0.0,0.0,0.2,0.0,0.0,0.0,0.0,0.0,0.0,0.0,0.0,0.0,0.0,0.0,0.0
1.9088313579559326,12.129683023541531,-0.5082545303501192,0.7182320659750273,0.04432877623398532,0.0,0.0,0.2,0.0,0.0,0.0,0.0,0.0,0.0,0.0,0.0,0.0,0.0,0.0,0.0
1.9192538261413574,12.147924000194035,-0.5541133173654795,0.6921042120392085,0.04676507761729828,0.0,0.0,0.2,0.0,0.0,0.0,0.0,0.0,0.0,0.0,0.0,0.0,0.0,0.0,0.0
1.929797649383545,12.17154140447845,-0.5738426215093555,0.685499653082491,0.046039132000847846,0.0,0.0,0.2,0.0,0.0,0.0,0.0,0.0,0.0,0.0,0.0,0.0,0.0,0.0,0.0
1.940596580505371,12.194735393273472,-0.5956044308116697,0.6846367344122666,0.046380260994612454,0.0,0.0,0.2,0.0,0.0,0.0,0.0,0.0,0.0,0.0,0.0,0.0,0.0,0.0,0.0
1.9509754180908203,12.206343066231664,-0.6033776829807276,0.6876862134727271,0.04632122895410067,0.0,0.0,0.2,0.0,0.0,0.0,0.0,0.0,0.0,0.0,0.0,0.0,0.0,0.0,0.0
1.96152925491333,12.216586787871773,-0.6097394251350813,0.6916218430329318,0.04778173267271734,0.0,0.0,0.2,0.0,0.0,0.0,0.0,0.0,0.0,0.0,0.0,0.0,0.0,0.0,0.0
1.972177505493164,12.220048027680178,-0.6112677116040357,0.6955851064189621,0.04646588032864273,0.0,0.0,0.2,0.0,0.0,0.0,0.0,0.0,0.0,0.0,0.0,0.0,0.0,0.0,0.0
1.9826323986053467,12.244347883781463,-0.7002843472300395,0.7440681586193396,0.03842837680743904,0.0,0.0,0.2,0.0,0.0,0.0,0.0,0.0,0.0,0.0,0.0,0.0,0.0,0.0,0.0
1.9932174682617188,12.257257147854133,-0.5661461428808869,0.7339689854538339,0.04919541248751367,0.0,0.0,0.2,0.0,0.0,0.0,0.0,0.0,0.0,0.0,0.0,0.0,0.0,0.0,0.0
2.0036237239837646,12.237243062994109,-0.5522437139825854,0.7319747010334902,0.049922507467106025,0.0,0.0,0.2,0.0,0.0,0.0,0.0,0.0,0.0,0.0,0.0,0.0,0.0,0.0,0.0
2.014073371887207,12.194332580250125,-0.5421368265943107,0.7351239996229916,0.04631598215016995,0.0,0.0,0.2,0.0,0.0,0.0,0.0,0.0,0.0,0.0,0.0,0.0,0.0,0.0,0.0
2.0246810913085938,12.156432014648999,-0.5374620532848309,0.7164691602223241,0.04286540679892501,0.0,0.0,0.2,0.0,0.0,0.0,0.0,0.0,0.0,0.0,0.0,0.0,0.0,0.0,0.0
2.035038948059082,12.131983191590015,-0.5349433650106038,0.7145910036348628,0.03976940784377584,0.0,0.0,0.2,0.0,0.0,0.0,0.0,0.0,0.0,0.0,0.0,0.0,0.0,0.0,0.0
2.045603036880493,12.113086952858616,-0.5361318634569567,0.7104960865602669,0.03492145318033267,0.0,0.0,0.2,0.0,0.0,0.0,0.0,0.0,0.0,0.0,0.0,0.0,0.0,0.0,0.0
2.056926965713501,12.090571676021227,-0.533880395326951,0.7068422165794658,0.027021097372428575,0.0,0.0,0.2,0.0,0.0,0.0,0.0,0.0,0.0,0.0,0.0,0.0,0.0,0.0,0.0
2.067481756210327,12.128528372288013,-0.4663349109884131,0.7170278683504323,-0.023842624244120855,0.0,0.0,0.2,0.0,0.0,0.0,0.0,0.0,0.0,0.0,0.0,0.0,0.0,0.0,0.0
2.078300952911377,12.172618521421878,-0.43069598959060684,0.7006098001971897,-0.02789590767237891,0.0,0.0,0.2,0.0,0.0,0.0,0.0,0.0,0.0,0.0,0.0,0.0,0.0,0.0,0.0
2.0888686180114746,12.191213662302413,-0.4614483480152764,0.7227244979146281,0.008841063634119623,0.0,0.0,0.2,0.0,0.0,0.0,0.0,0.0,0.0,0.0,0.0,0.0,0.0,0.0,0.0
2.099619150161743,12.151612913531082,-0.4287506584312519,0.7710126499423084,-0.0039772428203852074,0.0,0.0,0.2,0.0,0.0,0.0,0.0,0.0,0.0,0.0,0.0,0.0,0.0,0.0,0.0
2.1100926399230957,12.096548562275245,-0.41409226426584306,0.8248514794691119,-0.009457331466601734,0.0,0.0,0.2,0.0,0.0,0.0,0.0,0.0,0.0,0.0,0.0,0.0,0.0,0.0,0.0
2.120607376098633,12.045970923211257,-0.3845587243553699,0.8650512275809177,-0.013851120495449329,0.0,0.0,0.2,0.0,0.0,0.0,0.0,0.0,0.0,0.0,0.0,0.0,0.0,0.0,0.0
2.1311028003692627,11.99303480176153,-0.32925750497894285,0.9159229865264708,-0.023780257771864162,0.0,0.0,0.2,0.0,0.0,0.0,0.0,0.0,0.0,0.0,0.0,0.0,0.0,0.0,0.0
2.141757011413574,11.922558313579753,-0.2921797438063928,0.9326260197744692,-0.028183856464248282,0.0,0.0,0.2,0.0,0.0,0.0,0.0,0.0,0.0,0.0,0.0,0.0,0.0,0.0,0.0
2.152209520339966,11.870980449802682,-0.2669583959030365,0.9503644532491341,-0.03053239368441295,0.0,0.0,0.2,0.0,0.0,0.0,0.0,0.0,0.0,0.0,0.0,0.0,0.0,0.0,0.0
2.162787675857544,11.808002371156391,-0.23931904168531662,0.9647255946237493,-0.03471519839927012,0.0,0.0,0.2,0.0,0.0,0.0,0.0,0.0,0.0,0.0,0.0,0.0,0.0,0.0,0.0
2.173896312713623,11.691298511592802,-0.1866698267139473,0.9810288591412707,-0.038945354684453266,0.0,0.0,0.2,0.0,0.0,0.0,0.0,0.0,0.0,0.0,0.0,0.0,0.0,0.0,0.0
2.1844494342803955,11.643823352651397,-0.19485907140863176,0.9919120191602201,-0.04157395884428138,0.0,0.0,0.2,0.0,0.0,0.0,0.0,0.0,0.0,0.0,0.0,0.0,0.0,0.0,0.0
2.1949164867401123,11.551652644047227,-0.18341327960914455,1.011208459027899,-0.03535722219081713,0.0,0.0,0.2,0.0,0.0,0.0,0.0,0.0,0.0,0.0,0.0,0.0,0.0,0.0,0.0
2.205535650253296,11.416837328188633,-0.1752691907954233,1.0202233308668476,-0.02455661812190617,0.0,0.0,0.2,0.0,0.0,0.0,0.0,0.0,0.0,0.0,0.0,0.0,0.0,0.0,0.0
2.2159595489501953,11.322845135977682,-0.18459831482280073,1.0187275906730056,-0.01769531281831257,0.0,0.0,0.2,0.0,0.0,0.0,0.0,0.0,0.0,0.0,0.0,0.0,0.0,0.0,0.0
2.2263810634613037,11.217983930620525,-0.1845968655584781,1.0216565475205663,-0.007941371264647544,0.0,0.0,0.2,0.0,0.0,0.0,0.0,0.0,0.0,0.0,0.0,0.0,0.0,0.0,0.0
2.236853837966919,11.131336659264036,-0.19647577913521758,1.0248995672969117,0.002001748113090255,0.0,0.0,0.2,0.0,0.0,0.0,0.0,0.0,0.0,0.0,0.0,0.0,0.0,0.0,0.0
2.2474634647369385,11.013414572146687,-0.18663824066092582,1.0257947732655475,0.017356962166506937,0.0,0.0,0.2,0.0,0.0,0.0,0.0,0.0,0.0,0.0,0.0,0.0,0.0,0.0,0.0
2.2580044269561768,10.92978014610778,-0.19404695431321395,1.0322032413416258,0.03652528052405891,0.0,0.0,0.2,0.0,0.0,0.0,0.0,0.0,0.0,0.0,0.0,0.0,0.0,0.0,0.0
2.2683846950531006,10.889155545198925,-0.20898154380125428,1.0306200488476402,0.050530482389846816,0.0,0.0,0.2,0.0,0.0,0.0,0.0,0.0,0.0,0.0,0.0,0.0,0.0,0.0,0.0
2.2790396213531494,10.796580978938412,-0.22262600101532937,1.0271949545954544,0.0638585888640667,0.0,0.0,0.2,0.0,0.0,0.0,0.0,0.0,0.0,0.0,0.0,0.0,0.0,0.0,0.0
2.2898993492126465,10.711092227586551,-0.26073634238313115,0.9918271345675669,0.08840525934540146,0.0,0.0,0.2,0.0,0.0,0.0,0.0,0.0,0.0,0.0,0.0,0.0,0.0,0.0,0.0
2.300299882888794,10.765566151511692,-0.2763464752096193,0.9924448637411163,0.1280887174733022,0.0,0.0,0.2,0.0,0.0,0.0,0.0,0.0,0.0,0.0,0.0,0.0,0.0,0.0,0.0
2.3107612133026123,10.714311296528455,-0.2895693332205806,0.9760241831981903,0.15437037076066787,0.0,0.0,0.2,0.0,0.0,0.0,0.0,0.0,0.0,0.0,0.0,0.0,0.0,0.0,0.0
2.3212482929229736,10.693516835267006,-0.32386346685806316,0.9503925535782476,0.16264095112371785,0.0,0.0,0.2,0.0,0.0,0.0,0.0,0.0,0.0,0.0,0.0,0.0,0.0,0.0,0.0
2.331789255142212,10.638464555448051,-0.350678599136669,0.9245171965123078,0.19059419840241296,0.0,0.0,0.2,0.0,0.0,0.0,0.0,0.0,0.0,0.0,0.0,0.0,0.0,0.0,0.0
2.342336416244507,10.56780616170292,-0.35725600670782576,0.9048324413640392,0.20712443428007604,0.0,0.0,0.2,0.0,0.0,0.0,0.0,0.0,0.0,0.0,0.0,0.0,0.0,0.0,0.0
2.352694272994995,11.467823681305303,-0.7157315345363929,0.9488642849288323,0.03633272711987318,0.0,0.0,0.2,0.0,0.0,0.0,0.0,0.0,0.0,0.0,0.0,0.0,0.0,0.0,0.0
2.3631536960601807,12.099885159061635,-0.4355850289014458,1.010167844986539,0.23734961748204986,0.0,0.0,0.2,0.0,0.0,0.0,0.0,0.0,0.0,0.0,0.0,0.0,0.0,0.0,0.0
2.3742361068725586,11.917799318699284,-0.42211095086106604,0.9825812632422897,0.2542812409283801,0.0,0.0,0.2,0.0,0.0,0.0,0.0,0.0,0.0,0.0,0.0,0.0,0.0,0.0,0.0
2.384753942489624,11.0315882790562,-0.35422168772064533,0.8928998587984613,0.26022794467484583,0.0,0.0,0.2,0.0,0.0,0.0,0.0,0.0,0.0,0.0,0.0,0.0,0.0,0.0,0.0
2.3953051567077637,10.400585241614396,-0.3023714422616776,0.84250381657,0.26394128905706543,0.0,0.0,0.2,0.0,0.0,0.0,0.0,0.0,0.0,0.0,0.0,0.0,0.0,0.0,0.0
2.40647554397583,9.767951570417143,-0.27041845963700456,0.7673189010747308,0.261649461990554,0.0,0.0,0.2,0.0,0.0,0.0,0.0,0.0,0.0,0.0,0.0,0.0,0.0,0.0,0.0
2.4168455600738525,9.77802420928638,-0.26501152806332184,0.7572782471032419,0.2649910688861468,0.0,0.0,0.2,0.0,0.0,0.0,0.0,0.0,0.0,0.0,0.0,0.0,0.0,0.0,0.0
2.4278576374053955,9.412896197486477,-0.23926930056884257,0.7293636670548839,0.2587982588338425,0.0,0.0,0.2,0.0,0.0,0.0,0.0,0.0,0.0,0.0,0.0,0.0,0.0,0.0,0.0
2.4386861324310303,9.491199005318807,-0.23332195368735834,0.7191417077873105,0.2565094758161294,0.0,0.0,0.2,0.0,0.0,0.0,0.0,0.0,0.0,0.0,0.0,0.0,0.0,0.0,0.0
2.449465274810791,9.551027626938005,-0.2246295609200058,0.7218176516817082,0.2629172647040012,0.0,0.0,0.2,0.0,0.0,0.0,0.0,0.0,0.0,0.0,0.0,0.0,0.0,0.0,0.0
2.460111618041992,9.637900490385025,-0.2342268104058211,0.7108879218976577,0.2650653335385512,0.0,0.0,0.2,0.0,0.0,0.0,0.0,0.0,0.0,0.0,0.0,0.0,0.0,0.0,0.0
2.4706122875213623,9.744596306847127,-0.246020929983651,0.7258677184113878,0.2630798665348722,0.0,0.0,0.2,0.0,0.0,0.0,0.0,0.0,0.0,0.0,0.0,0.0,0.0,0.0,0.0
2.4810211658477783,9.798332770515286,-0.22703538002838752,0.7550798013054919,0.26337803647330926,0.0,0.0,0.2,0.0,0.0,0.0,0.0,0.0,0.0,0.0,0.0,0.0,0.0,0.0,0.0
2.4915735721588135,9.730938621951328,-0.23581466642118232,0.7573657238849001,0.2706417939076938,0.0,0.0,0.2,0.0,0.0,0.0,0.0,0.0,0.0,0.0,0.0,0.0,0.0,0.0,0.0
2.5019466876983643,11.200533797432836,-0.3359210801037984,1.2691028472800265,-0.030779708563796544,0.0,0.0,0.2,0.0,0.0,0.0,0.0,0.0,0.0,0.0,0.0,0.0,0.0,0.0,0.0
2.5124354362487793,12.265179748796612,-0.2994890463485529,0.8575690501843898,0.2734545309456053,0.0,0.0,0.2,0.0,0.0,0.0,0.0,0.0,0.0,0.0,0.0,0.0,0.0,0.0,0.0
2.5233399868011475,12.071718504521789,-0.2870233114294727,0.8554045232907704,0.26651058846806525,0.0,0.0,0.2,0.0,0.0,0.0,0.0,0.0,0.0,0.0,0.0,0.0,0.0,0.0,0.0
2.533836841583252,10.70401891229677,-0.27636262244650533,0.8046662151025676,0.2581159906734864,0.0,0.0,0.2,0.0,0.0,0.0,0.0,0.0,0.0,0.0,0.0,0.0,0.0,0.0,0.0
2.5443336963653564,9.766433783354362,-0.2254663132565072,0.8248546950695869,0.2472974765753746,0.0,0.0,0.2,0.0,0.0,0.0,0.0,0.0,0.0,0.0,0.0,0.0,0.0,0.0,0.0
2.5549628734588623,9.130353653861462,-0.21328759763834246,0.81944647996412,0.24040090521195695,0.0,0.0,0.2,0.0,0.0,0.0,0.0,0.0,0.0,0.0,0.0,0.0,0.0,0.0,0.0
2.5654430389404297,8.835421697755532,-0.24111524693404446,0.7896221690559942,0.21565696283175548,0.0,0.0,0.2,0.0,0.0,0.0,0.0,0.0,0.0,0.0,0.0,0.0,0.0,0.0,0.0
2.576021432876587,8.591483701924624,-0.22645421996481882,0.8256221909491464,0.19258902951833826,0.0,0.0,0.2,0.0,0.0,0.0,0.0,0.0,0.0,0.0,0.0,0.0,0.0,0.0,0.0
2.5865345001220703,8.56704492354825,-0.24130728935460588,0.8372763717424365,0.18425876070533034,0.0,0.0,0.2,0.0,0.0,0.0,0.0,0.0,0.0,0.0,0.0,0.0,0.0,0.0,0.0
2.597012758255005,8.702292520559524,-0.25697034587544915,0.8977714126846333,0.2166128844744366,0.0,0.0,0.2,0.0,0.0,0.0,0.0,0.0,0.0,0.0,0.0,0.0,0.0,0.0,0.0
2.607818126678467,8.694571901554415,-0.2313823930761777,0.8536843269938872,0.13926758507370474,0.0,0.0,0.2,0.0,0.0,0.0,0.0,0.0,0.0,0.0,0.0,0.0,0.0,0.0,0.0
2.618234872817993,8.968098625169736,-0.21711944202089115,0.8536195974028477,0.17110837503204218,0.0,0.0,0.2,0.0,0.0,0.0,0.0,0.0,0.0,0.0,0.0,0.0,0.0,0.0,0.0
2.6289241313934326,8.940623430142207,-0.17311885546686306,0.8700011047779924,0.1960488422717723,0.0,0.0,0.2,0.0,0.0,0.0,0.0,0.0,0.0,0.0,0.0,0.0,0.0,0.0,0.0
2.639577627182007,9.052056955665398,-0.15639560604027028,0.8943912955433793,0.1065536848133305,0.0,0.0,0.2,0.0,0.0,0.0,0.0,0.0,0.0,0.0,0.0,0.0,0.0,0.0,0.0
2.6499922275543213,9.226921954750704,-0.18271072227346913,0.9020875600293724,0.09603901308080813,0.0,0.0,0.2,0.0,0.0,0.0,0.0,0.0,0.0,0.0,0.0,0.0,0.0,0.0,0.0
2.660496711730957,9.28279213688759,-0.22848936188187796,0.9130320413241025,0.08060697579517204,0.0,0.0,0.2,0.0,0.0,0.0,0.0,0.0,0.0,0.0,0.0,0.0,0.0,0.0,0.0
2.6711862087249756,9.33424807595771,-0.26585093750312777,0.9234704602680113,0.0670565116238354,0.0,0.0,0.2,0.0,0.0,0.0,0.0,0.0,0.0,0.0,0.0,0.0,0.0,0.0,0.0
2.681645393371582,9.494793382910032,-0.28973506291533074,0.929655557190828,0.04820675545550656,0.0,0.0,0.2,0.0,0.0,0.0,0.0,0.0,0.0,0.0,0.0,0.0,0.0,0.0,0.0
2.6921112537384033,9.554706503999444,-0.31135916677836845,0.936054946430346,0.03738895440797959,0.0,0.0,0.2,0.0,0.0,0.0,0.0,0.0,0.0,0.0,0.0,0.0,0.0,0.0,0.0
2.7025840282440186,9.610797043114976,-0.34311852831770684,0.9285220346647688,0.021796119134158826,0.0,0.0,0.2,0.0,0.0,0.0,0.0,0.0,0.0,0.0,0.0,0.0,0.0,0.0,0.0
2.71321702003479,9.646827730787265,-0.3686286715802443,0.9242151142107723,0.014057640341909863,0.0,0.0,0.2,0.0,0.0,0.0,0.0,0.0,0.0,0.0,0.0,0.0,0.0,0.0,0.0
2.724228858947754,9.63837048771363,-0.4140819644012509,0.922225939270651,0.01928352971070137,0.0,0.0,0.2,0.0,0.0,0.0,0.0,0.0,0.0,0.0,0.0,0.0,0.0,0.0,0.0
2.7348248958587646,9.823689573060868,-0.4110503927501988,0.9246584456278987,0.015041807880919883,0.0,0.0,0.2,0.0,0.0,0.0,0.0,0.0,0.0,0.0,0.0,0.0,0.0,0.0,0.0
2.745569944381714,9.920375395276846,-0.48913397451276797,0.9161894043437836,-0.061067355496678334,0.0,0.0,0.2,0.0,0.0,0.0,0.0,0.0,0.0,0.0,0.0,0.0,0.0,0.0,0.0
2.756488084793091,9.964223259275757,-0.39145032304902266,0.9821446884120891,0.005283439418838475,0.0,0.0,0.2,0.0,0.0,0.0,0.0,0.0,0.0,0.0,0.0,0.0,0.0,0.0,0.0
2.7673022747039795,9.991200721269692,-0.4448491788399224,0.9340988554959994,0.004199873936107756,0.0,0.0,0.2,0.0,0.0,0.0,0.0,0.0,0.0,0.0,0.0,0.0,0.0,0.0,0.0
2.778212070465088,9.94699310163232,-0.4625622060128361,0.922107793511234,0.001029133841837433,0.0,0.0,0.2,0.0,0.0,0.0,0.0,0.0,0.0,0.0,0.0,0.0,0.0,0.0,0.0
2.789048194885254,9.957435893889254,-0.4838935720998245,0.8938248371538084,-0.001016390280723665,0.0,0.0,0.2,0.0,0.0,0.0,0.0,0.0,0.0,0.0,0.0,0.0,0.0,0.0,0.0
2.7995247840881348,10.06058042620131,-0.594773497487207,0.7799297095621013,-0.014068522296114085,0.0,0.0,0.2,0.0,0.0,0.0,0.0,0.0,0.0,0.0,0.0,0.0,0.0,0.0,0.0
2.8099567890167236,10.145362941899686,-0.6408468714475059,0.7420444917741799,-0.020766456356957525,0.0,0.0,0.2,0.0,0.0,0.0,0.0,0.0,0.0,0.0,0.0,0.0,0.0,0.0,0.0
2.820695638656616,10.191162919039908,-0.6282636658665877,0.7713927193006125,-0.013759118719363089,0.0,0.0,0.2,0.0,0.0,0.0,0.0,0.0,0.0,0.0,0.0,0.0,0.0,0.0,0.0
2.831502676010132,10.181999644047663,-0.5111920764793386,0.8991233846931175,0.026307947779832162,0.0,0.0,0.2,0.0,0.0,0.0,0.0,0.0,0.0,0.0,0.0,0.0,0.0,0.0,0.0
2.84209942817688,10.140996113979224,-0.5170258362001825,0.9086306120074998,0.030080513965410144,0.0,0.0,0.2,0.0,0.0,0.0,0.0,0.0,0.0,0.0,0.0,0.0,0.0,0.0,0.0
2.85245943069458,10.10470697411222,-0.5175785663987826,0.9238098427857498,0.040032961213372825,0.0,0.0,0.2,0.0,0.0,0.0,0.0,0.0,0.0,0.0,0.0,0.0,0.0,0.0,0.0
2.863041400909424,10.050276716821367,-0.5640129671323384,0.8881119852367667,0.04419103902938927,0.0,0.0,0.2,0.0,0.0,0.0,0.0,0.0,0.0,0.0,0.0,0.0,0.0,0.0,0.0
2.8737401962280273,10.034687842547937,-0.5742219455374986,0.889938724866157,0.0555174703232916,0.0,0.0,0.2,0.0,0.0,0.0,0.0,0.0,0.0,0.0,0.0,0.0,0.0,0.0,0.0
2.884164571762085,10.085377463186601,-0.5460695280842378,0.9039288938464,0.05661594230917418,0.0,0.0,0.2,0.0,0.0,0.0,0.0,0.0,0.0,0.0,0.0,0.0,0.0,0.0,0.0
2.8946235179901123,10.100764633191806,-0.5439702274383987,0.9147910970264334,0.05943905312703578,0.0,0.0,0.2,0.0,0.0,0.0,0.0,0.0,0.0,0.0,0.0,0.0,0.0,0.0,0.0
2.9050986766815186,10.139677023170679,-0.533251609886806,0.932145532680688,0.061144289169666924,0.0,0.0,0.2,0.0,0.0,0.0,0.0,0.0,0.0,0.0,0.0,0.0,0.0,0.0,0.0
2.915534496307373,10.229977981758987,-0.6468769314403477,0.8408237744505987,0.04537640459928091,0.0,0.0,0.2,0.0,0.0,0.0,0.0,0.0,0.0,0.0,0.0,0.0,0.0,0.0,0.0
2.925973415374756,10.331261201129117,-0.6074700013004168,0.893659748281415,0.050073518794887806,0.0,0.0,0.2,0.0,0.0,0.0,0.0,0.0,0.0,0.0,0.0,0.0,0.0,0.0,0.0
2.936366558074951,10.42538016855203,-0.6041580881795395,0.9128296507790805,0.04867936306259307,0.0,0.0,0.2,0.0,0.0,0.0,0.0,0.0,0.0,0.0,0.0,0.0,0.0,0.0,0.0
2.9468235969543457,10.483988553781332,-0.5988003849172788,0.9332671644421064,0.04444484185965243,0.0,0.0,0.2,0.0,0.0,0.0,0.0,0.0,0.0,0.0,0.0,0.0,0.0,0.0,0.0
2.957571029663086,10.51640282656789,-0.6301374157437509,0.9240210715324472,0.030197667586379814,0.0,0.0,0.2,0.0,0.0,0.0,0.0,0.0,0.0,0.0,0.0,0.0,0.0,0.0,0.0
2.967912435531616,10.580456850723372,-0.6047876378871392,0.9356408498484309,0.025817271853577052,0.0,0.0,0.2,0.0,0.0,0.0,0.0,0.0,0.0,0.0,0.0,0.0,0.0,0.0,0.0
2.9785783290863037,10.591007140241755,-0.5936611635363458,0.9561231287434019,0.02177679688005744,0.0,0.0,0.2,0.0,0.0,0.0,0.0,0.0,0.0,0.0,0.0,0.0,0.0,0.0,0.0
2.9893157482147217,10.596547570139977,-0.5778043729299887,0.9695879796404704,0.0028827374318023393,0.0,0.0,0.2,0.0,0.0,0.0,0.0,0.0,0.0,0.0,0.0,0.0,0.0,0.0,0.0
2.999917984008789,10.589141570472366,-0.5311221637009583,1.009593661819807,-0.00535324003519047,0.0,0.0,0.2,0.0,0.0,0.0,0.0,0.0,0.0,0.0,0.0,0.0,0.0,0.0,0.0
3.010603904724121,10.560798748369775,-0.5189218093158005,1.0204110350295081,-0.011162883699762139,0.0,0.0,0.2,0.0,0.0,0.0,0.0,0.0,0.0,0.0,0.0,0.0,0.0,0.0,0.0
3.0211076736450195,10.545558571942108,-0.5122054266625309,1.018181642638592,-0.018303600060006767,0.0,0.0,0.2,0.0,0.0,0.0,0.0,0.0,0.0,0.0,0.0,0.0,0.0,0.0,0.0
3.0315463542938232,10.524058208246151,-0.4990104453436364,1.0275921458821715,-0.04634864562532049,0.0,0.0,0.2,0.0,0.0,0.0,0.0,0.0,0.0,0.0,0.0,0.0,0.0,0.0,0.0
3.041964054107666,10.503822528608698,-0.4865775873126775,1.0419606661079972,-0.05672285013523767,0.0,0.0,0.2,0.0,0.0,0.0,0.0,0.0,0.0,0.0,0.0,0.0,0.0,0.0,0.0
3.0522892475128174,10.499017772322917,-0.47775343942004,1.041743578706911,-0.06883494293102187,0.0,0.0,0.2,0.0,0.0,0.0,0.0,0.0,0.0,0.0,0.0,0.0,0.0,0.0,0.0
3.0627660751342773,10.485239259905349,-0.4916279385885215,1.0231661494067386,-0.10072678787966764,0.0,0.0,0.2,0.0,0.0,0.0,0.0,0.0,0.0,0.0,0.0,0.0,0.0,0.0,0.0
3.0735254287719727,10.46482237558958,-0.4979084237087011,1.004411218609132,-0.11148818509469115,0.0,0.0,0.2,0.0,0.0,0.0,0.0,0.0,0.0,0.0,0.0,0.0,0.0,0.0,0.0
3.0838522911071777,10.493097611584563,-0.5137660825041527,0.9724340127290746,-0.11805390153164382,0.0,0.0,0.2,0.0,0.0,0.0,0.0,0.0,0.0,0.0,0.0,0.0,0.0,0.0,0.0
3.0942721366882324,10.499118372762462,-0.526305840213735,0.9615417665579906,-0.1223566921040535,0.0,0.0,0.2,0.0,0.0,0.0,0.0,0.0,0.0,0.0,0.0,0.0,0.0,0.0,0.0
3.104703903198242,10.624989109440683,-0.6337600583711076,1.0474787012324038,-0.027393521613919374,0.0,0.0,0.2,0.0,0.0,0.0,0.0,0.0,0.0,0.0,0.0,0.0,0.0,0.0,0.0
3.1150999069213867,10.716417854470022,-0.5093838447823523,0.8860300550822214,-0.11696601432032534,0.0,0.0,0.2,0.0,0.0,0.0,0.0,0.0,0.0,0.0,0.0,0.0,0.0,0.0,0.0
3.125501871109009,10.704522006251441,-0.5166821794466732,0.8832936029466505,-0.11515657107566393,0.0,0.0,0.2,0.0,0.0,0.0,0.0,0.0,0.0,0.0,0.0,0.0,0.0,0.0,0.0
3.1359028816223145,10.613467149599629,-0.5461108643564554,0.9021077048456886,-0.11102535586348858,0.0,0.0,0.2,0.0,0.0,0.0,0.0,0.0,0.0,0.0,0.0,0.0,0.0,0.0,0.0
3.1463470458984375,10.556502103453152,-0.5799771147739486,0.9139906809095207,-0.1116744299191753,0.0,0.0,0.2,0.0,0.0,0.0,0.0,0.0,0.0,0.0,0.0,0.0,0.0,0.0,0.0
3.15714430809021,10.513187418329286,-0.618589084940822,0.9194030287910001,-0.08433741192755677,0.0,0.0,0.2,0.0,0.0,0.0,0.0,0.0,0.0,0.0,0.0,0.0,0.0,0.0,0.0
3.1677279472351074,10.509655151517803,-0.6416584133488903,0.8931222232539129,-0.07783856806158791,0.0,0.0,0.2,0.0,0.0,0.0,0.0,0.0,0.0,0.0,0.0,0.0,0.0,0.0,0.0
3.1782386302948,10.569256744916723,-0.7346130148586829,0.9712939284564652,-0.14658097195496905,0.0,0.0,0.2,0.0,0.0,0.0,0.0,0.0,0.0,0.0,0.0,0.0,0.0,0.0,0.0
3.1891653537750244,10.61105783834468,-0.6841036266601971,0.8388694992833657,-0.051792596268776074,0.0,0.0,0.2,0.0,0.0,0.0,0.0,0.0,0.0,0.0,0.0,0.0,0.0,0.0,0.0
3.1995952129364014,10.641142657723702,-0.6930830114432733,0.8245136061005762,-0.03824873047897099,0.0,0.0,0.2,0.0,0.0,0.0,0.0,0.0,0.0,0.0,0.0,0.0,0.0,0.0,0.0
3.2100307941436768,10.607667695555094,-0.7143216891936595,0.8174311095352491,-0.027965940195848592,0.0,0.0,0.2,0.0,0.0,0.0,0.0,0.0,0.0,0.0,0.0,0.0,0.0,0.0,0.0
3.220715284347534,10.563839880361845,-0.7253599139922126,0.8049148016392507,-0.018155794918220232,0.0,0.0,0.2,0.0,0.0,0.0,0.0,0.0,0.0,0.0,0.0,0.0,0.0,0.0,0.0
3.2312190532684326,10.536865657222366,-0.7226897303714679,0.8291476117318898,0.007212992042527145,0.0,0.0,0.2,0.0,0.0,0.0,0.0,0.0,0.0,0.0,0.0,0.0,0.0,0.0,0.0
3.2420449256896973,10.49446621438981,-0.7280671955884844,0.8294842350628906,0.017421597899393442,0.0,0.0,0.2,0.0,0.0,0.0,0.0,0.0,0.0,0.0,0.0,0.0,0.0,0.0,0.0
3.2527902126312256,10.484087974052661,-0.7283142277703984,0.8280580847151771,0.025671389976152464,0.0,0.0,0.2,0.0,0.0,0.0,0.0,0.0,0.0,0.0,0.0,0.0,0.0,0.0,0.0
3.263577699661255,10.544275880445408,-0.8247124328669971,0.8836542920143462,-0.044487759152958245,0.0,0.0,0.2,0.0,0.0,0.0,0.0,0.0,0.0,0.0,0.0,0.0,0.0,0.0,0.0
3.274631977081299,10.567453745814163,-0.6151724054157264,0.8647720818735503,0.043250092966260215,0.0,0.0,0.2,0.0,0.0,0.0,0.0,0.0,0.0,0.0,0.0,0.0,0.0,0.0,0.0
3.2852046489715576,10.5467547420429,-0.6059585493947265,0.8851038602877591,0.05295553936365006,0.0,0.0,0.2,0.0,0.0,0.0,0.0,0.0,0.0,0.0,0.0,0.0,0.0,0.0,0.0
3.2959001064300537,10.46002950298067,-0.6193091150758725,0.9063620812677561,0.061268378952161626,0.0,0.0,0.2,0.0,0.0,0.0,0.0,0.0,0.0,0.0,0.0,0.0,0.0,0.0,0.0
3.3070602416992188,10.382457778052098,-0.619581135810313,0.928082478798473,0.07602039710802842,0.0,0.0,0.2,0.0,0.0,0.0,0.0,0.0,0.0,0.0,0.0,0.0,0.0,0.0,0.0
3.3175222873687744,10.400572192064502,-0.6172852039781268,0.9305390219346592,0.08031704437948259,0.0,0.0,0.2,0.0,0.0,0.0,0.0,0.0,0.0,0.0,0.0,0.0,0.0,0.0,0.0
3.3283331394195557,10.375677826006841,-0.6164358140640182,0.9397214082391225,0.08556467783920405,0.0,0.0,0.2,0.0,0.0,0.0,0.0,0.0,0.0,0.0,0.0,0.0,0.0,0.0,0.0
3.3392527103424072,10.380150714144964,-0.6150723898222595,0.939408040322871,0.09064364301355463,0.0,0.0,0.2,0.0,0.0,0.0,0.0,0.0,0.0,0.0,0.0,0.0,0.0,0.0,0.0
3.3498737812042236,10.417360055531132,-0.6069591060411221,0.9403701236148347,0.09141461989219053,0.0,0.0,0.2,0.0,0.0,0.0,0.0,0.0,0.0,0.0,0.0,0.0,0.0,0.0,0.0
3.3604085445404053,10.447178942066946,-0.6013558562356276,0.9429578460700634,0.09063945362366042,0.0,0.0,0.2,0.0,0.0,0.0,0.0,0.0,0.0,0.0,0.0,0.0,0.0,0.0,0.0
3.371121406555176,10.47611305758624,-0.6278779756799701,0.9160210068147929,0.08792169808014169,0.0,0.0,0.2,0.0,0.0,0.0,0.0,0.0,0.0,0.0,0.0,0.0,0.0,0.0,0.0
3.3815484046936035,10.527911997988927,-0.6202954691147942,0.9122728998044853,0.08327770907919964,0.0,0.0,0.2,0.0,0.0,0.0,0.0,0.0,0.0,0.0,0.0,0.0,0.0,0.0,0.0
3.3922886848449707,10.552073384146862,-0.6128046672185848,0.9095829938745434,0.07843371397261643,0.0,0.0,0.2,0.0,0.0,0.0,0.0,0.0,0.0,0.0,0.0,0.0,0.0,0.0,0.0
3.4027345180511475,10.586778107639375,-0.6062243282153769,0.9057014606764424,0.07482342276021757,0.0,0.0,0.2,0.0,0.0,0.0,0.0,0.0,0.0,0.0,0.0,0.0,0.0,0.0,0.0
3.413153886795044,10.609370945618265,-0.5996667352527547,0.9040105756421464,0.06981911117990953,0.0,0.0,0.2,0.0,0.0,0.0,0.0,0.0,0.0,0.0,0.0,0.0,0.0,0.0,0.0
3.424206495285034,10.613765233760487,-0.5989709500661241,0.8988997052055426,0.057867346052207946,0.0,0.0,0.2,0.0,0.0,0.0,0.0,0.0,0.0,0.0,0.0,0.0,0.0,0.0,0.0
3.434722423553467,10.635826188625355,-0.5958313431429795,0.89584635853655,0.05132740926536097,0.0,0.0,0.2,0.0,0.0,0.0,0.0,0.0,0.0,0.0,0.0,0.0,0.0,0.0,0.0
3.445310354232788,10.644928830985105,-0.5954122020416484,0.892520244601501,0.04417713447877282,0.0,0.0,0.2,0.0,0.0,0.0,0.0,0.0,0.0,0.0,0.0,0.0,0.0,0.0,0.0
3.456217050552368,10.650122837262522,-0.6002918453503772,0.8824169298412594,0.029163471535431692,0.0,0.0,0.2,0.0,0.0,0.0,0.0,0.0,0.0,0.0,0.0,0.0,0.0,0.0,0.0
3.466794490814209,10.662667309320096,-0.6066239299192652,0.8760991189461113,0.02073247867358156,0.0,0.0,0.2,0.0,0.0,0.0,0.0,0.0,0.0,0.0,0.0,0.0,0.0,0.0,0.0
3.477616548538208,10.667222348597162,-0.6082782986968094,0.8721112930773577,0.012632419013410565,0.0,0.0,0.2,0.0,0.0,0.0,0.0,0.0,0.0,0.0,0.0,0.0,0.0,0.0,0.0
3.4883651733398438,10.6761500744501,-0.6163457062691875,0.870182939135516,0.001577562097387139,0.0,0.0,0.2,0.0,0.0,0.0,0.0,0.0,0.0,0.0,0.0,0.0,0.0,0.0,0.0
3.4989218711853027,10.68040102863557,-0.6306980727302026,0.8566347429195124,-0.016966830343220975,0.0,0.0,0.2,0.0,0.0,0.0,0.0,0.0,0.0,0.0,0.0,0.0,0.0,0.0,0.0
3.509502649307251,10.678574574250753,-0.6358189941298263,0.8572833644964714,-0.023755525301753663,0.0,0.0,0.2,0.0,0.0,0.0,0.0,0.0,0.0,0.0,0.0,0.0,0.0,0.0,0.0
3.520167827606201,10.666160897956093,-0.6123012378404494,0.888484523052279,-0.03128593411219775,0.0,0.0,0.2,0.0,0.0,0.0,0.0,0.0,0.0,0.0,0.0,0.0,0.0,0.0,0.0
3.5310988426208496,10.64736013714756,-0.6125677559866178,0.888900882463716,-0.044827770410987296,0.0,0.0,0.2,0.0,0.0,0.0,0.0,0.0,0.0,0.0,0.0,0.0,0.0,0.0,0.0
3.5415589809417725,10.640176244342312,-0.6136175964836089,0.8889786801287426,-0.05197336954950963,0.0,0.0,0.2,0.0,0.0,0.0,0.0,0.0,0.0,0.0,0.0,0.0,0.0,0.0,0.0
3.552089214324951,10.635883044279582,-0.6120735009033824,0.8869298401842536,-0.05895326069243809,0.0,0.0,0.2,0.0,0.0,0.0,0.0,0.0,0.0,0.0,0.0,0.0,0.0,0.0,0.0
3.5628244876861572,10.63701063596802,-0.6112580139982935,0.8868830303667286,-0.06543900006213509,0.0,0.0,0.2,0.0,0.0,0.0,0.0,0.0,0.0,0.0,0.0,0.0,0.0,0.0,0.0
3.5737202167510986,10.64552511482288,-0.6123076868654903,0.8750661317779052,-0.07731027401377855,0.0,0.0,0.2,0.0,0.0,0.0,0.0,0.0,0.0,0.0,0.0,0.0,0.0,0.0,0.0
3.584172487258911,10.663952919095772,-0.6072473077451714,0.8714322883681332,-0.07967210523746332,0.0,0.0,0.2,0.0,0.0,0.0,0.0,0.0,0.0,0.0,0.0,0.0,0.0,0.0,0.0
3.594674587249756,10.681945931649325,-0.6042775357216936,0.8704640626444583,-0.0800817864797109,0.0,0.0,0.2,0.0,0.0,0.0,0.0,0.0,0.0,0.0,0.0,0.0,0.0,0.0,0.0
3.605328321456909,10.722282259639872,-0.6209925690821584,0.8383881382383671,-0.09214578833729153,0.0,0.0,0.2,0.0,0.0,0.0,0.0,0.0,0.0,0.0,0.0,0.0,0.0,0.0,0.0
3.6160175800323486,10.78710902169371,-0.6157396429927884,0.8154436015005024,-0.09075598197713905,0.0,0.0,0.2,0.0,0.0,0.0,0.0,0.0,0.0,0.0,0.0,0.0,0.0,0.0,0.0
3.6264495849609375,10.846002094630261,-0.6094077242036137,0.7902499582874779,-0.09486796693856432,0.0,0.0,0.2,0.0,0.0,0.0,0.0,0.0,0.0,0.0,0.0,0.0,0.0,0.0,0.0
3.637052059173584,10.88000786337305,-0.6026658024898564,0.760548261983223,-0.09849007053152989,0.0,0.0,0.2,0.0,0.0,0.0,0.0,0.0,0.0,0.0,0.0,0.0,0.0,0.0,0.0
3.6476595401763916,10.881061804007855,-0.5907638977115253,0.7516890921414154,-0.10068695432881665,0.0,0.0,0.2,0.0,0.0,0.0,0.0,0.0,0.0,0.0,0.0,0.0,0.0,0.0,0.0
3.6585378646850586,10.874806725058043,-0.5786504763757346,0.7556443728646748,-0.10026906864165179,0.0,0.0,0.2,0.0,0.0,0.0,0.0,0.0,0.0,0.0,0.0,0.0,0.0,0.0,0.0
3.6690869331359863,10.849453644816313,-0.5831501106163313,0.7492562130623452,-0.10488095294680076,0.0,0.0,0.2,0.0,0.0,0.0,0.0,0.0,0.0,0.0,0.0,0.0,0.0,0.0,0.0
3.6796467304229736,10.829955435938707,-0.5776901037202375,0.7543161294021573,-0.10572716442633404,0.0,0.0,0.2,0.0,0.0,0.0,0.0,0.0,0.0,0.0,0.0,0.0,0.0,0.0,0.0
3.690493583679199,10.814580902300442,-0.5677916698291965,0.7469438791231634,-0.10262701617385969,0.0,0.0,0.2,0.0,0.0,0.0,0.0,0.0,0.0,0.0,0.0,0.0,0.0,0.0,0.0
3.7009618282318115,10.78329070694641,-0.5341307742510298,0.794581456392645,-0.09162814745131727,0.0,0.0,0.2,0.0,0.0,0.0,0.0,0.0,0.0,0.0,0.0,0.0,0.0,0.0,0.0
3.711881637573242,10.791712326772554,-0.5673740455561919,0.819046922357336,-0.07294055839859206,0.0,0.0,0.2,0.0,0.0,0.0,0.0,0.0,0.0,0.0,0.0,0.0,0.0,0.0,0.0
3.722932815551758,10.799589990915491,-0.5072907755433343,0.7845554135621766,-0.0932781472332557,0.0,0.0,0.2,0.0,0.0,0.0,0.0,0.0,0.0,0.0,0.0,0.0,0.0,0.0,0.0
3.73340106010437,10.786697977768428,-0.5102645747704322,0.7750425147943594,-0.09359940959226683,0.0,0.0,0.2,0.0,0.0,0.0,0.0,0.0,0.0,0.0,0.0,0.0,0.0,0.0,0.0
3.7441647052764893,10.766135460132885,-0.5080537071709882,0.7800088755437617,-0.09153469635047154,0.0,0.0,0.2,0.0,0.0,0.0,0.0,0.0,0.0,0.0,0.0,0.0,0.0,0.0,0.0
3.7547080516815186,10.754541609720647,-0.5074992861193354,0.771735873977613,-0.09084748073216613,0.0,0.0,0.2,0.0,0.0,0.0,0.0,0.0,0.0,0.0,0.0,0.0,0.0,0.0,0.0
3.7651286125183105,10.75119957512876,-0.5006464226772722,0.7509884451777759,-0.09014101959141524,0.0,0.0,0.2,0.0,0.0,0.0,0.0,0.0,0.0,0.0,0.0,0.0,0.0,0.0,0.0
3.7756001949310303,10.753242749164276,-0.49411485006220446,0.7405018369721169,-0.08900455753464519,0.0,0.0,0.2,0.0,0.0,0.0,0.0,0.0,0.0,0.0,0.0,0.0,0.0,0.0,0.0
3.7860100269317627,10.756858075346313,-0.49215619296225477,0.7232744927784347,-0.09110000737554008,0.0,0.0,0.2,0.0,0.0,0.0,0.0,0.0,0.0,0.0,0.0,0.0,0.0,0.0,0.0
3.7963595390319824,10.759438782424574,-0.48825404284876195,0.7109792659907708,-0.08893298885093473,0.0,0.0,0.2,0.0,0.0,0.0,0.0,0.0,0.0,0.0,0.0,0.0,0.0,0.0,0.0
3.80702805519104,10.759591884339777,-0.4790279086310267,0.6987105440209507,-0.0864859533230753,0.0,0.0,0.2,0.0,0.0,0.0,0.0,0.0,0.0,0.0,0.0,0.0,0.0,0.0,0.0
3.8175292015075684,10.755164013820307,-0.48564748062082164,0.6825238113512576,-0.08638833766395677,0.0,0.0,0.2,0.0,0.0,0.0,0.0,0.0,0.0,0.0,0.0,0.0,0.0,0.0,0.0
3.828310966491699,10.748581070047116,-0.48263301462426383,0.6747428808885951,-0.08431082377167563,0.0,0.0,0.2,0.0,0.0,0.0,0.0,0.0,0.0,0.0,0.0,0.0,0.0,0.0,0.0
3.8393056392669678,10.739526626941885,-0.48389133113586796,0.6679787009268261,-0.07987366100788233,0.0,0.0,0.2,0.0,0.0,0.0,0.0,0.0,0.0,0.0,0.0,0.0,0.0,0.0,0.0
3.8498497009277344,10.73180836284725,-0.49459162141397534,0.6602960198783623,-0.07597789436057897,0.0,0.0,0.2,0.0,0.0,0.0,0.0,0.0,0.0,0.0,0.0,0.0,0.0,0.0,0.0
3.8605058193206787,10.73354000132258,-0.5301474758692243,0.6227517555053413,-0.07388829987622553,0.0,0.0,0.2,0.0,0.0,0.0,0.0,0.0,0.0,0.0,0.0,0.0,0.0,0.0,0.0
3.871279239654541,10.732030045808084,-0.5093049840915465,0.6443324597658662,-0.06925010506111513,0.0,0.0,0.2,0.0,0.0,0.0,0.0,0.0,0.0,0.0,0.0,0.0,0.0,0.0,0.0
3.881779670715332,10.721006112603964,-0.5179888883537177,0.6428147123435192,-0.062349036345133786,0.0,0.0,0.2,0.0,0.0,0.0,0.0,0.0,0.0,0.0,0.0,0.0,0.0,0.0,0.0
3.8924214839935303,10.703307102641755,-0.5245664045125289,0.6432386075812816,-0.05893316806100106,0.0,0.0,0.2,0.0,0.0,0.0,0.0,0.0,0.0,0.0,0.0,0.0,0.0,0.0,0.0
3.903006076812744,10.689628800005654,-0.533795305335671,0.6413497460098061,-0.05271083935204485,0.0,0.0,0.2,0.0,0.0,0.0,0.0,0.0,0.0,0.0,0.0,0.0,0.0,0.0,0.0
3.9134130477905273,10.680909256581213,-0.5393764988965788,0.6451376555895387,-0.048990356659999484,0.0,0.0,0.2,0.0,0.0,0.0,0.0,0.0,0.0,0.0,0.0,0.0,0.0,0.0,0.0
3.923901081085205,10.670218903901173,-0.5458987021443072,0.6484035858312129,-0.0428474276741505,0.0,0.0,0.2,0.0,0.0,0.0,0.0,0.0,0.0,0.0,0.0,0.0,0.0,0.0,0.0
3.9342873096466064,10.672585597394903,-0.5854234661451339,0.6167659189329561,-0.04376794728648578,0.0,0.0,0.2,0.0,0.0,0.0,0.0,0.0,0.0,0.0,0.0,0.0,0.0,0.0,0.0
3.9448437690734863,10.683265235466955,-0.5901463872927506,0.6159003936662221,-0.040862264512790014,0.0,0.0,0.2,0.0,0.0,0.0,0.0,0.0,0.0,0.0,0.0,0.0,0.0,0.0,0.0
3.9558827877044678,10.694545898374644,-0.5903360179363755,0.6187539233314131,-0.03573536830506733,0.0,0.0,0.2,0.0,0.0,0.0,0.0,0.0,0.0,0.0,0.0,0.0,0.0,0.0,0.0
3.966233015060425,10.704685852320775,-0.5871334784593297,0.6280023572479579,-0.0324650040382489,0.0,0.0,0.2,0.0,0.0,0.0,0.0,0.0,0.0,0.0,0.0,0.0,0.0,0.0,0.0
3.9767379760742188,10.704928229442983,-0.5928992737224733,0.6288689047225874,-0.030272285016457613,0.0,0.0,0.2,0.0,0.0,0.0,0.0,0.0,0.0,0.0,0.0,0.0,0.0,0.0,0.0
3.9872851371765137,10.704326424269997,-0.5926824095856363,0.6368306790758865,-0.029868231611875514,0.0,0.0,0.2,0.0,0.0,0.0,0.0,0.0,0.0,0.0,0.0,0.0,0.0,0.0,0.0
3.9976346492767334,10.70491628079715,-0.5912478709358534,0.6540363921143559,-0.027880042356870933,0.0,0.0,0.2,0.0,0.0,0.0,0.0,0.0,0.0,0.0,0.0,0.0,0.0,0.0,0.0
4.008062839508057,10.704652036372648,-0.5914374015095786,0.6648581909114649,-0.026188138000059744,0.0,0.0,0.2,0.0,0.0,0.0,0.0,0.0,0.0,0.0,0.0,0.0,0.0,0.0,0.0
4.018387794494629,10.706978087104593,-0.5913072382219723,0.6751875181107972,-0.026061795298050822,0.0,0.0,0.2,0.0,0.0,0.0,0.0,0.0,0.0,0.0,0.0,0.0,0.0,0.0,0.0
