T,Px,Py,Pz,Vx,Vy,Vz,Roll,Pitch,Yaw,R_rate,P_rate,Y_rate,T,M1,M2,M3,Wb1,Wb2,Wb3
0,0.0,0.0,0.0,0.0,0.0,0.0,-0.00275955192726728,-0.056030857126459256,-0.005846581118302194,0.0,0.0,0.0,0.0,0.0,0.0,0.0,0.0,0.0,0.0
0.00024366378784179688,0.006102769837981736,-0.0001843517131351144,0.002429077768272194,-0.5832631704418229,0.017603885970325098,-0.2321812813876279,-5.893499150311692e-05,-0.001175622319245903,-0.00012306163864121082,0.0,0.0,0.0,0.0,0.0,0.0,0.0,0.0,0.0,0.0
0.010986804962158203,0.03011332610019577,-0.0009102200316096595,0.01198556082827199,-2.19175774493603,0.06614849118214518,-0.8724825619693933,-0.0002886008177925316,-0.0058081148088057295,-0.0006081855348737267,0.0,0.0,0.0,0.0,0.0,0.0,0.0,0.0,0.0,0.0
0.02138233184814453,0.06474555758498442,-0.0019577830628143265,0.025768333172732808,-3.2250581516011705,0.09732458666723975,-1.283825810087671,-0.000626478422707093,-0.012482427157015613,-0.0013036589828566082,0.0,0.0,0.0,0.0,0.0,0.0,0.0,0.0,0.0,0.0
0.0320887565612793,0.11265608580260145,-0.0034063085863400237,0.04483377759558733,-3.5605109098173435,0.10742461773677103,-1.4174008927470527,-0.0011231436663472942,-0.02167938247992721,-0.0022525604227769287,0.0,0.0,0.0,0.0,0.0,0.0,0.0,0.0,0.0,0.0
0.04293060302734375,0.16005510068868806,-0.004838588258406321,0.06369541267104714,-3.03143786879991,0.09142419041957064,-1.2068619002165446,-0.0016405507485381765,-0.030750591160293494,-0.003185038187085319,0.0,0.0,0.0,0.0,0.0,0.0,0.0,0.0,0.0,0.0
0.05331873893737793,0.1856365715326294,-0.005611553540757379,0.07387719813169354,-1.8612321072352147,0.056084828936427716,-0.7410967811634346,-0.0019222786653453105,-0.03564495965499627,-0.0036943960441963106,0.0,0.0,0.0,0.0,0.0,0.0,0.0,0.0,0.0,0.0
0.06390881538391113,0.22538326075562604,-0.006813120210531152,0.08969913208959604,-0.851071688683761,0.025573548023819878,-0.33903545664554946,-0.0023316864693438055,-0.043284243382193874,-0.004495877748809846,0.0,0.0,0.0,0.0,0.0,0.0,0.0,0.0,0.0,0.0
0.07441830635070801,0.2488061711161887,-0.0075216035443926845,0.09902583023858871,0.16705554021623564,-0.005169214733208636,0.0662494484738855,-0.002560053033871328,-0.04780421355522842,-0.004977796362711213,0.0,0.0,0.0,0.0,0.0,0.0,0.0,0.0,0.0,0.0
0.08494353294372559,0.26974619870688993,-0.008154461762790267,0.10736418200918652,1.009785464790052,-0.030615348387112537,0.40175086380909586,-0.0027516552647685686,-0.051850396461284046,-0.005414431363525082,0.0,0.0,0.0,0.0,0.0,0.0,0.0,0.0,0.0,0.0
0.09548616409301758,0.28515242982234745,-0.008620232271412145,0.11349860213502971,1.6222704224821118,-0.04910460285074995,0.6456248528237505,-0.002890572694675537,-0.05482618489117124,-0.005737055356148797,0.0,0.0,0.0,0.0,0.0,0.0,0.0,0.0,0.0,0.0
0.10595822334289551,0.2913520991029466,-0.008808544548365854,0.11596687218675134,1.9591372681023302,-0.05926714910947936,0.7797887456612451,-0.0029523575328751356,-0.056022959031943605,-0.005863084503338451,0.0,0.0,0.0,0.0,0.0,0.0,0.0,0.0,0.0,0.0
0.11652135848999023,0.3018449719903269,-0.009124937193930899,0.12014369002299528,2.1226685942046215,-0.06419691320631378,0.844938498014944,-0.0030606016038464824,-0.05804597847092424,-0.0060677995158504765,0.0,0.0,0.0,0.0,0.0,0.0,0.0,0.0,0.0,0.0
0.1274099349975586,0.32135697306150257,-0.009712550311298333,0.1279077615904752,2.2312547528813598,-0.06746248635039792,0.8881941726543839,-0.0033505927597428055,-0.061860217270450636,-0.006380589644785982,0.0,0.0,0.0,0.0,0.0,0.0,0.0,0.0,0.0,0.0
0.13781142234802246,0.2956840427360379,-0.008931931786568967,0.11768318306130021,1.9081989941451447,-0.05766403776891889,0.7595915879588349,-0.003316130419111323,-0.05704362144295738,-0.005693683150386407,0.0,0.0,0.0,0.0,0.0,0.0,0.0,0.0,0.0,0.0
0.14831113815307617,0.29946280636441125,-0.009035645251150696,0.11918318652642299,1.6143429274709384,-0.04871655116810334,0.6425782122176198,-0.003598742861554666,-0.05788330979210323,-0.005594721576718643,0.0,0.0,0.0,0.0,0.0,0.0,0.0,0.0,0.0,0.0
0.1588137149810791,0.2981696837731826,-0.00898631657005252,0.11866967504166445,1.2281810241350768,-0.036935295768157635,0.48881322042092484,-0.003713573625444248,-0.05767473712961997,-0.005487775621089461,0.0,0.0,0.0,0.0,0.0,0.0,0.0,0.0,0.0,0.0
0.1692662239074707,0.2941484359321336,-0.008858586870503,0.11707466388290289,0.8643001638581713,-0.025809564892451387,0.3439516750363568,-0.003723980542092449,-0.05687861273728118,-0.005393280937103251,0.0,0.0,0.0,0.0,0.0,0.0,0.0,0.0,0.0,0.0
0.1797633171081543,0.295098057003565,-0.00888234386501048,0.11746181702692257,0.5536732057256966,-0.016306757908430544,0.22034639730057015,-0.0037716234100796616,-0.0570023541426381,-0.00540797262165421,0.0,0.0,0.0,0.0,0.0,0.0,0.0,0.0,0.0,0.0
0.1902143955230713,0.2916859586575159,-0.008776410373408877,0.11610951765135849,0.2921262466916448,-0.008333186495655944,0.11632885185428152,-0.003747965075270868,-0.05626835188967412,-0.005352756982333526,0.0,0.0,0.0,0.0,0.0,0.0,0.0,0.0,0.0,0.0
0.20070719718933105,0.29294351572351074,-0.008808381098280997,0.11660900032860247,0.0961610704380682,-0.002370185544497199,0.03842005090889701,-0.0037983890872178693,-0.0564338944450405,-0.005408099664424064,0.0,0.0,0.0,0.0,0.0,0.0,0.0,0.0,0.0,0.0
0.21126747131347656,0.2956127039012568,-0.008870187882374425,0.11765856306895199,-0.03325137839577681,0.001594087715391382,-0.013062666444367654,-0.0038786600945476483,-0.05679513060424489,-0.005486429905282,0.0,0.0,0.0,0.0,0.0,0.0,0.0,0.0,0.0,0.0
0.22168278694152832,0.28772952418404346,-0.008596055942595568,0.11451015651937281,-0.11223814414266571,0.00410918918726853,-0.04458216389162475,-0.003975856201913743,-0.05488785893188703,-0.005276991240909692,0.0,0.0,0.0,0.0,0.0,0.0,0.0,0.0,0.0,0.0
0.23235654830932617,0.3001648604381152,-0.008895261832713925,0.11951126184981722,-0.16132326003798597,0.006010226094936868,-0.06413842874232083,-0.00508358200669622,-0.05663129581972921,-0.005146763183052682,0.0,0.0,0.0,0.0,0.0,0.0,0.0,0.0,0.0,0.0
0.24306225776672363,0.3008779230057547,-0.008793765404062024,0.1199618642991886,-0.1380398956524967,0.006116558986212597,-0.05434217550885034,-0.007117119144547548,-0.05603446957654581,-0.004333542717261381,0.0,0.0,0.0,0.0,0.0,0.0,0.0,0.0,0.0,0.0
0.2535221576690674,0.2874868933605884,-0.008229947904649173,0.11490020856609666,-0.10558143921311025,0.006359337643876797,-0.03983796945150814,-0.009694741426558321,-0.05258446953125967,-0.0029574906133394132,0.0,0.0,0.0,0.0,0.0,0.0,0.0,0.0,0.0,0.0
0.26417994499206543,0.29653096328654616,-0.00823761817393119,0.11895667379193572,-0.11911477045332818,0.00893539817543873,-0.041836900471758115,-0.014031251756867116,-0.05258780290347663,-0.0015740661937220135,0.0,0.0,0.0,0.0,0.0,0.0,0.0,0.0,0.0,0.0
0.27468132972717285,0.28819057501288503,-0.007669694664844497,0.11625221858425099,-0.11980747863498989,0.011695544638702812,-0.03699556748139482,-0.018606760823966367,-0.04848657886759305,6.57083851490673e-05,0.0,0.0,0.0,0.0,0.0,0.0,0.0,0.0,0.0,0.0
0.28512072563171387,0.2849956899188825,-0.007158507595329627,0.11583910367520577,-0.13309303759259639,0.015805443441810646,-0.03479919097416295,-0.024066438937040933,-0.044299928329796144,0.001678057677062751,0.0,0.0,0.0,0.0,0.0,0.0,0.0,0.0,0.0,0.0
0.2957282066345215,0.2935917619481548,-0.006856040070132567,0.12050785066529687,-0.1476653213270936,0.021604117196959368,-0.02919954748787438,-0.030988712622219635,-0.04081082866714716,0.003363532744297676,0.0,0.0,0.0,0.0,0.0,0.0,0.0,0.0,0.0,0.0
0.3061954975128174,0.2870106153060402,-0.006124189273535922,0.11932024392690319,-0.12295398693616846,0.02633068379680721,-0.006057191206913592,-0.03644754829895481,-0.0340805908204495,0.004889815215526997,0.0,0.0,0.0,0.0,0.0,0.0,0.0,0.0,0.0,0.0
0.31661486625671387,0.28521717555038206,-0.005428242001228477,0.12055887301260027,-0.11137844377996238,0.03217629826469254,0.01571958064938976,-0.042270199330647996,-0.026986630176106807,0.006282678352703692,0.0,0.0,0.0,0.0,0.0,0.0,0.0,0.0,0.0,0.0
0.3272736072540283,0.29778511762470516,-0.004915111675821049,0.12843192604004647,-0.09429352986131657,0.0402114479134516,0.04857775108500692,-0.05033311628444399,-0.020066861582639144,0.007723088881075059,0.0,0.0,0.0,0.0,0.0,0.0,0.0,0.0,0.0,0.0
0.33763933181762695,0.2836380730404095,-0.003921043555709956,0.12518124010701714,-0.05101870026823364,0.044405677997648635,0.08889340616246938,-0.0538626907747443,-0.011009905685599683,0.008292668865295779,0.0,0.0,0.0,0.0,0.0,0.0,0.0,0.0,0.0,0.0
0.348341703414917,0.30078001740249327,-0.0032704579631650634,0.13630211495750227,-0.022047707105181558,0.053804452917906975,0.14049454485474555,-0.06348680518696805,-0.0029233302560643616,0.0097398089444496,0.0,0.0,0.0,0.0,0.0,0.0,0.0,0.0,0.0,0.0
0.3591935634613037,0.3080063873278172,-0.0023238912615735053,0.14392450875086885,0.05822632759829642,0.061590641431662034,0.218019197038616,-0.07155628774688463,0.006166006738354307,0.010879715085191533,0.0,0.0,0.0,0.0,0.0,0.0,0.0,0.0,0.0,0.0
0.36956787109375,0.28310951693941144,-0.001353941489556808,0.13583681356014327,0.10681357519612725,0.062393168166646695,0.26109886207020977,-0.0696193528498866,0.011645735809317243,0.010326493974770415,0.0,0.0,0.0,0.0,0.0,0.0,0.0,0.0,0.0,0.0
0.38006114959716797,0.2884654267258448,-0.0009210520773602273,0.14080799038239666,0.054126948020670626,0.06857754932604887,0.2731725723448097,-0.07119142058366407,0.013744189877789609,0.010075332643225712,0.0,0.0,0.0,0.0,0.0,0.0,0.0,0.0,0.0,0.0
0.3908116817474365,0.3011446845814066,-0.00033255028490398553,0.15032814446944218,0.011333363898361535,0.0738001271987446,0.28876801563085597,-0.07427386761901647,0.01630602387294598,0.01001490241598248,0.0,0.0,0.0,0.0,0.0,0.0,0.0,0.0,0.0,0.0
0.40120768547058105,0.2833405363632385,0.000745869875320553,0.14671410006436858,0.008232174959122325,0.07003084011730196,0.2905652067805477,-0.0717160559083702,0.019743117953338028,0.009450428459205486,0.0,0.0,0.0,0.0,0.0,0.0,0.0,0.0,0.0,0.0
0.4116981029510498,0.2882842524176253,0.0021814485238534397,0.1562880145980689,-0.03253165969714057,0.07401605752697904,0.3056017462498332,-0.07594689782699705,0.026002434316108804,0.010014612880095754,0.0,0.0,0.0,0.0,0.0,0.0,0.0,0.0,0.0,0.0
0.4221642017364502,0.2878453838684371,0.0038070233021641237,0.164061589803422,-0.07276698216051321,0.08067207417133472,0.3326812539194086,-0.07919589654526171,0.032432130866931246,0.010587054760116229,0.0,0.0,0.0,0.0,0.0,0.0,0.0,0.0,0.0,0.0
0.43279099464416504,0.29667231270135264,0.005760601451997043,0.17806673030770861,-0.06694713932978769,0.09425535101646186,0.41337666829636155,-0.08491069696720725,0.0400211537807441,0.011610603239371438,0.0,0.0,0.0,0.0,0.0,0.0,0.0,0.0,0.0,0.0
0.4437129497528076,0.31179679796459475,0.008144187180354392,0.19726447589671736,0.011627543573820055,0.1149185020553766,0.5624443797384668,-0.09198345829536493,0.04827517256703366,0.013020871190530607,0.0,0.0,0.0,0.0,0.0,0.0,0.0,0.0,0.0,0.0
0.45412278175354004,0.2854675101396712,0.009499500181823953,0.19034496564589964,0.07983087656994764,0.12109089923279318,0.632201167771558,-0.08576251988008211,0.048721081353025955,0.012748124039025071,0.0,0.0,0.0,0.0,0.0,0.0,0.0,0.0,0.0,0.0
0.46458935737609863,0.2881843280893169,0.011772353700197184,0.20235466714821762,0.04299689052862812,0.13657983846151278,0.6900829192513765,-0.08693207797571201,0.052252771507425515,0.013667667133807722,0.0,0.0,0.0,0.0,0.0,0.0,0.0,0.0,0.0,0.0
0.4752383232116699,0.2977944382225567,0.014540046325025827,0.220018707554045,-0.008607988837330856,0.1563263885742205,0.7569268691148656,-0.08867962980472616,0.0555414266654773,0.014719621588864026,0.0,0.0,0.0,0.0,0.0,0.0,0.0,0.0,0.0,0.0
0.4856445789337158,0.28633573975410986,0.016340466640048325,0.22225178864158607,-0.01844677208873837,0.1656237376898575,0.7900687199018591,-0.08271227230206382,0.0533781487937009,0.014477164054783054,0.0,0.0,0.0,0.0,0.0,0.0,0.0,0.0,0.0,0.0
0.4961223602294922,0.2909151522434752,0.0189960543528059,0.23660907466555425,-0.04222876467981986,0.18175220072152637,0.8462225262934702,-0.08018689403888671,0.05269886325760095,0.014838477925533477,0.0,0.0,0.0,0.0,0.0,0.0,0.0,0.0,0.0,0.0
0.5064678192138672,0.28575575734122527,0.020991076140636594,0.24296659922773556,-0.0676207446374597,0.18954022932449924,0.8601715070101825,-0.07378493206909352,0.04884185256435168,0.014547344429479638,0.0,0.0,0.0,0.0,0.0,0.0,0.0,0.0,0.0,0.0
0.5169227123260498,0.2930091595828921,0.023950351379971604,0.2601118365182111,-0.07692441307151325,0.20421595612726223,0.9145552723453552,-0.06930357389435285,0.045755178883186656,0.01482742128846605,0.0,0.0,0.0,0.0,0.0,0.0,0.0,0.0,0.0,0.0
0.5274965763092041,0.3007358138995067,0.027095545965966437,0.2783150337546574,-0.04087502351159394,0.22081032568680023,1.0011004095583562,-0.06356013090126653,0.041406986153590584,0.015089930720980096,0.0,0.0,0.0,0.0,0.0,0.0,0.0,0.0,0.0,0.0
0.5379183292388916,0.29423675448933234,0.028947277201428347,0.28326665119259886,0.019835284326726824,0.22663867507772428,1.0512968802765776,-0.053965911651156356,0.03438373605248179,0.014539623921496296,0.0,0.0,0.0,0.0,0.0,0.0,0.0,0.0,0.0,0.0
0.5484516620635986,0.3010055996407147,0.032094464524421565,0.30093497940386843,0.059492482293482696,0.2391748240061103,1.1224969403190737,-0.045937397890405275,0.028418925739083896,0.014605250026253012,0.0,0.0,0.0,0.0,0.0,0.0,0.0,0.0,0.0,0.0
0.558962345123291,0.3007048611204,0.034562661521584735,0.31193657205830067,0.09255702277610987,0.24463385235529841,1.1590080993873597,-0.035675223472170586,0.02105087478871465,0.014398653914259858,0.0,0.0,0.0,0.0,0.0,0.0,0.0,0.0,0.0,0.0
0.5693397521972656,0.29462738338799543,0.036332142679570065,0.31686069556061336,0.10297248164701914,0.2422365792125658,1.1497994566021172,-0.024183113397977282,0.012875066634576424,0.013875706455473938,0.0,0.0,0.0,0.0,0.0,0.0,0.0,0.0,0.0,0.0
0.5798311233520508,0.3013870026714368,0.03966647820176964,0.3355280672296355,0.09179150517722745,0.24721201231939108,1.1645632431660047,-0.013366557470736097,0.0049612066789750005,0.013759771047511,0.0,0.0,0.0,0.0,0.0,0.0,0.0,0.0,0.0,0.0
0.5903463363647461,0.30345550761553586,0.04242530459956585,0.34922590433098855,0.09560111774642485,0.25016333784943534,1.17955006312146,-0.0017828643017810731,-0.0033854404936454956,0.013335936990695865,0.0,0.0,0.0,0.0,0.0,0.0,0.0,0.0,0.0,0.0
0.600731611251831,0.2974360692175369,0.04401753989544644,0.3536493483280676,0.09728781797441251,0.24584726555286562,1.1623409623787824,0.010069131355594495,-0.011596417995397833,0.0126300908316165,0.0,0.0,0.0,0.0,0.0,0.0,0.0,0.0,0.0,0.0
0.6112666130065918,0.3059306550123443,0.04774798912403897,0.37554790905675656,0.09020628937265299,0.2514805512708694,1.1881241464878631,0.022694294893098953,-0.02033286879786912,0.012564421476489954,0.0,0.0,0.0,0.0,0.0,0.0,0.0,0.0,0.0,0.0
0.6216654777526855,0.29946197654974366,0.04907764067173895,0.3790053211956338,0.08347932751621148,0.24508565033191085,1.1626375552650716,0.03410088605689035,-0.02779732101716427,0.011815430334130107,0.0,0.0,0.0,0.0,0.0,0.0,0.0,0.0,0.0,0.0
0.632195234298706,0.3068372293940886,0.052596053202617364,0.3998972617755359,0.08084036172898129,0.2492723252756439,1.1910917373377525,0.046899710001643675,-0.03615045387813086,0.011585264378616029,0.0,0.0,0.0,0.0,0.0,0.0,0.0,0.0,0.0,0.0
0.6431641578674316,0.3300455860215885,0.05898586855602707,0.442603913620762,0.1447731065733143,0.27606532952395546,1.3629493511327706,0.06330321179501937,-0.046786920115651824,0.011870926424866798,0.0,0.0,0.0,0.0,0.0,0.0,0.0,0.0,0.0,0.0
0.6536800861358643,0.30471023789153123,0.05663318535426114,0.420120253204185,0.21093621251579367,0.2650662403632921,1.3626690520471132,0.07036030579667601,-0.05020708801715125,0.010276427463274278,0.0,0.0,0.0,0.0,0.0,0.0,0.0,0.0,0.0,0.0
0.6642417907714844,0.3058220181062401,0.058996725120885746,0.4332499786579377,0.1845469306368538,0.25691130779038257,1.3319161834316813,0.08241647377067783,-0.05714985651055708,0.009505900987955071,0.0,0.0,0.0,0.0,0.0,0.0,0.0,0.0,0.0,0.0
0.6747353076934814,0.30158662769845723,0.06029271933277937,0.4389285214951644,0.09197598695734464,0.23280427437697987,1.1941806207064614,0.09251076991610055,-0.06285912773502271,0.008614066822462655,0.0,0.0,0.0,0.0,0.0,0.0,0.0,0.0,0.0,0.0
0.6851804256439209,0.29896635363526625,0.06180970491258492,0.44677684515338656,0.006225450837690688,0.2108568442326237,1.0711391637218086,0.10219039900235996,-0.0686377185023659,0.007989876893325304,0.0,0.0,0.0,0.0,0.0,0.0,0.0,0.0,0.0,0.0
0.6957762241363525,0.3070561625001285,0.06545784490776452,0.4705606370865182,-0.05202842630759431,0.20142847229132607,1.0256014280079229,0.1147994195023384,-0.07666836254057526,0.00784411934231815,0.0,0.0,0.0,0.0,0.0,0.0,0.0,0.0,0.0,0.0
0.7064576148986816,0.3116432142103565,0.06828872032201869,0.4891442195160372,-0.046613741919927676,0.20156494314928672,1.0591901580333283,0.1254967675704716,-0.08351271227762293,0.007707204179155647,0.0,0.0,0.0,0.0,0.0,0.0,0.0,0.0,0.0,0.0
0.7173011302947998,0.3195777836851796,0.07178491779095338,0.5133608169656753,0.014953698052371811,0.21429982270263315,1.1860984172414581,0.13696662355564088,-0.09088703804322863,0.007730313259435179,0.0,0.0,0.0,0.0,0.0,0.0,0.0,0.0,0.0,0.0
0.7284350395202637,0.3331116942149974,0.07652638485746095,0.5472234948969272,0.13033634002032793,0.24087293096432186,1.4156951959556459,0.15037451731625268,-0.09948910460558934,0.00789730262986476,0.0,0.0,0.0,0.0,0.0,0.0,0.0,0.0,0.0,0.0
0.7391750812530518,0.3093423270697997,0.07253965037859436,0.5193511914257574,0.19848340764990846,0.23205911180755756,1.431192326060291,0.14558607246670574,-0.09601897133831774,0.007268298447075594,0.0,0.0,0.0,0.0,0.0,0.0,0.0,0.0,0.0,0.0
0.7501320838928223,0.31755411778971326,0.07588194245375526,0.5447839443059346,0.17736394756318058,0.2218211509063106,1.4157903408978048,0.1543384673604293,-0.10154761123007724,0.007567968340730423,0.0,0.0,0.0,0.0,0.0,0.0,0.0,0.0,0.0,0.0
0.7607223987579346,0.2963171036881349,0.07203565160178646,0.519305099760025,0.07461471432072142,0.1757504738345932,1.161644012337638,0.14748863262915096,-0.09684403869030916,0.00722768967768744,0.0,0.0,0.0,0.0,0.0,0.0,0.0,0.0,0.0,0.0
0.771259069442749,0.29238317679726145,0.0721932033760955,0.5230543709482689,-0.06994840415864856,0.1291152145221812,0.8948904087730991,0.14784839454475998,-0.09679578349125158,0.007361488217091389,0.0,0.0,0.0,0.0,0.0,0.0,0.0,0.0,0.0,0.0
0.7823071479797363,0.3178134534398005,0.07956716220927994,0.5798302930304677,-0.17732734030589586,0.1054789876928337,0.7960164703222192,0.16183800715331279,-0.105514348928153,0.008372764428242054,0.0,0.0,0.0,0.0,0.0,0.0,0.0,0.0,0.0,0.0
0.793363094329834,0.3169263296430298,0.08031275443243828,0.5893038015784681,-0.12357244233129386,0.10807974910839899,0.8880117226426458,0.16102233827989731,-0.10450268692866582,0.008752599716455575,0.0,0.0,0.0,0.0,0.0,0.0,0.0,0.0,0.0,0.0
0.8038167953491211,0.2851177589832827,0.07300867599244099,0.5400401760202562,-0.09043202596164363,0.09223151999773657,0.8253203841943949,0.1433223097236943,-0.09257575187436831,0.008223423431411353,0.0,0.0,0.0,0.0,0.0,0.0,0.0,0.0,0.0,0.0
0.8143830299377441,0.2903143693271736,0.07499833530954537,0.559698321479606,-0.19644211711657752,0.05669826159614514,0.630899749862713,0.14333062982159595,-0.09209331050175842,0.00867430067987377,0.0,0.0,0.0,0.0,0.0,0.0,0.0,0.0,0.0,0.0
0.8250501155853271,0.29591945959677757,0.07702785513989857,0.5802676638088494,-0.2828072636473065,0.025902292615028806,0.47251878467069275,0.1423277243265397,-0.09087416370731345,0.00899108953282352,0.0,0.0,0.0,0.0,0.0,0.0,0.0,0.0,0.0,0.0
0.8355097770690918,0.28636524901344074,0.07317985194840865,0.559981813623147,-0.2849036241729257,0.008007518902822388,0.39582275676138745,0.13065576379801777,-0.0842914274265855,0.008397540186996913,0.0,0.0,0.0,0.0,0.0,0.0,0.0,0.0,0.0,0.0
0.8459324836730957,0.28545616219787096,0.06868631190970913,0.5398205141464477,-0.2956475616240162,-0.024472291689748397,0.2371939140861083,0.11876465589284424,-0.07992194865132839,0.007487930850241093,0.0,0.0,0.0,0.0,0.0,0.0,0.0,0.0,0.0,0.0
0.8563055992126465,0.28437828711485724,0.06461208926872164,0.5222780408742295,-0.3011773413257577,-0.07725901443200071,-0.04371989603348961,0.10659283276889994,-0.07506248464261658,0.006484885871055452,0.0,0.0,0.0,26613.0,27373.0,29205.0,23897.0,0.0,0.0,0.0
0.8667447566986084,0.28930348220052193,0.06433907274870815,0.5307275907437723,-0.27966897699799753,-0.1321525467436416,-0.3159471815168762,0.09859683772276862,-0.07105967247821222,0.005868730688379283,0.0,0.0,0.0,28736.0,34115.0,35000.0,26215.0,0.0,0.0,0.0
0.8773605823516846,0.2994993040070588,0.06688478841257821,0.5594655658052098,-0.20679225009473806,-0.16387750461732625,-0.41427197813860417,0.09308586512061125,-0.06746877197672406,0.005564933104559269,0.0,0.0,0.0,28812.0,34887.0,35000.0,26302.0,0.0,0.0,0.0
0.887753963470459,0.28889624350934284,0.06578136574296277,0.5555569021899178,-0.1027515697337529,-0.15303920270932153,-0.29095389473076594,0.0816973662469994,-0.05875242533245943,0.005150026906256905,0.0,0.0,0.0,28812.0,34887.0,35000.0,26302.0,0.0,0.0,0.0
0.8982744216918945,0.29547785590324505,0.06906276220886107,0.5879293132959515,-0.0438605004693928,-0.1322100344757333,-0.09103349617899156,0.0753331916453554,-0.05316140295151462,0.00528834066669761,0.0,0.0,0.0,26763.0,28973.0,30740.0,24098.0,0.0,0.0,0.0
0.9092857837677002,0.3198236802674925,0.07678568852179798,0.6592301150744407,0.056378014649436495,-0.08533213774093298,0.341326445479672,0.0722107682828918,-0.04952602702953143,0.005733003317765781,0.0,0.0,0.0,26111.0,26531.0,28407.0,23400.0,0.0,0.0,0.0
0.9197089672088623,0.2876602948643456,0.07079236136130199,0.6136023988643149,0.14784201665840124,-0.012720745782286595,0.7817500133696599,0.05599885635046453,-0.03701260696529138,0.005140012002741447,0.0,0.0,0.0,25429.0,24191.0,26182.0,22670.0,0.0,0.0,0.0
0.9302194118499756,0.2897949242868437,0.07288429444725548,0.6383290592136636,0.11611159121131065,0.023979848521771173,1.0261177166081499,0.046869010817751605,-0.0296962233375396,0.005335328231900799,0.0,0.0,0.0,25073.0,22502.0,24593.0,22295.0,0.0,0.0,0.0
0.9410521984100342,0.3037691434130518,0.07776077720119415,0.688994345207391,0.0574991607142294,0.053813170431878124,1.2573408825014187,0.03854787226270848,-0.02340439280349045,0.005761637995348694,0.0,0.0,0.0,25059.0,22538.0,24542.0,22328.0,0.0,0.0,0.0
0.9515461921691895,0.28450040515425046,0.07377203982246018,0.6626994324307452,0.03205847514705062,0.07878750819777286,1.384469155993675,0.025487608048074366,-0.014787359030016925,0.00529902156966955,0.0,0.0,0.0,24615.0,20511.0,22642.0,21861.0,0.0,0.0,0.0
0.9619977474212646,0.2803754752054559,0.07331279739517141,0.6691433993036138,-0.045105022777564716,0.08097872607579652,1.381241810459676,0.01409728887406438,-0.007601896072421088,0.0049264030981232155,0.0,0.0,0.0,24917.0,21442.0,23536.0,22182.0,0.0,0.0,0.0
0.9724369049072266,0.2784492032539651,0.07313872014478606,0.6792752312818942,-0.15038903927634759,0.0649620726360163,1.2558057665946283,0.0029192126164108967,-0.0008448087453742472,0.004560738408892793,0.0,0.0,0.0,25784.0,24300.0,26430.0,23086.0,0.0,0.0,0.0
0.9828817844390869,0.2779002019786802,0.07308125607517993,0.6916050149144097,-0.22152896061773178,0.04760363612016556,1.1519367152308884,-0.008072220876792291,0.005560454191337341,0.004239733524570088,0.0,0.0,0.0,25784.0,24300.0,26430.0,23086.0,0.0,0.0,0.0
0.9936482906341553,0.29251956123260386,0.07680999419924647,0.7417055313416272,-0.23586736138353415,0.041645672136502526,1.2230712764677925,-0.019922860142178676,0.012197218242639883,0.004137884211276711,0.0,0.0,0.0,26018.0,25037.0,27255.0,23491.0,0.0,0.0,0.0
1.0041630268096924,0.2788483892593249,0.0729692930586587,0.7196337422739879,-0.17681059843223979,0.038292057907852395,1.255712021387086,-0.02954079722043142,0.017129687647526814,0.0036575212979772314,0.0,0.0,0.0,23236.0,27943.0,25839.0,26815.0,0.0,0.0,0.0
1.0147111415863037,0.2787840486164885,0.07260758344527937,0.7317501157091209,-0.15843063201819804,0.0248503758897773,1.2389702902993593,-0.03942562898112911,0.021957162204457426,0.003420234839395911,0.0,0.0,0.0,26073.0,26130.0,29026.0,24820.0,0.0,0.0,0.0
1.0256767272949219,0.2967747811570657,0.07686591038379406,0.791960929725806,-0.13375791088873723,0.014112897249821205,1.328455242981125,-0.05152851924502423,0.027704514715849844,0.0034064379255534854,0.0,0.0,0.0,26254.0,25825.0,28863.0,25127.0,0.0,0.0,0.0
1.0361683368682861,0.27151831777872293,0.06990097576354887,0.73636621164392,-0.07212689650468249,0.006480428802181569,1.2653548373799,-0.05486190399665833,0.02853085334318664,0.002886699160808898,0.0,0.0,0.0,26254.0,25825.0,28863.0,25127.0,0.0,0.0,0.0
1.0468883514404297,0.2796453906069421,0.07155081600681967,0.770330520214612,-0.08927956211440906,-0.015847860252130114,1.1789464682061954,-0.06326140982186633,0.0319109095611539,0.0027610641531957787,0.0,0.0,0.0,26420.0,25321.0,28429.0,25391.0,0.0,0.0,0.0
1.0574076175689697,0.2681336122782793,0.06820421112910346,0.749860477655472,-0.1305336240785469,-0.042312582952437776,0.9362443411021992,-0.06580057889247637,0.03234025162680179,0.002457558562401707,0.0,0.0,0.0,23828.0,27144.0,25827.0,28121.0,0.0,0.0,0.0
1.0678682327270508,0.2638004057955832,0.06673893825517102,0.7488158704337096,-0.18532396133034215,-0.06845684297402298,0.700996842351045,-0.06833769719665526,0.032912934445614564,0.0021967175847945213,0.0,0.0,0.0,23773.0,27038.0,25869.0,28229.0,0.0,0.0,0.0
1.0783467292785645,0.26358960768330836,0.06635367914494006,0.7591730864119276,-0.24746835467086767,-0.09328472834468096,0.4740411194617028,-0.07038269247191825,0.033435563621698264,0.00200111612988788,0.0,0.0,0.0,23738.0,27054.0,25924.0,28189.0,0.0,0.0,0.0
1.088775873184204,0.2608015134178014,0.06535545914373983,0.7615558194654393,-0.27797785056959345,-0.10646938138412776,0.33195080304037267,-0.07027856451274564,0.033182090728537325,0.0018555233643872608,0.0,0.0,0.0,26167.0,24789.0,28424.0,25610.0,0.0,0.0,0.0
1.0996205806732178,0.2790854218304709,0.06966474057850428,0.8256315479260457,-0.26748712673464986,-0.1095889872518237,0.40284109163436754,-0.07435738864343354,0.03517048803087288,0.0019095916414347918,0.0,0.0,0.0,23439.0,26937.0,25925.0,28051.0,0.0,0.0,0.0
1.1103019714355469,0.27004407335980274,0.06719076721877866,0.8090972353503101,-0.16694290751472352,-0.08357330855913245,0.6222471996763947,-0.06966440266975747,0.03320438649934835,0.0018595434425365091,0.0,0.0,0.0,25601.0,24025.0,27653.0,25001.0,0.0,0.0,0.0
1.1207315921783447,0.2568883624289802,0.06374495377600013,0.7793343640881121,-0.11710673890510015,-0.06760994423112499,0.6792960555899266,-0.06282486463718792,0.0302671788857719,0.0018807392408522734,0.0,0.0,0.0,22821.0,25595.0,24570.0,27566.0,0.0,0.0,0.0
1.131253957748413,0.2596051261369231,0.06427157213259045,0.7971658733682051,-0.14986147801951044,-0.07329605396712516,0.5597204899527353,-0.05873056196318913,0.02858338479869755,0.0020817888209734977,0.0,0.0,0.0,22821.0,25595.0,24570.0,27566.0,0.0,0.0,0.0
1.1418607234954834,0.2621556337424478,0.06478047660926511,0.8145866677698075,-0.16947996425733827,-0.07479504307871065,0.4837277135659943,-0.053195739210150826,0.026071067845939086,0.0022931412913797826,0.0,0.0,0.0,22599.0,25544.0,24344.0,26968.0,0.0,0.0,0.0
1.1523463726043701,0.25557065324431666,0.0630599142882826,0.8033766041265565,-0.1595540676255907,-0.0674334844784292,0.4659022986615996,-0.044893263898471314,0.02208893567630914,0.0024060213104326426,0.0,0.0,0.0,22674.0,25769.0,24327.0,26703.0,0.0,0.0,0.0
1.1628289222717285,0.25434347360889553,0.062689620571102,0.80853825689035,-0.16614339109948142,-0.06470853982251373,0.4197132979767605,-0.037157180258776706,0.018311684397014874,0.0025437989657660066,0.0,0.0,0.0,22161.0,25750.0,24246.0,26184.0,0.0,0.0,0.0
1.1732959747314453,0.25275590438217993,0.0622511398278162,0.8123143602019866,-0.1775068175348173,-0.06324371505795749,0.35925448140892147,-0.02904790159316517,0.014271676035242823,0.0026590254663406334,0.0,0.0,0.0,21700.0,25290.0,23822.0,25824.0,0.0,0.0,0.0
1.1837241649627686,0.25026994140464115,0.06160389044247812,0.813089847960495,-0.1825927259603759,-0.060463026262447886,0.3166267151722018,-0.020611171631481552,0.009947843031693987,0.0027449918341234765,0.0,0.0,0.0,21673.0,25555.0,23893.0,25518.0,0.0,0.0,0.0
1.1943457126617432,0.25777243643252623,0.06341832487162771,0.8465176887717846,-0.17453665560964143,-0.05539040165339557,0.3544523608984964,-0.012706182572828326,0.005726057412784438,0.0028974021229771123,0.0,0.0,0.0,20762.0,24425.0,22832.0,24557.0,0.0,0.0,0.0
1.2048070430755615,0.25076341831902493,0.060650357516218854,0.8159603039537966,-0.13512792294112264,-0.04446449334814333,0.4063398395169405,-0.0059812955454568075,0.0020772716307468153,0.0031259338363988074,0.0,0.0,0.0,19902.0,23843.0,22169.0,23662.0,0.0,0.0,0.0
1.2153027057647705,0.253830203793095,0.05877396279796081,0.7931676678141197,-0.10949612628223457,-0.04660077162065388,0.3051848372110797,-0.0026205177149601164,4.812017667349275e-05,0.0038923889163342013,0.0,0.0,0.0,19878.0,24051.0,21910.0,23150.0,0.0,0.0,0.0
1.2261674404144287,0.27108168966795804,0.06025730308637019,0.8169455418321265,-0.053587637150399436,-0.057686948639342456,0.10972518690565788,0.0012464560922107034,-0.0025551122876666284,0.00481818909645256,0.0,0.0,0.0,19878.0,24051.0,21910.0,23150.0,0.0,0.0,0.0
1.2366251945495605,0.25185916974803146,0.054975683857017225,0.7527015464199841,0.026821484070021436,-0.06257820626524252,-0.11669164686965139,0.007332876535068431,-0.006275849985434962,0.004659831392683283,0.0,0.0,0.0,21954.0,21908.0,23857.0,19442.0,0.0,0.0,0.0
1.2472105026245117,0.25511572466567595,0.055570157421927155,0.7709394521024716,0.03483643890726271,-0.08196990072350557,-0.434401183224704,0.015323335540497082,-0.011322123231773437,0.00463492013754469,0.0,0.0,0.0,18820.0,23366.0,20556.0,21270.0,0.0,0.0,0.0
1.2578482627868652,0.25456563921758457,0.055889242226584125,0.7873372263312413,0.008278327519982013,-0.09483591867222378,-0.6237208512926207,0.0241568317264241,-0.01696169816717485,0.004398142559943896,0.0,0.0,0.0,20914.0,20908.0,22096.0,17509.0,0.0,0.0,0.0
1.2682452201843262,0.2413179196989842,0.05367817454889099,0.7689422136495264,-0.03194572332930396,-0.09226835983689544,-0.5908878048730735,0.03183330326221716,-0.022015596658744554,0.0038562325355576514,0.0,0.0,0.0,18258.0,22892.0,19489.0,20156.0,0.0,0.0,0.0
1.2787632942199707,0.24361818643859534,0.05499092200629886,0.8016471008161656,-0.10769434348634425,-0.09270775500306165,-0.5208167328139596,0.04124788952904647,-0.028510392480107286,0.0035157783770471476,0.0,0.0,0.0,18340.0,22942.0,19482.0,20025.0,0.0,0.0,0.0
1.2892913818359375,0.24144905071487974,0.05523562406396471,0.8200841918287414,-0.16850934496916004,-0.0824553257152319,-0.28749012088140113,0.049549122443655426,-0.0344795785515032,0.0030988059178163425,0.0,0.0,0.0,20809.0,21033.0,21915.0,16992.0,0.0,0.0,0.0
1.2997066974639893,0.2343951825401827,0.05417303981997362,0.8202223392642674,-0.20689493656579463,-0.06586233536047835,0.030306764843777798,0.055881722714566755,-0.03946237463536244,0.002633644816194084,0.0,0.0,0.0,18034.0,22843.0,19110.0,19470.0,0.0,0.0,0.0
1.3103582859039307,0.241660786173279,0.05620894765472301,0.8688679744839284,-0.24340719116576018,-0.05251655704416709,0.3755940076594139,0.06470699818450439,-0.046709871154498074,0.0022971419623561756,0.0,0.0,0.0,20619.0,21358.0,21434.0,15953.0,0.0,0.0,0.0
1.3208980560302734,0.23466961983027773,0.054711921611449346,0.864151969773543,-0.2341975589627704,-0.03403492555850506,0.7392111449518325,0.06860215644985651,-0.05093333679831842,0.0017818415680675975,0.0,0.0,0.0,20619.0,21358.0,21434.0,15953.0,0.0,0.0,0.0
1.3314096927642822,0.23109839442724175,0.05379036410304831,0.8691949921459756,-0.23109832690767937,-0.023931351127344683,0.9927713742995785,0.07205245028841392,-0.055420827019239546,0.0013044287261705144,0.0,0.0,0.0,17837.0,23158.0,18698.0,18360.0,0.0,0.0,0.0
1.341991901397705,0.2314767328039421,0.05358541515969376,0.8875168847774133,-0.24107095107503151,-0.023270522523846964,1.1290035098989215,0.07548472618711125,-0.060677658830057386,0.0008707264907843756,0.0,0.0,0.0,17226.0,22426.0,17623.0,17352.0,0.0,0.0,0.0
1.3524091243743896,0.22461212336208164,0.05160954577437806,0.8606282733472291,-0.23808354009270183,-0.026882116913401977,1.1059536591193329,0.07627388970040216,-0.0637625554802682,0.00048493281803270384,0.0,0.0,0.0,17130.0,22360.0,17664.0,17487.0,0.0,0.0,0.0
1.3628368377685547,0.2278064988903068,0.05193031967761818,0.8466647770844634,-0.2412058209814045,-0.03524172555672548,0.9133569750372983,0.08077252317716738,-0.06925961791527817,0.0002483557677337839,0.0,0.0,0.0,17130.0,22360.0,17664.0,17487.0,0.0,0.0,0.0
1.373504638671875,0.2397736017735724,0.054088633340886774,0.867746387421258,-0.2068680264833078,-0.03726658159649181,0.6675894864742227,0.08735827578466755,-0.07732949764178274,7.607361970407373e-05,0.0,0.0,0.0,20852.0,21671.0,21540.0,15951.0,0.0,0.0,0.0
1.3839385509490967,0.22983536416590777,0.051083381988688704,0.830659199871228,-0.11973609782806403,-0.02975552547635748,0.3938919232375352,0.08394598498206297,-0.07808339504634665,-0.00011875148477811452,0.0,0.0,0.0,18006.0,23647.0,18812.0,18222.0,0.0,0.0,0.0
1.3944337368011475,0.22983631823805423,0.05014934683861047,0.8443152065749198,-0.07725998015721039,-0.033701053962181426,0.12241677849409471,0.08259753733838732,-0.08167279700807793,-0.00030602473753070985,0.0,0.0,0.0,16051.0,21364.0,16700.0,16223.0,0.0,0.0,0.0
1.4048101902008057,0.22181719445332726,0.04738121003916441,0.8374480840039571,-0.0791838613039823,-0.048113067078444,-0.09477846342391841,0.07733374638368543,-0.08184167213459687,-0.00040247309304007324,0.0,0.0,0.0,15979.0,21175.0,16701.0,16517.0,0.0,0.0,0.0
1.415292501449585,0.22203125735257023,0.04632209658183263,0.8665548376434312,-0.10920314089068045,-0.0702410914232012,-0.16540705224481236,0.07422424764516944,-0.08437117542920101,-0.0004356204806191152,0.0,0.0,0.0,18629.0,18721.0,19300.0,14409.0,0.0,0.0,0.0
1.4264395236968994,0.24272141197596,0.04934304730530713,0.9814014269285856,-0.10337570483157385,-0.09098004000333221,0.15337709781140604,0.07688665090099353,-0.09403867729646156,-0.00047544303301498596,0.0,0.0,0.0,18535.0,23566.0,19519.0,19807.0,0.0,0.0,0.0
1.4368586540222168,0.21163943087082873,0.04231019781063458,0.8698190986652957,-0.05603095295335918,-0.08492873843358169,0.5855461298887714,0.06432680868711158,-0.0824780426153295,-0.00036512599725907653,0.0,0.0,0.0,18538.0,23316.0,19618.0,19960.0,0.0,0.0,0.0
1.447336196899414,0.21420590556703284,0.04284950764299096,0.8673459277857921,-0.11297400265747046,-0.10319080680818704,0.5776242693787119,0.06453331735766335,-0.0827587806543522,-0.00027046050108459134,0.0,0.0,0.0,18670.0,23741.0,19781.0,19869.0,0.0,0.0,0.0
1.4581613540649414,0.22757439463643003,0.045372397968446276,0.9103494861087762,-0.1755027843379607,-0.11912280084657788,0.38386197792352345,0.06708716362660407,-0.086165263375388,-0.0001921733523057125,0.0,0.0,0.0,21471.0,21346.0,22513.0,18058.0,0.0,0.0,0.0
1.4685685634613037,0.20942803607677613,0.04087013432037216,0.8481688355482494,-0.15995374114963684,-0.10474932253875485,0.23096237297528016,0.05761644454471525,-0.07680317459682422,-0.00010982728595278698,0.0,0.0,0.0,19499.0,24081.0,20745.0,21606.0,0.0,0.0,0.0
1.4791040420532227,0.20982668090908418,0.03951124538876201,0.8744586919985724,-0.19529205492547486,-0.11034070601120818,0.014192382948970447,0.051493231243902496,-0.07356962243332052,-6.779343432433669e-05,0.0,0.0,0.0,23768.0,23442.0,25371.0,21251.0,0.0,0.0,0.0
1.4894533157348633,0.19840130278067428,0.03562443998580682,0.8591034181413917,-0.2511079417133335,-0.12229133836586273,-0.17469335576320416,0.04126874083679125,-0.06557527286474318,-6.50908129422906e-05,0.0,0.0,0.0,22406.0,26441.0,24032.0,25500.0,0.0,0.0,0.0
1.499908685684204,0.1969804135713102,0.03336695027389455,0.8906822312950017,-0.32351297732348383,-0.14752855930390862,-0.2275538902999646,0.03228749521488547,-0.06026556489186586,-9.268722574951957e-05,0.0,0.0,0.0,23517.0,27445.0,25100.0,26745.0,0.0,0.0,0.0
1.5104830265045166,0.19573957107260428,0.03099741187905884,0.9253623457872937,-0.3779660766094218,-0.1750613519076861,-0.06998384914814194,0.022475370821056877,-0.05423932496123304,-0.00014146610268609214,0.0,0.0,0.0,23517.0,27445.0,25100.0,26745.0,0.0,0.0,0.0
1.5208759307861328,0.18463633051592646,0.0271361173714283,0.9113293195925043,-0.3942395771697365,-0.19199209254472813,0.21416195821539782,0.011633832885233755,-0.0452698905263994,-0.00023815478325814402,0.0,0.0,0.0,26504.0,25650.0,27887.0,24489.0,0.0,0.0,0.0
1.531491994857788,0.1867594262091545,0.02529929907855858,0.9600006887830602,-0.4377525721902478,-0.22203464715013096,0.5028491538501585,0.0017960564490299884,-0.03939217847022537,-0.0004594715037385838,0.0,0.0,0.0,20215.0,23113.0,21627.0,24031.0,0.0,0.0,0.0
1.5420188903808594,0.17902742463166704,0.02218153257535885,0.9559052903169689,-0.4412349695343849,-0.235595191366961,0.7884341781963407,-0.008123393225229697,-0.031176520432259967,-0.0007503116734224045,0.0,0.0,0.0,21031.0,18791.0,22658.0,20146.0,0.0,0.0,0.0
1.5525262355804443,0.17368869557578753,0.01952416550320702,0.9608206054276206,-0.4461668884547869,-0.2469600712969188,0.9933572194593205,-0.017591386760093954,-0.023494421279945762,-0.001070141414331073,0.0,0.0,0.0,20976.0,18982.0,22666.0,20020.0,0.0,0.0,0.0
1.563066005706787,0.17022840703815012,0.017231784164112817,0.9728316099037575,-0.4591016724548682,-0.25664413204713693,1.0789882315716588,-0.026645659101777408,-0.016249528455790228,-0.0014019531906318775,0.0,0.0,0.0,16941.0,14836.0,19762.0,17003.0,0.0,0.0,0.0
1.5736510753631592,0.16733679065271526,0.015119392367174689,0.9855634268829563,-0.4603679724796006,-0.2607701699831966,1.1297110402936115,-0.035198183203070374,-0.009217295236973302,-0.001754765970573897,0.0,0.0,0.0,14233.0,17211.0,17268.0,19241.0,0.0,0.0,0.0
1.5841460227966309,0.16360627407545644,0.01420436877007536,0.9689878844181349,-0.4387422663880838,-0.25079348360560805,1.083167393084546,-0.042052986264541646,-0.0024349793573695227,-0.0019447366077786628,0.0,0.0,0.0,14731.0,17965.0,17813.0,19687.0,0.0,0.0,0.0
1.5946943759918213,0.1685168237041172,0.01595055177832536,0.967403290416779,-0.40595889519437384,-0.23159613198512913,0.931669213293898,-0.04892134101265128,0.003681480668058867,-0.0019625864810975803,0.0,0.0,0.0,14731.0,17965.0,17813.0,19687.0,0.0,0.0,0.0
1.6052405834197998,0.17131788511825252,0.0173134719936914,0.9576600414422471,-0.32836211404648386,-0.1893789890607591,0.6861815295946109,-0.05464926839529066,0.009579268181465733,-0.00195830379394169,0.0,0.0,0.0,17168.0,15666.0,20232.0,17011.0,0.0,0.0,0.0
1.6158039569854736,0.17088542972126192,0.016879464220700184,0.958216878309757,-0.23038155376828984,-0.13819254250621485,0.43029876028430103,-0.06000819191165083,0.015591768576918111,-0.0020946903408314787,0.0,0.0,0.0,17388.0,15844.0,20078.0,16824.0,0.0,0.0,0.0
1.6265716552734375,0.1730125570775424,0.015626937105671843,0.9938007497889306,-0.14452445868197994,-0.09844188660583185,0.2961459609546179,-0.06675159039551627,0.022403244541469573,-0.002365003500832244,0.0,0.0,0.0,14811.0,17631.0,17101.0,19251.0,0.0,0.0,0.0
1.6371285915374756,0.1613837278373736,0.01250046109358273,0.9628653076604998,-0.08697057424591192,-0.07226065589777453,0.25331671257627236,-0.06803881160321545,0.027631460901589314,-0.0024868529577634544,0.0,0.0,0.0,14811.0,17631.0,17101.0,19251.0,0.0,0.0,0.0
1.647632122039795,0.15359683245161335,0.009433178495872045,0.9599209183014612,-0.10632438671389428,-0.0731295259994994,0.14649483106078254,-0.07017726476332643,0.03326991442071735,-0.0026800422877471678,0.0,0.0,0.0,19475.0,17941.0,21231.0,18015.0,0.0,0.0,0.0
1.6582355499267578,0.1496623418934251,0.006452795327939835,0.984172756704646,-0.1773792115336762,-0.09470102117614065,0.04238033477623858,-0.07334863332153656,0.03976820021009496,-0.00294516583643018,0.0,0.0,0.0,20698.0,19405.0,22297.0,19001.0,0.0,0.0,0.0
1.668607234954834,0.1377208920839823,0.003237894104720491,0.954117462015725,-0.2536726087197041,-0.12021975103678843,0.0032008824810218174,-0.07157008605526818,0.04373237607667371,-0.003011340500713489,0.0,0.0,0.0,22403.0,21490.0,23758.0,20161.0,0.0,0.0,0.0
1.679079532623291,0.13451550350609964,0.00047938545464614867,0.9803518141132305,-0.35393847818247337,-0.155808764150443,-0.04255189816190197,-0.07322571207798631,0.049809819335324586,-0.0032145215654560922,0.0,0.0,0.0,22403.0,21490.0,23758.0,20161.0,0.0,0.0,0.0
1.6894490718841553,0.12725147920597973,-0.0020493473303137945,0.9727982454826651,-0.4296458009725781,-0.18368591103769255,-0.03656701422083975,-0.07162601573477975,0.053736153514267374,-0.0032785095537144313,0.0,0.0,0.0,20837.0,19831.0,22161.0,18606.0,0.0,0.0,0.0
1.6998481750488281,0.12352942498901692,-0.004355986229855544,0.9874573307273037,-0.4909987618249005,-0.20907335117297218,0.022880402622784922,-0.07090541467035476,0.0583279235231363,-0.0034028974851305826,0.0,0.0,0.0,20924.0,19968.0,22105.0,18447.0,0.0,0.0,0.0
1.7103734016418457,0.12219772546030194,-0.006549928564869495,1.0179001710843172,-0.5303729032141354,-0.23062227725673773,0.16939416898653936,-0.07053064403995088,0.0633147247764414,-0.0035783527733346905,0.0,0.0,0.0,19163.0,23185.0,20261.0,21439.0,0.0,0.0,0.0
1.72066068649292,0.1137389943107194,-0.008058046213727903,0.9837102675877132,-0.5122932841802816,-0.22893739551200804,0.31873938797539386,-0.06512420112290218,0.06349219008707971,-0.003484138772877758,0.0,0.0,0.0,21914.0,21447.0,23061.0,18889.0,0.0,0.0,0.0
1.7313659191131592,0.11868534223315161,-0.010336621212128798,1.062590538300215,-0.5344024172430446,-0.24597260725592965,0.5013677711486781,-0.06644094024618702,0.07013441323946926,-0.003724109046169647,0.0,0.0,0.0,21914.0,21447.0,23061.0,18889.0,0.0,0.0,0.0
1.7420077323913574,0.11386766578269512,-0.011693984740504102,1.05334427311388,-0.4795928571956318,-0.2374412744033929,0.7877615171693861,-0.06122521400232202,0.07002603777525249,-0.0036157845820711876,0.0,0.0,0.0,22429.0,22251.0,23411.0,19107.0,0.0,0.0,0.0
1.7524654865264893,0.10686156581282819,-0.012598681218415161,1.0201482253854532,-0.4176298933007998,-0.21799414111103563,0.9254088399955956,-0.05409410211630857,0.0673168443565057,-0.0034086889739525653,0.0,0.0,0.0,22066.0,21977.0,23184.0,18706.0,0.0,0.0,0.0
1.7630398273468018,0.10567908700509895,-0.014022587477176517,1.0398855022193236,-0.40064716476230255,-0.2047003146649727,0.845421823757373,-0.0493353459905658,0.06722862897287118,-0.003346586200774031,0.0,0.0,0.0,19998.0,24433.0,20967.0,21781.0,0.0,0.0,0.0
1.7735443115234375,0.1013053513140593,-0.014928444366025475,1.0268677782859423,-0.37399095319581865,-0.18319691307222286,0.6860326300406676,-0.04257659263453553,0.06421791712365872,-0.0031405146399316897,0.0,0.0,0.0,19950.0,24377.0,20987.0,21867.0,0.0,0.0,0.0
1.784041404724121,0.09816551878490257,-0.015950556332276527,1.0253537945297728,-0.3541762372586007,-0.16378062959823908,0.5147959302787137,-0.03594773935094274,0.061176801903109465,-0.002940603132166813,0.0,0.0,0.0,24932.0,24419.0,25407.0,21435.0,0.0,0.0,0.0
1.794541835784912,0.09533011065520766,-0.016993236596579864,1.0264925371636249,-0.33932894093746135,-0.14579790238673995,0.3318312610341241,-0.029126747301330833,0.05764503291413791,-0.0027078156846359956,0.0,0.0,0.0,24256.0,28502.0,24669.0,25942.0,0.0,0.0,0.0
1.8050332069396973,0.0957171113772591,-0.01630792390892755,1.022509308116837,-0.3172338557897873,-0.1265339005252569,0.1807463731427459,-0.020819273972817926,0.05132549011404332,-0.00245646664334505,0.0,0.0,0.0,24175.0,28424.0,24729.0,26044.0,0.0,0.0,0.0
1.8155436515808105,0.10172305650891539,-0.013114224197183551,1.0183987200505111,-0.2685441646856153,-0.09646899967117839,0.04777854600855104,-0.010464672304096374,0.04142385562898755,-0.0022470197218805053,0.0,0.0,0.0,26234.0,26306.0,27128.0,22671.0,0.0,0.0,0.0
1.8264334201812744,0.1134055206573192,-0.011001063303319862,1.0770329248574877,-0.1751092711477329,-0.05318591215799401,0.05654474329303573,-0.0004461637554602693,0.03367952855191643,-0.002158816505567696,0.0,0.0,0.0,24911.0,25354.0,26179.0,21411.0,0.0,0.0,0.0
1.8368704319000244,0.10502018056022963,-0.009711337719694605,0.9926780923682248,-0.041815848501403144,0.0014853448731182127,0.10200208915262005,0.007473783294359846,0.024338119677798524,-0.0017375069317036671,0.0,0.0,0.0,20711.0,25926.0,22613.0,22713.0,0.0,0.0,0.0
1.8473870754241943,0.10348129678795834,-0.01094263167914096,1.0051191064403344,0.02307441957261885,0.04075623838045894,-0.08418703507884957,0.013979310257574151,0.019832914800234788,-0.0014533648071498283,0.0,0.0,0.0,17841.0,19136.0,20664.0,14720.0,0.0,0.0,0.0
1.857966423034668,0.09985405238768431,-0.013179421439404076,1.0182049959886614,0.03083773858514863,0.05528964629840136,-0.2955621537872048,0.019473637039143586,0.016521783094971463,-0.0011257522973069174,0.0,0.0,0.0,14369.0,20354.0,17460.0,16605.0,0.0,0.0,0.0
1.8683719635009766,0.09137804222107275,-0.015400722301657479,0.9923353033711059,-0.00370616052092931,0.04122528612402156,-0.36420500460997446,0.023399193015977884,0.013261592384743611,-0.000749125128456217,0.0,0.0,0.0,17097.0,18208.0,20006.0,14136.0,0.0,0.0,0.0
1.878891944885254,0.0872673067294021,-0.018602191921865706,1.0177820977116172,-0.07699664618179534,0.009641871884882369,-0.4172502188272483,0.0279812342177008,0.0109510887716,-0.00040502135055067604,0.0,0.0,0.0,17279.0,22590.0,19487.0,19373.0,0.0,0.0,0.0
1.889336347579956,0.08040277620022895,-0.02122453247107485,1.010800541971461,-0.16366468871172307,-0.03470941890903665,-0.3675058636114879,0.03133888138346234,0.008254139850279335,-3.927758947487269e-05,0.0,0.0,0.0,17352.0,22473.0,19443.0,19475.0,0.0,0.0,0.0
1.8998167514801025,0.07542983145269924,-0.02412469073358342,1.0231281350819255,-0.2533606836631042,-0.0835162036557181,-0.2599715000694635,0.03503565650299639,0.005471460643524221,0.00029898715161305627,0.0,0.0,0.0,22958.0,22765.0,24373.0,20163.0,0.0,0.0,0.0
1.9103124141693115,0.07057871031231362,-0.026760893065668312,1.0312170719191724,-0.33298408560762216,-0.13014237682256857,-0.11495349101722521,0.038366157886973756,0.0023146689185005328,0.0005939355688360973,0.0,0.0,0.0,21518.0,25830.0,22952.0,24078.0,0.0,0.0,0.0
1.920750379562378,0.0654026120860032,-0.02878885154666623,1.025494707979893,-0.3910887349866232,-0.1675719529749989,0.033824854729304535,0.040851775542914054,-0.0011110462500343457,0.0008484442883840795,0.0,0.0,0.0,24153.0,23764.0,25549.0,21547.0,0.0,0.0,0.0
1.9313411712646484,0.06302680015914722,-0.03166192793640931,1.0561842498485507,-0.44323258869799215,-0.20218587889773973,0.18415312857188,0.044445835713013165,-0.00490449074385665,0.0011343202289286797,0.0,0.0,0.0,17837.0,21790.0,19599.0,20894.0,0.0,0.0,0.0
1.9419898986816406,0.05980700769371047,-0.03388232821160369,1.067940940526152,-0.4623196591591431,-0.22637411997773665,0.40659144021465016,0.04685047977362298,-0.009073723708470684,0.001390608913154406,0.0,0.0,0.0,21200.0,20758.0,23091.0,18953.0,0.0,0.0,0.0
1.95237398147583,0.05664963769260195,-0.03268316905448819,1.0186059847352682,-0.43572212725242926,-0.22270895115236966,0.49371859999775347,0.04491188745339786,-0.013286741061898519,0.0014157014606369128,0.0,0.0,0.0,19734.0,23599.0,21502.0,22940.0,0.0,0.0,0.0
1.962798833847046,0.06140594326206777,-0.03103356280143667,1.021785041971998,-0.4065134026600087,-0.20484685434374406,0.34513811711736553,0.04300226466152776,-0.018796011009126992,0.0013212251186695905,0.0,0.0,0.0,19734.0,23599.0,21502.0,22940.0,0.0,0.0,0.0
1.9733192920684814,0.06637334886572101,-0.02995245582174131,1.0360776014796365,-0.33301950019322063,-0.16601258341645894,0.1621879482666962,0.0410460152816233,-0.024440026023270608,0.001207849236101001,0.0,0.0,0.0,24089.0,23217.0,25940.0,22319.0,0.0,0.0,0.0
1.9838838577270508,0.066836520602131,-0.03045740919742014,1.0433926864391985,-0.22344436066705037,-0.11892584659704854,0.11215114440835514,0.039397335431280225,-0.029200934212804768,0.0011188652599978528,0.0,0.0,0.0,22960.0,22298.0,25212.0,21545.0,0.0,0.0,0.0
1.9946141242980957,0.06574892737782834,-0.0329114453107575,1.0726345031152662,-0.12692390592817535,-0.0854220380540301,0.19667008883881099,0.03871077244781085,-0.03393888111165445,0.001036157941921553,0.0,0.0,0.0,22960.0,22298.0,25212.0,21545.0,0.0,0.0,0.0
2.005260467529297,0.06004761898031594,-0.03476345644217758,1.0562349554262824,-0.06633336632713648,-0.06925936988736424,0.3298229682972257,0.036265083711799,-0.03649648392872345,0.0008810505027265198,0.0,0.0,0.0,19019.0,22901.0,21539.0,23016.0,0.0,0.0,0.0
2.0158274173736572,0.0536227549567183,-0.03697235287864253,1.0407047681851282,-0.0629379902148686,-0.07043554246265765,0.33924912341607105,0.033579626431906325,-0.038240426470284986,0.0007067603977178067,0.0,0.0,0.0,21726.0,20959.0,24087.0,20347.0,0.0,0.0,0.0
2.0265519618988037,0.04898141033016503,-0.040892990345714524,1.067928036726524,-0.10696403102978773,-0.08900859651997786,0.28194765701620506,0.03166254437904329,-0.04082972123389313,0.0005319352950193416,0.0,0.0,0.0,17270.0,16253.0,20163.0,16476.0,0.0,0.0,0.0
2.0370168685913086,0.041060626078091564,-0.04196773719187821,1.0215857103244894,-0.16709486105723348,-0.11026113819081687,0.1884675297347469,0.02682812892571263,-0.0398547441468422,0.00027564051382276673,0.0,0.0,0.0,14226.0,17682.0,16930.0,18473.0,0.0,0.0,0.0
2.0475618839263916,0.03599248519943839,-0.04543562717141598,1.0371098385697008,-0.2492066316549,-0.13775472281079765,0.015828540225712215,0.02286002978109732,-0.04053026154520148,-4.150097335328971e-07,0.0,0.0,0.0,14226.0,17682.0,16930.0,18473.0,0.0,0.0,0.0
2.058169364929199,0.03101599042583381,-0.0487786336199249,1.0507686636940379,-0.32892813115198716,-0.1673786662939731,-0.10046537983670094,0.017938345824402006,-0.04042065449966719,-0.0002903928656838468,0.0,0.0,0.0,16763.0,15470.0,19246.0,15722.0,0.0,0.0,0.0
2.0686118602752686,0.025324622822887284,-0.050067756059819966,1.0244299505087766,-0.38101449765468653,-0.18896971115583946,-0.12662286650701426,0.011818598320206302,-0.03815291781549793,-0.0005477490642107972,0.0,0.0,0.0,17044.0,19611.0,18736.0,21283.0,0.0,0.0,0.0
2.079160213470459,0.021342888723203658,-0.053528333378906695,1.0469294154803643,-0.43584530618267686,-0.21198708924143364,-0.17179105228812788,0.005972096659500434,-0.03717173882760753,-0.0007931903694406682,0.0,0.0,0.0,21094.0,18791.0,22278.0,19852.0,0.0,0.0,0.0
2.0898001194000244,0.01756508489090335,-0.05675495011609129,1.0667670748197324,-0.47113190157687945,-0.23302799673063024,-0.10523073949120934,-0.00027545792376388505,-0.035549414713951795,-0.001024648047075949,0.0,0.0,0.0,19478.0,21392.0,20276.0,23454.0,0.0,0.0,0.0
2.1003432273864746,0.013489976875239205,-0.057995201646147784,1.0515361227853441,-0.4721836915981331,-0.24292638277430376,0.04586723928894399,-0.006637451663304766,-0.032281875182273,-0.001232729164060474,0.0,0.0,0.0,22784.0,20172.0,23450.0,21358.0,0.0,0.0,0.0
2.1108474731445312,0.009854101437021534,-0.05965062545964989,1.0464449618589826,-0.4652699825835356,-0.2437279827809565,0.10131054423068252,-0.012905156214250051,-0.02898208220390549,-0.0014239532470525134,0.0,0.0,0.0,23018.0,20710.0,23741.0,21549.0,0.0,0.0,0.0
2.121183395385742,0.00634469394431122,-0.05987575699464469,1.0192733378255268,-0.44036141393935085,-0.22720368920798945,0.016127521305668538,-0.018515310371391976,-0.02490574014388352,-0.0015150124774441756,0.0,0.0,0.0,20676.0,23245.0,21511.0,24186.0,0.0,0.0,0.0
2.1316232681274414,0.0033188634428848226,-0.06294252190709718,1.0423294589234091,-0.4308204589731632,-0.21601061504466607,-0.11444895462646787,-0.024815908096366645,-0.021809418505834732,-0.0016364406545711697,0.0,0.0,0.0,23334.0,22006.0,24315.0,21228.0,0.0,0.0,0.0
2.1425509452819824,0.00023048765254867116,-0.07032548921547968,1.1349295274970155,-0.4428745558478876,-0.2336675518662099,0.03915196991404934,-0.033266683543153125,-0.01941097537988287,-0.0018761619742429024,0.0,0.0,0.0,20408.0,23886.0,21457.0,23285.0,0.0,0.0,0.0
2.153035879135132,-0.002896254415738521,-0.06685669094914115,1.0529922437380164,-0.38471122804167346,-0.22556564315261807,0.37661106349617385,-0.03651141500185776,-0.013679487213371583,-0.0018421513663461444,0.0,0.0,0.0,22073.0,21112.0,23204.0,19559.0,0.0,0.0,0.0
2.1635851860046387,-0.006022111294397278,-0.06907233595219105,1.063306635607324,-0.3634700809562199,-0.21818744306981325,0.4269036619037595,-0.04237023914001257,-0.009203164172477813,-0.0019778992896744754,0.0,0.0,0.0,20318.0,19533.0,21400.0,17537.0,0.0,0.0,0.0
2.1741020679473877,-0.009057041158667064,-0.0701769347994792,1.057214298789177,-0.3396620872343289,-0.19600039365875654,0.2745716575398481,-0.04741070110098662,-0.00429344385556245,-0.0020995793649078846,0.0,0.0,0.0,18926.0,18216.0,20034.0,16069.0,0.0,0.0,0.0
2.184499979019165,-0.011955923838900036,-0.07027247625716326,1.036853836913496,-0.31502059597509213,-0.17153504536315356,0.10709327871828764,-0.051530374348540756,0.0009191221313437207,-0.002194848527785567,0.0,0.0,0.0,18469.0,17672.0,19500.0,15442.0,0.0,0.0,0.0
2.194944381713867,-0.015232960506291585,-0.0724600106251962,1.0480587261750531,-0.30393788445331227,-0.15214367981526206,-0.07847919782320241,-0.05690493873034066,0.0063870876629785,-0.0023406363697116646,0.0,0.0,0.0,16050.0,19867.0,17041.0,18221.0,0.0,0.0,0.0
2.2053186893463135,-0.018193247384235712,-0.07322084734022066,1.0394809466767083,-0.29140677943856813,-0.13515356494951403,-0.20044101598927538,-0.060792720692552725,0.011821501628592251,-0.0024226385261130294,0.0,0.0,0.0,18078.0,21937.0,18760.0,20067.0,0.0,0.0,0.0
2.2161054611206055,-0.02285989102501375,-0.08018537306039189,1.1186910016573135,-0.3095576179633457,-0.14515303426836532,-0.1230857657999355,-0.06957981897608326,0.018662676768961432,-0.002703192194029719,0.0,0.0,0.0,21549.0,20762.0,22175.0,18284.0,0.0,0.0,0.0
2.2266769409179688,-0.025250613642144225,-0.07866161517062545,1.0794319090281976,-0.30049004348960984,-0.15466673803233855,0.17309786076389633,-0.07062663718172607,0.023865044261055117,-0.002683074694998784,0.0,0.0,0.0,20144.0,24106.0,20550.0,21786.0,0.0,0.0,0.0
2.2370946407318115,-0.027717927337493224,-0.07779516656481134,1.0508739694049454,-0.292058011727589,-0.15213336244731032,0.27082656705682584,-0.07161705166129774,0.029031850288820618,-0.0026818486003529667,0.0,0.0,0.0,22723.0,22035.0,23179.0,19285.0,0.0,0.0,0.0
2.2476859092712402,-0.03180829180115719,-0.08138151460135815,1.0831349775868182,-0.29829581752315665,-0.14457562622389325,0.18357366969866032,-0.07612593250204619,0.035910286577806275,-0.0028678667354204977,0.0,0.0,0.0,22907.0,22166.0,23303.0,19469.0,0.0,0.0,0.0
2.258572578430176,-0.036825507757414146,-0.08665127629251984,1.1371744780416222,-0.3180477896723779,-0.15556118168962318,0.3074992625479612,-0.08161259775156425,0.043960107638226914,-0.0031417683318091098,0.0,0.0,0.0,21002.0,24814.0,21465.0,22987.0,0.0,0.0,0.0
2.2690374851226807,-0.034944952084330974,-0.08033835918349463,1.0554074289550708,-0.2965886401001582,-0.14921978588739299,0.4399573701885581,-0.07427240316241397,0.044661223582533785,-0.0030179995856346327,0.0,0.0,0.0,24949.0,24264.0,25391.0,21597.0,0.0,0.0,0.0
2.2796413898468018,-0.03254642727499561,-0.07995419159124632,1.0763974750887142,-0.27408044642886986,-0.12508185429445834,0.3158748862435486,-0.06984919980455359,0.04633074485395329,-0.0031577058892944933,0.0,0.0,0.0,24721.0,24637.0,25543.0,21275.0,0.0,0.0,0.0
2.2901275157928467,-0.02935952503442983,-0.07647643488149962,1.0526595730725643,-0.20622767614853366,-0.07274918631970387,0.06640979401247948,-0.06244684123142445,0.046142267611997405,-0.003168610309549219,0.0,0.0,0.0,24721.0,24637.0,25543.0,21275.0,0.0,0.0,0.0
2.300621509552002,-0.030237017523876142,-0.0764317390334575,1.0545655916169256,-0.13268004975932113,-0.019713162912269804,-0.14372835883407206,-0.059228439164163545,0.049110031319411926,-0.0032565771072428657,0.0,0.0,0.0,21300.0,26073.0,22613.0,23202.0,0.0,0.0,0.0
2.31117844581604,-0.033719188777467934,-0.07829596670340834,1.068446945873976,-0.07982900376768684,0.019118341780820676,-0.27871822941679736,-0.05826355954982057,0.05388148363670717,-0.0033495123408290705,0.0,0.0,0.0,21472.0,22349.0,23409.0,17990.0,0.0,0.0,0.0
2.321535110473633,-0.036951132569433234,-0.07733280346750274,1.0358629300182132,-0.06006772811665983,0.03501935559425625,-0.3335140825526437,-0.0556542462410287,0.05668325578634875,-0.0032492431012734035,0.0,0.0,0.0,20172.0,21093.0,22464.0,16947.0,0.0,0.0,0.0
2.3320014476776123,-0.042845372729031,-0.08095327426005397,1.060974286413047,-0.07808393559111662,0.035841929091088444,-0.4075674878965795,-0.056381516608408,0.06251650293643783,-0.003282216903748099,0.0,0.0,0.0,20606.0,21364.0,23048.0,17624.0,0.0,0.0,0.0
2.342785120010376,-0.05089094582883423,-0.08769611777390282,1.1242658533908645,-0.13639740109680853,0.0065175587155946405,-0.26420091035605336,-0.05877717424830775,0.0704568142489624,-0.0033862082860380126,0.0,0.0,0.0,21404.0,21991.0,23744.0,18727.0,0.0,0.0,0.0
2.3532631397247314,-0.05349980535225003,-0.08515010095753225,1.069375113808709,-0.20024596730661703,-0.042512052801831644,0.06475707557711183,-0.05443169713839717,0.07029598348425944,-0.003112917981215044,0.0,0.0,0.0,18793.0,23800.0,21160.0,21485.0,0.0,0.0,0.0
2.363858938217163,-0.05948263493387741,-0.08854354794097449,1.091951550069548,-0.27167646107620746,-0.08094270523077549,0.2074827253415932,-0.0534455693682822,0.07425830832826738,-0.00305391081709775,0.0,0.0,0.0,21210.0,20969.0,23389.0,19054.0,0.0,0.0,0.0
2.374678373336792,-0.06631213575231466,-0.09331661250642545,1.1332895181099212,-0.34690011520349473,-0.12026081833104196,0.3539656589100899,-0.05250497080189011,0.07861697164807141,-0.0030275888419778736,0.0,0.0,0.0,20470.0,20188.0,22794.0,18581.0,0.0,0.0,0.0
2.3850910663604736,-0.06566037264767828,-0.08805780852428247,1.0560089060656872,-0.3704163802046545,-0.13830157894234302,0.4325672900831089,-0.045341019688018486,0.07367586633547511,-0.002685377349902813,0.0,0.0,0.0,17906.0,22094.0,20156.0,21248.0,0.0,0.0,0.0
2.3955891132354736,-0.07015439203994153,-0.09026043735677503,1.0714044714377189,-0.39290319608134433,-0.13670976637099758,0.2562952083616811,-0.04165088548672234,0.07420894057225336,-0.0025759740127445805,0.0,0.0,0.0,21320.0,21002.0,23586.0,19343.0,0.0,0.0,0.0
2.4062845706939697,-0.07587835033593776,-0.09418541294557087,1.108965046574393,-0.41168381524766173,-0.13299888885017125,0.10183017754703116,-0.03801037032657718,0.07526474361730821,-0.0024779792504191615,0.0,0.0,0.0,19904.0,24397.0,22209.0,23067.0,0.0,0.0,0.0
2.4166831970214844,-0.07500374278852225,-0.0901864293764797,1.0551611226603919,-0.39026458440253065,-0.12230115734373825,0.06313687820126294,-0.030741858411689804,0.06915517315991433,-0.0021310142511284376,0.0,0.0,0.0,22790.0,22758.0,25137.0,20730.0,0.0,0.0,0.0
2.427105188369751,-0.07805254070880686,-0.09122292203957681,1.0620173892285727,-0.37119180211997477,-0.10293416933090224,-0.09664531633415877,-0.025096360363207032,0.06626883431946931,-0.0018877918018086728,0.0,0.0,0.0,22790.0,22758.0,25137.0,20730.0,0.0,0.0,0.0
2.4376156330108643,-0.08189384586295989,-0.0933338401017445,1.082436474310985,-0.35004281369833273,-0.08310856520301255,-0.23377123101788352,-0.019544452738635247,0.06351847505517604,-0.0016547142597711218,0.0,0.0,0.0,22790.0,22758.0,25137.0,20730.0,0.0,0.0,0.0
2.4482078552246094,-0.08549073679134661,-0.09525357660507323,1.1013465286680784,-0.3370783697178089,-0.07845438661830141,-0.16171805425545932,-0.013808834027202083,0.060028573137875775,-0.0013859995124096427,0.0,0.0,0.0,22790.0,22758.0,25137.0,20730.0,0.0,0.0,0.0
2.4592080116271973,-0.09371741400494271,-0.10224846583170516,1.1791869749720538,-0.35899000163307304,-0.10104289733449102,0.1919599433204938,-0.008355327632499071,0.05882709884759305,-0.0011383114121508557,0.0,0.0,0.0,20148.0,24715.0,22543.0,23374.0,0.0,0.0,0.0
