T,Px,Py,Pz,Vx,Vy,Vz,Roll,Pitch,Yaw,R_rate,P_rate,Y_rate,T,M1,M2,M3,Wb1,Wb2,Wb3
7.462501525878906e-05,0.0,0.0,0.0,0.0,0.0,0.0,0.0,0.0,0.0,0.0,0.0,0.0,0.0,0.0,0.0,0.0,0.0,0.0,0.0
0.011461257934570312,0.02942345291376114,-0.034494176506996155,0.07965117692947388,0.0005408766954983694,-0.0006340892844128357,0.0014641879556569954,0.04607302386962794,-0.010129351059979065,-0.08901706235173615,0.0,0.0,0.0,0.0,0.0,0.0,0.0,0.0,0.0,0.0
0.02144002914428711,0.0294223390519619,-0.03450914844870567,0.07966002821922302,0.6696670609094567,-0.7850801118985525,1.81283556036394,0.046161306155883125,-0.010227331690772012,-0.08899316599267557,0.0,0.0,0.0,0.0,0.0,0.0,0.0,0.0,0.0,0.0
0.03166532516479492,0.029412761330604553,-0.03449801728129387,0.07965700328350067,1.0588940877917596,-1.2413964926341636,2.866513096736808,0.04599094596205152,-0.010343132740392223,-0.08898817276672268,0.0,0.0,0.0,0.0,0.0,0.0,0.0,0.0,0.0,0.0
0.041985273361206055,0.029412969946861267,-0.03450099751353264,0.07967041432857513,1.8205107336065793,-2.134289928233512,4.928302294628979,0.046078474893191876,-0.010322512758943634,-0.08897494113102739,0.0,0.0,0.0,0.0,0.0,0.0,0.0,0.0,0.0,0.0
0.052057743072509766,0.029403388500213623,-0.034503672271966934,0.07966913282871246,2.2100047159156726,-2.590928580421318,5.982741747639956,0.0461621647476667,-0.010246824933956868,-0.08904006806765882,0.0,0.0,0.0,0.0,0.0,0.0,0.0,0.0,0.0,0.0
0.062108516693115234,0.029416542500257492,-0.034498028457164764,0.07966981083154678,2.2731990801981476,-2.6650249222361984,6.153847627043806,0.046193648469043856,-0.010152511157321534,-0.0889567729805366,0.0,0.0,0.0,0.0,0.0,0.0,0.0,0.0,0.0,0.0
0.07242298126220703,0.02941587194800377,-0.03450231999158859,0.0796842873096466,2.3716097562451806,-2.780399107752669,6.420272612889208,0.04598640919192646,-0.010271128138440149,-0.08899452154185923,0.0,0.0,0.0,0.0,0.0,0.0,0.0,0.0,0.0,0.0
0.08239269256591797,0.029426973313093185,-0.034496936947107315,0.07965125143527985,3.614940218158385,-4.238031462893705,9.786134812553037,0.04621615032606594,-0.010039435231345411,-0.08898012472565865,0.0,0.0,0.0,0.0,0.0,0.0,0.0,0.0,0.0,0.0
0.09252238273620605,0.02942712977528572,-0.034504301846027374,0.07966002821922302,3.165253722373646,-3.7108234778956852,8.568746173344959,0.04587226917169564,-0.010250488165067238,-0.08905797293308736,0.0,0.0,0.0,0.0,0.0,0.0,0.0,0.0,0.0,0.0
0.10268187522888184,0.029423411935567856,-0.034494027495384216,0.07964736968278885,3.5407508137707473,-4.151030212086618,9.585230213448229,0.04608863877442711,-0.010222369369413231,-0.08900065512682132,0.0,0.0,0.0,0.0,0.0,0.0,0.0,0.0,0.0,0.0
0.1126401424407959,0.029417824000120163,-0.03450474143028259,0.0796620175242424,4.13167927438336,-4.843802847352576,11.184920321167882,0.04625886371878405,-0.010182224489863615,-0.0890969015342031,0.0,0.0,0.0,0.0,0.0,0.0,0.0,0.0,0.0,0.0
0.12274479866027832,0.029408466070890427,-0.03450455144047737,0.07964988052845001,3.3635670747037945,-3.9433050369826184,9.105554560790564,0.046187292566128156,-0.010202683171980026,-0.0890213564989726,0.0,0.0,0.0,0.0,0.0,0.0,0.0,0.0,0.0,0.0
0.13354706764221191,0.029416657984256744,-0.03450842574238777,0.07966506481170654,3.5008658001014954,-4.104279266087153,9.477249091006453,0.04616460122170271,-0.01012121178780916,-0.08903641168358946,0.0,0.0,0.0,0.0,0.0,0.0,0.0,0.0,0.0,0.0
0.14342236518859863,0.029428701847791672,-0.034502893686294556,0.07965657114982605,6.043783353965968,-7.085506777475664,16.361224830769252,0.04623989780792685,-0.010273592138066657,-0.08901492678224077,0.0,0.0,0.0,0.0,0.0,0.0,0.0,0.0,0.0,0.0
0.15356898307800293,0.029407255351543427,-0.034506864845752716,0.07966157048940659,3.9583473971382954,-4.640622716929755,10.71570672253716,0.04599791096752,-0.010233246930897022,-0.0890295452819316,0.0,0.0,0.0,0.0,0.0,0.0,0.0,0.0,0.0,0.0
0.1638469696044922,0.02941109612584114,-0.03450728580355644,0.07965869456529617,4.3347165510712475,-5.0818777735175225,11.734602773535016,0.04605378842190578,-0.010235791198242224,-0.0890530539086766,0.0,0.0,0.0,0.0,0.0,0.0,0.0,0.0,0.0,0.0
0.17395615577697754,0.029417525976896286,-0.03450945392251015,0.07967017590999603,5.899438091301363,-6.916327342670762,15.97052982952856,0.04597058846555772,-0.010315470674235109,-0.08898302405471625,0.0,0.0,0.0,0.0,0.0,0.0,0.0,0.0,0.0,0.0
0.18413448333740234,0.02941589057445526,-0.03452188894152641,0.07968749105930328,5.362711279028373,-6.28710235881739,14.517570334951975,0.046126986872644174,-0.010265825954963939,-0.08901280753894476,0.0,0.0,0.0,0.0,0.0,0.0,0.0,0.0,0.0,0.0
0.19425368309020996,0.029432568699121475,-0.03451412916183472,0.07966503500938416,5.836838504672572,-6.842973109339155,15.801115016178617,0.04613954079664247,-0.010194947325728204,-0.08898999208057412,0.0,0.0,0.0,0.0,0.0,0.0,0.0,0.0,0.0,0.0
0.2044079303741455,0.029406454414129257,-0.03450845181941986,0.07965501397848129,5.96891039188961,-6.997821988679975,16.15865468496185,0.04602642909289416,-0.010214264428579487,-0.08896707481935182,0.0,0.0,0.0,0.0,0.0,0.0,0.0,0.0,0.0,0.0
0.21465659141540527,0.029422122985124588,-0.034500714391469955,0.07965601980686188,6.506866204536104,-7.628519733613709,17.614981688327077,0.04597329133012505,-0.010375623504374262,-0.0890047921497067,0.0,0.0,0.0,0.0,0.0,0.0,0.0,0.0,0.0,0.0
0.22485733032226562,0.029415179044008255,-0.03450607880949974,0.07965656369924545,6.992013790620113,-8.197302663411183,18.92834958938264,0.04620453379465313,-0.010115390854336572,-0.08907065285741354,0.0,0.0,0.0,0.0,0.0,0.0,0.0,0.0,0.0,0.0
0.23501253128051758,0.029414746910333633,-0.034503914415836334,0.07965703308582306,6.085713407557714,-7.134777566870093,16.47487373233322,0.04586385758125547,-0.010307416093557769,-0.08902785495883098,0.0,0.0,0.0,0.0,0.0,0.0,0.0,0.0,0.0,0.0
0.24503326416015625,0.02941005304455757,-0.034493833780288696,0.07967331260442734,6.532434254548988,-7.658510232314358,17.68422859986656,0.04616976898059852,-0.010165340208395775,-0.08905345226095818,0.0,0.0,0.0,0.0,0.0,0.0,0.0,0.0,0.0,0.0
0.25531721115112305,0.029413223266601562,-0.0345078706741333,0.07964982837438583,5.65008495004522,-6.62406395664426,15.295605173801079,0.046165164856964584,-0.010125182057182514,-0.08901813662963277,0.0,0.0,0.0,0.0,0.0,0.0,0.0,0.0,0.0,0.0
0.26537227630615234,0.029415059834718704,-0.03449169546365738,0.0796465277671814,7.3086130510433795,-8.56849962082359,19.78549386667717,0.04604815368046119,-0.010324207718501297,-0.0890951622495631,0.0,0.0,0.0,0.0,0.0,0.0,0.0,0.0,0.0,0.0
0.27548646926879883,0.029412049800157547,-0.03448883071541786,0.07964931428432465,6.709496144568851,-7.866102620652439,18.163594025976337,0.04621868357402763,-0.010218972903670511,-0.08902902451286838,0.0,0.0,0.0,0.0,0.0,0.0,0.0,0.0,0.0,0.0
0.2859501838684082,0.02940061315894127,-0.034500155597925186,0.07966456562280655,5.6524220430084,-6.626807375778769,15.301952733150996,0.04609364105193212,-0.010366544134346876,-0.08909266089090817,0.0,0.0,0.0,0.0,0.0,0.0,0.0,0.0,0.0,0.0
0.29581594467163086,0.02941172942519188,-0.03449318930506706,0.07966479659080505,8.576512144324951,-10.054977703558507,23.21795327000726,0.04596282243858675,-0.01022155677663356,-0.08900742618077964,0.0,0.0,0.0,0.0,0.0,0.0,0.0,0.0,0.0,0.0
0.3068361282348633,0.029420290142297745,-0.03450002148747444,0.07965166121721268,5.696250977242979,-6.678207859000012,15.420659543539944,0.04615773102217513,-0.010187657997117293,-0.08904534741863772,0.0,0.0,0.0,0.0,0.0,0.0,0.0,0.0,0.0,0.0
0.3165931701660156,0.029413238167762756,-0.03449159860610962,0.0796588882803917,18.68416675376222,-21.90506517968945,50.58101424086797,0.046045215592159246,-0.010106641962021318,-0.08905168163847955,0.0,0.0,0.0,0.0,0.0,0.0,0.0,0.0,0.0,0.0
0.3267064094543457,0.029413510113954544,-0.0344969742000103,0.07965274900197983,6.577641788862533,-7.7115389497284905,17.806718360382565,0.04610869965743184,-0.010140075282910844,-0.08896435672433008,0.0,0.0,0.0,0.0,0.0,0.0,0.0,0.0,0.0,0.0
0.33683061599731445,0.029417455196380615,-0.0344894602894783,0.07968287914991379,6.533940360108897,-7.660303772352675,17.688412836329036,0.04613889842279207,-0.010120554191376228,-0.08902152383591386,0.0,0.0,0.0,0.0,0.0,0.0,0.0,0.0,0.0,0.0
0.3469693660736084,0.02940938249230385,-0.03450803458690643,0.07966535538434982,6.06360779501012,-7.108894597664257,16.41515865757239,0.04608495626653674,-0.01032207487668542,-0.08907915745739972,0.0,0.0,0.0,0.0,0.0,0.0,0.0,0.0,0.0,0.0
0.35745716094970703,0.029411680996418,-0.03448846936225891,0.07965666055679321,6.211293770680397,-7.282048377855098,16.81498237998423,0.046141107212391355,-0.010192415952534398,-0.08911890816731617,0.0,0.0,0.0,0.0,0.0,0.0,0.0,0.0,0.0,0.0
0.3672053813934326,0.029392238706350327,-0.034511152654886246,0.07969199120998383,9.63733016136117,-11.298715213873558,26.089860504633684,0.046186930521300004,-0.010101278668778945,-0.08898128104764041,0.0,0.0,0.0,0.0,0.0,0.0,0.0,0.0,0.0,0.0
0.37735676765441895,0.029406938701868057,-0.03449738770723343,0.07967359572649002,5.381208114605149,-6.308893724092124,14.567865393523926,0.046053426091907795,-0.010231866575631248,-0.08906434652636476,0.0,0.0,0.0,0.0,0.0,0.0,0.0,0.0,0.0,0.0
0.3877737522125244,0.0294138565659523,-0.03451558202505112,0.07966898381710052,5.14666224560257,-6.033924031652848,13.932924922336756,0.04628889827574945,-0.010095335937504456,-0.08901907488013121,0.0,0.0,0.0,0.0,0.0,0.0,0.0,0.0,0.0,0.0
0.39807963371276855,0.02941315621137619,-0.0345064178109169,0.07966592907905579,7.31398492748927,-8.574891524749743,19.800234318446694,0.04606703941730156,-0.010138119978946486,-0.08897978450177375,0.0,0.0,0.0,0.0,0.0,0.0,0.0,0.0,0.0,0.0
0.40819549560546875,0.02940363436937332,-0.03452285751700401,0.07967354357242584,9.56532293735533,-11.214370603397304,25.894978229660527,0.04605418942400774,-0.010148769643308237,-0.08902121341577038,0.0,0.0,0.0,0.0,0.0,0.0,0.0,0.0,0.0,0.0
0.4181993007659912,0.029410626739263535,-0.03449122980237007,0.07966649532318115,6.9548749470582285,-8.153897568888532,18.82803974502699,0.04621596167141676,-0.010014285688875305,-0.08902209215074935,0.0,0.0,0.0,0.0,0.0,0.0,0.0,0.0,0.0,0.0
0.42833828926086426,0.029405415058135986,-0.034525033086538315,0.07965683937072754,5.065284695658804,-5.938547970868406,13.712586628763638,0.04602013595387905,-0.010209481262984741,-0.0890710307882596,0.0,0.0,0.0,0.0,0.0,0.0,0.0,0.0,0.0,0.0
0.4387490749359131,0.02940290793776512,-0.03451056778430939,0.07966351509094238,4.6695123537204575,-5.474557991028994,12.641156413248822,0.04610917449475842,-0.010330218914499477,-0.08907836725057768,0.0,0.0,0.0,0.0,0.0,0.0,0.0,0.0,0.0,0.0
0.4488868713378906,0.029410414397716522,-0.03451278433203697,0.07967901229858398,6.589358355365476,-7.725417605622168,17.838502683070544,0.046174997222185266,-0.010325766281208555,-0.08902130991857587,0.0,0.0,0.0,0.0,0.0,0.0,0.0,0.0,0.0,0.0
0.45931196212768555,0.029424306005239487,-0.03450729697942734,0.07964714616537094,6.044925318194627,-7.087126869350676,16.364612201605112,0.04615542804114542,-0.010202107736261855,-0.08901608816214415,0.0,0.0,0.0,0.0,0.0,0.0,0.0,0.0,0.0,0.0
0.4693474769592285,0.02940419316291809,-0.034500185400247574,0.07965129613876343,6.260915893750644,-7.340352981753389,16.949289098847807,0.04611352632517622,-0.010146188277167945,-0.08899603998158814,0.0,0.0,0.0,0.0,0.0,0.0,0.0,0.0,0.0,0.0
0.47968626022338867,0.029401514679193497,-0.034503381699323654,0.079653799533844,5.390795039569348,-6.320217416857403,14.593710858155063,0.04608041758333213,-0.010124190276765203,-0.0890554535829747,0.0,0.0,0.0,0.0,0.0,0.0,0.0,0.0,0.0,0.0
0.48975157737731934,0.02940581738948822,-0.03449171781539917,0.07966272532939911,6.305873419174553,-7.393070003164193,17.070965563427947,0.04610721080537537,-0.010251429466802174,-0.08907866126973024,0.0,0.0,0.0,0.0,0.0,0.0,0.0,0.0,0.0,0.0
0.49988508224487305,0.02940734103322029,-0.034494031220674515,0.07965905964374542,5.175741827873727,-6.0680907442681065,14.011522795746943,0.04608095343145193,-0.0102253924531663,-0.08902032075488109,0.0,0.0,0.0,0.0,0.0,0.0,0.0,0.0,0.0,0.0
0.5103075504302979,0.029408585280179977,-0.034515295177698135,0.07967741787433624,4.470660382994872,-5.241446698286779,12.102756337097599,0.04616267253463434,-0.01015407326270299,-0.08898668283415487,0.0,0.0,0.0,0.0,0.0,0.0,0.0,0.0,0.0,0.0
0.5202875137329102,0.02939567342400551,-0.034496087580919266,0.07965633273124695,6.066969587759266,-7.112989283396454,16.424215573633163,0.04605793756869765,-0.010199188556936401,-0.08902346473283236,0.0,0.0,0.0,0.0,0.0,0.0,0.0,0.0,0.0,0.0
0.5307278633117676,0.02941422164440155,-0.03449581563472748,0.07964251935482025,4.3232056893444595,-5.068586502182102,11.703578604024987,0.04608474022977346,-0.010276395041151165,-0.08902975207302276,0.0,0.0,0.0,0.0,0.0,0.0,0.0,0.0,0.0,0.0
0.5408575534820557,0.029420528560876846,-0.034504134207963943,0.0796634629368782,5.867245604249199,-6.878833193387206,15.883488012776313,0.0461175603123832,-0.010297495566480267,-0.08902359381986125,0.0,0.0,0.0,0.0,0.0,0.0,0.0,0.0,0.0,0.0
0.5510485172271729,0.0294182188808918,-0.03448391705751419,0.07964575290679932,5.450164860327321,-6.3898234788073065,14.754327182681738,0.04605576691759124,-0.010299533523087987,-0.08913782199344025,0.0,0.0,0.0,0.0,0.0,0.0,0.0,0.0,0.0,0.0
0.5610570907592773,0.029401496052742004,-0.034497786313295364,0.07966060191392899,5.320999026687604,-6.238369728701721,14.404609814660642,0.046291136435731454,-0.010198120328687579,-0.0890509072811061,0.0,0.0,0.0,0.0,0.0,0.0,0.0,0.0,0.0,0.0
0.5711126327514648,0.029415711760520935,-0.034500643610954285,0.07968105375766754,3.8113788242049624,-4.468476564551656,10.31786434184829,0.04613473793475148,-0.010154734301579477,-0.08903616612430103,0.0,0.0,0.0,0.0,0.0,0.0,0.0,0.0,0.0,0.0
0.5819683074951172,0.029424406588077545,-0.03449772670865059,0.07965237647294998,3.3167819313296887,-3.888601093058487,8.978908555817446,0.04610450069111998,-0.010073986156030985,-0.08894521754914482,0.0,0.0,0.0,0.0,0.0,0.0,0.0,0.0,0.0,0.0
0.5917356014251709,0.02940496802330017,-0.034501802176237106,0.07965566217899323,9.092249227924937,-10.659731604723913,24.613639589768532,0.04617245779396638,-0.010074519372879827,-0.08906619555815148,0.0,0.0,0.0,0.0,0.0,0.0,0.0,0.0,0.0,0.0
0.6019349098205566,0.029417261481285095,-0.034494150429964066,0.07966780662536621,4.378645358533421,-5.133495657025683,11.85337812185754,0.04618696353938878,-0.010304934648946943,-0.0889632451033918,0.0,0.0,0.0,0.0,0.0,0.0,0.0,0.0,0.0,0.0
0.6126751899719238,0.029429536312818527,-0.034486301243305206,0.0796569213271141,4.415246925861219,-5.176375107475838,11.95238942323267,0.04604617065599075,-0.010302960676573488,-0.08904441272036114,0.0,0.0,0.0,0.0,0.0,0.0,0.0,0.0,0.0,0.0
0.62233567237854,0.029410801827907562,-0.03449402004480362,0.07964571565389633,7.592004721728472,-8.900684521469378,20.55193456454396,0.04611162534616421,-0.010075285543028695,-0.0890143348193286,0.0,0.0,0.0,0.0,0.0,0.0,0.0,0.0,0.0,0.0
0.6328155994415283,0.029414869844913483,-0.03451409563422203,0.07967451214790344,3.3109066098801962,-3.881603021809621,8.96272529533999,0.04603477566696399,-0.010223654017275546,-0.08897990857255983,0.0,0.0,0.0,0.0,0.0,0.0,0.0,0.0,0.0,0.0
0.6429810523986816,0.029408637434244156,-0.03450080379843712,0.07965156435966492,4.918547979744698,-5.76633307375559,13.314587732478142,0.046060463298494815,-0.010180848826672985,-0.08904263830223455,0.0,0.0,0.0,0.0,0.0,0.0,0.0,0.0,0.0,0.0
0.6528351306915283,0.029433172196149826,-0.034492287784814835,0.07967610657215118,5.08919312228174,-5.966362383198399,13.776441498158285,0.046199234095883175,-0.009964535363724743,-0.08899458904658938,0.0,0.0,0.0,0.0,0.0,0.0,0.0,0.0,0.0,0.0
0.6631808280944824,0.029426366090774536,-0.03449345752596855,0.07964116334915161,3.152927957791455,-3.6963310733808945,8.53489632872064,0.04609503767505079,-0.010196948326455816,-0.08898200775484605,0.0,0.0,0.0,0.0,0.0,0.0,0.0,0.0,0.0,0.0
0.6734099388122559,0.029417436569929123,-0.0345073938369751,0.07967641949653625,3.8968428655789324,-4.568420845877259,10.548554021581682,0.04602654957384668,-0.010250613480714068,-0.0890012592801664,0.0,0.0,0.0,0.0,0.0,0.0,0.0,0.0,0.0,0.0
0.6833927631378174,0.029417559504508972,-0.03449779748916626,0.07965394854545593,3.9370402526697004,-4.615522691258915,10.657287394494073,0.046235349632212486,-0.01004170334829885,-0.08905563010630221,0.0,0.0,0.0,0.0,0.0,0.0,0.0,0.0,0.0,0.0
0.693706750869751,0.0294303260743618,-0.0345124676823616,0.07967092841863632,2.707043497652965,-3.173541750583032,7.327717517920349,0.04610463189867033,-0.01002683384714697,-0.08908028430635884,0.0,0.0,0.0,0.0,0.0,0.0,0.0,0.0,0.0,0.0
0.7040650844573975,0.02941213548183441,-0.034499816596508026,0.07965154945850372,3.471057112008323,-4.069195921749326,9.395748534645953,0.0460587529076366,-0.010244059140994159,-0.0890524039670939,0.0,0.0,0.0,0.0,0.0,0.0,0.0,0.0,0.0,0.0
0.7139899730682373,0.02940085157752037,-0.03449004516005516,0.07965654879808426,3.9245005612860924,-4.600761607973521,10.623096753040024,0.04618852034169267,-0.010137525428952405,-0.08903374949017756,0.0,0.0,0.0,0.0,0.0,0.0,0.0,0.0,0.0,0.0
0.7240760326385498,0.029403917491436005,-0.03450113162398338,0.0796639621257782,2.5467894514583516,-2.9856415032865224,6.893793478837351,0.04594678855850275,-0.010202896070658782,-0.08909106147095275,0.0,0.0,0.0,0.0,0.0,0.0,0.0,0.0,0.0,0.0
0.7344274520874023,0.029412709176540375,-0.03449256718158722,0.07964625954627991,2.2429842720721878,-2.6294809791701503,6.0714108777803855,0.04616853713424231,-0.009935713594031063,-0.08904942922531309,0.0,0.0,0.0,0.0,0.0,0.0,0.0,0.0,0.0,0.0
0.7446880340576172,0.02940569445490837,-0.03450050204992294,0.07967084646224976,2.9380377610323145,-3.444289190763553,7.9527622822257875,0.04606229362252132,-0.01002304024018389,-0.08898850512051613,0.0,0.0,0.0,0.0,0.0,0.0,0.0,0.0,0.0,0.0
0.7546753883361816,0.02943139150738716,-0.03449234366416931,0.07964783906936646,2.858707510395357,-3.351268766707754,7.737962217875419,0.04603865505350258,-0.01021718614712591,-0.08899354568719614,0.0,0.0,0.0,0.0,0.0,0.0,0.0,0.0,0.0,0.0
0.7648298740386963,0.029405031353235245,-0.034499187022447586,0.07965480536222458,2.1982707662182417,-2.5770165437096737,5.950223340143145,0.04602931831082589,-0.01027209469314186,-0.08906746679049034,0.0,0.0,0.0,0.0,0.0,0.0,0.0,0.0,0.0,0.0
0.77494215965271,0.029418330639600754,-0.034512173384428024,0.07966899871826172,1.8100552424418437,-2.121905531591605,4.899367150134876,0.0460909769334981,-0.010177731758858022,-0.08899043165111203,0.0,0.0,0.0,0.0,0.0,0.0,0.0,0.0,0.0,0.0
0.7855067253112793,0.029435016214847565,-0.03449639678001404,0.07967585325241089,1.7230421596703898,-2.019891037287032,4.663798362592671,0.04611100763919958,-0.010143256393730616,-0.08903745724921916,0.0,0.0,0.0,0.0,0.0,0.0,0.0,0.0,0.0,0.0
0.7955741882324219,0.029408756643533707,-0.034499868750572205,0.07967133820056915,2.910363966900614,-3.41172830351005,7.877448022296559,0.04592805589888966,-0.010191739770425097,-0.08900385795301359,0.0,0.0,0.0,0.0,0.0,0.0,0.0,0.0,0.0,0.0
0.805532693862915,0.029409926384687424,-0.03448843955993652,0.07964489609003067,2.371397392398231,-2.779884525666555,6.418561909068679,0.04619767898780114,-0.010100054554627882,-0.08903942039350113,0.0,0.0,0.0,0.0,0.0,0.0,0.0,0.0,0.0,0.0
0.815875768661499,0.029416523873806,-0.03449556976556778,0.07967294752597809,1.5574743164894764,-1.8257389943423266,4.2155047687231795,0.046107909962526006,-0.01013278115605961,-0.08896141702237569,0.0,0.0,0.0,0.0,0.0,0.0,0.0,0.0,0.0,0.0
0.826007604598999,0.0294257253408432,-0.03449803218245506,0.07966697216033936,1.9341772123630965,-2.267294989282261,5.235030146119019,0.04597988344888506,-0.010073653394855137,-0.08888028347605471,0.0,0.0,0.0,0.0,0.0,0.0,0.0,0.0,0.0,0.0
0.8362038135528564,0.029415760189294815,-0.03448988124728203,0.07963832467794418,1.7099208093815943,-2.0043827884636802,4.6279812246849605,0.04607790492721653,-0.010174155181995648,-0.0890996416409246,0.0,0.0,0.0,0.0,0.0,0.0,0.0,0.0,0.0,0.0
0.8462789058685303,0.02941971644759178,-0.03450816124677658,0.0796722024679184,1.7143869953819115,-2.00958732817175,4.639984066616794,0.04611490839544374,-0.010205078895203796,-0.08902746150853517,0.0,0.0,0.0,0.0,0.0,0.0,0.0,0.0,0.0,0.0
0.8567161560058594,0.029420968145132065,-0.03450704365968704,0.07965226471424103,1.3828087923045764,-1.6208954444510202,3.7425011152049654,0.04639364595091226,-0.009780154371268281,-0.08896362770486677,0.0,0.0,0.0,0.0,0.0,0.0,0.0,0.0,0.0,0.0
0.8667600154876709,0.029422961175441742,-0.03450792655348778,0.0796516165137291,1.91603232138237,-2.2459017039656124,5.185533445561452,0.04625161966060817,-0.010108183750023482,-0.08908780151137506,0.0,0.0,0.0,0.0,0.0,0.0,0.0,0.0,0.0,0.0
0.8769605159759521,0.029423043131828308,-0.03450034558773041,0.07965533435344696,1.4190263419937956,-1.6633061828394866,3.8403461438567943,0.04608729428817873,-0.010203716699916706,-0.0890053460071478,0.0,0.0,0.0,0.0,0.0,0.0,0.0,0.0,0.0,0.0
0.8871362209320068,0.029422055929899216,-0.03451619669795036,0.07965807616710663,1.3729908028435287,-1.6093217081818385,3.715664385099889,0.04602550681726703,-0.01009983668020547,-0.0889417762811064,0.0,0.0,0.0,5899.0,5810.0,5780.0,5780.0,0.0,0.0,0.0
0.8973495960235596,0.029418963938951492,-0.03449900448322296,0.07966693490743637,1.3995223085580804,-1.6403980405473233,3.7873726291232,0.04611797143365639,-0.010049105249353835,-0.08896652931045802,0.0,0.0,0.0,4043.0,4055.0,4088.0,4088.0,0.0,0.0,0.0
0.9075241088867188,0.02939925342798233,-0.03450808674097061,0.07965967804193497,1.4411931152103725,-1.6892237390505767,3.9000673657096785,0.046114888397305494,-0.01018360945915972,-0.08902114305371171,0.0,0.0,0.0,4043.0,4055.0,4088.0,4088.0,0.0,0.0,0.0
0.9176590442657471,0.029421020299196243,-0.03452392667531967,0.07965745776891708,1.4134981383742011,-1.6567575714470353,3.825059499000136,0.04620645973111022,-0.010099209311437724,-0.08900125423744974,0.0,0.0,0.0,4043.0,4055.0,4088.0,4088.0,0.0,0.0,0.0
0.9277772903442383,0.02942802384495735,-0.03449307009577751,0.07966820895671844,1.2132817342815896,-1.4220721081447658,3.283174652662932,0.04610755748453303,-0.010161283961300744,-0.08896484525824096,0.0,0.0,0.0,4043.0,4055.0,4088.0,4088.0,0.0,0.0,0.0
0.9379336833953857,0.029420994222164154,-0.034505683928728104,0.07966503500938416,1.0490536669153023,-1.229552826206354,2.8386781798238756,0.04611644061662724,-0.010264119575109035,-0.08897524641737134,0.0,0.0,0.0,4043.0,4055.0,4088.0,4088.0,0.0,0.0,0.0
0.948436975479126,0.02942727878689766,-0.034512851387262344,0.07965970039367676,0.7927812234198495,-0.9291631185232212,2.145145594106988,0.04610263490592858,-0.010212020506145772,-0.08902677615073766,0.0,0.0,0.0,4043.0,4055.0,4088.0,4088.0,0.0,0.0,0.0
0.958526611328125,0.029409993439912796,-0.034499216824769974,0.07965672016143799,1.1516897437962959,-1.3497874040619386,3.1161823463533844,0.046224343646384586,-0.010102900526458852,-0.08900226047142096,0.0,0.0,0.0,4043.0,4055.0,4088.0,4088.0,0.0,0.0,0.0
0.9684097766876221,0.02942255511879921,-0.03450074791908264,0.07966791838407516,0.9170297713584629,-1.074740631523426,2.481161581239401,0.04624446309162612,-0.010244947063444167,-0.08902262007880625,0.0,0.0,0.0,4043.0,4055.0,4088.0,4088.0,0.0,0.0,0.0
0.9788920879364014,0.029413271695375443,-0.0345056876540184,0.07967080920934677,0.568645676931502,-0.6664250288522904,1.5385009118622937,0.046097131673627896,-0.01001576552198252,-0.08901284084355615,0.0,0.0,0.0,4043.0,4055.0,4088.0,4088.0,0.0,0.0,0.0
0.9889907836914062,0.029419943690299988,-0.03449466452002525,0.0796656683087349,0.9168441504075816,-1.074470275259991,2.480480267597789,0.04608464200000643,-0.01020688905849217,-0.08899245405826268,0.0,0.0,0.0,4043.0,4055.0,4088.0,4088.0,0.0,0.0,0.0
0.9991636276245117,0.029780922457575798,-0.03533961623907089,0.07903607189655304,0.7251635793471545,-0.8499336503311876,1.9613362264382372,-0.0043845489491350954,-0.033383588611851145,-0.06913895421102867,0.0,0.0,0.0,4043.0,4055.0,4088.0,4088.0,0.0,0.0,0.0
1.009230375289917,0.029416240751743317,-0.03449256345629692,0.07967394590377808,0.7152931670077903,-0.838607459833418,1.9334912704601488,0.046089857371514026,-0.010187908554959957,-0.0890527719127281,0.0,0.0,0.0,4043.0,4055.0,4088.0,4088.0,0.0,0.0,0.0
1.01955246925354,0.029428716748952866,-0.03449394181370735,0.07966453582048416,0.44858538608594933,-0.5260021058810683,1.212076258375758,0.04619695571357891,-0.01000239752179412,-0.08903489833986034,0.0,0.0,0.0,4043.0,4055.0,4088.0,4088.0,0.0,0.0,0.0
1.0298259258270264,0.029429294168949127,-0.03450166806578636,0.07964542508125305,0.5707048432115371,-0.6691837087552456,1.5417874155264828,0.04616397329443015,-0.010183002019198105,-0.08898718391276134,0.0,0.0,0.0,4043.0,4055.0,4088.0,4088.0,0.0,0.0,0.0
1.0401029586791992,0.02942827343940735,-0.034482646733522415,0.07966320961713791,0.556815846567176,-0.6528772415573866,1.5039565888585875,0.04599196516392966,-0.01030961806049311,-0.08899369847051103,0.0,0.0,0.0,4043.0,4055.0,4088.0,4088.0,0.0,0.0,0.0
1.0501809120178223,0.029416944831609726,-0.034506905823946,0.07966049015522003,0.547338854165755,-0.6417442281237993,1.4780241428411203,0.04615015389913402,-0.010104455267962284,-0.08906961717475853,0.0,0.0,0.0,4043.0,4055.0,4088.0,4088.0,0.0,0.0,0.0
1.0604281425476074,0.02940564975142479,-0.03451089933514595,0.07968099415302277,0.41656407862261025,-0.48841553248480574,1.1246207620685267,0.04624469395779639,-0.01005681137757397,-0.08904984468722245,0.0,0.0,0.0,4043.0,4055.0,4088.0,4088.0,0.0,0.0,0.0
1.0705485343933105,0.02940071001648903,-0.03450367972254753,0.07967810332775116,0.3782740687779801,-0.4435443710567376,1.021007265754685,0.04616946377989578,-0.01000368588985202,-0.08891895012010702,0.0,0.0,0.0,4043.0,4055.0,4088.0,4088.0,0.0,0.0,0.0
1.0807428359985352,0.02943473309278488,-0.03450014069676399,0.0796850398182869,0.2927758000673518,-0.3433069719272579,0.7900068370340806,0.045929268769435226,-0.010224841675218763,-0.08903145597117255,0.0,0.0,0.0,4043.0,4055.0,4088.0,4088.0,0.0,0.0,0.0
1.0911026000976562,0.029411736875772476,-0.03450531139969826,0.07969233393669128,0.2633509587734328,-0.3088017066013201,0.7103237070955523,0.04616340837197417,-0.010280534779958805,-0.08911336937914849,0.0,0.0,0.0,4043.0,4055.0,4088.0,4088.0,0.0,0.0,0.0
1.1013758182525635,0.029416918754577637,-0.03451193496584892,0.07966412603855133,0.15394400474212908,-0.18051537416214652,0.415011977307497,0.04611870506303102,-0.01018984826064769,-0.08905931220606603,0.0,0.0,0.0,4043.0,4055.0,4088.0,4088.0,0.0,0.0,0.0
1.1117494106292725,0.029416948556900024,-0.034500107169151306,0.07967140525579453,0.15306741432093943,-0.1794960402120821,0.4123586249083827,0.04610534988841205,-0.010158560180960003,-0.08901774310931557,0.0,0.0,0.0,4043.0,4055.0,4088.0,4088.0,0.0,0.0,0.0
1.1216554641723633,0.02941972389817238,-0.034507498145103455,0.0796697735786438,0.160560004056494,-0.1882882817514533,0.4321016576918103,0.046166186971405794,-0.010097861840452015,-0.08891390839645226,0.0,0.0,0.0,4043.0,4055.0,4088.0,4088.0,0.0,0.0,0.0
1.1320545673370361,0.029419507831335068,-0.03451891615986824,0.07967831939458847,0.08775939718575095,-0.10292199204728344,0.23581529071012566,0.04613870704890073,-0.010244832886959846,-0.08903405745810106,0.0,0.0,0.0,4043.0,4055.0,4088.0,4088.0,0.0,0.0,0.0
1.1420516967773438,0.029415320605039597,-0.03451304882764816,0.07967227697372437,0.09810363328712485,-0.115076348084193,0.2629302702964125,0.04614541317759453,-0.010235987016045911,-0.0890024846850394,0.0,0.0,0.0,4043.0,4055.0,4088.0,4088.0,0.0,0.0,0.0
1.1523206233978271,0.029410041868686676,-0.03449788689613342,0.07966765761375427,0.045357660235947436,-0.05322698648648072,0.12092831323604387,0.04600990467507575,-0.010165490816622328,-0.08898425373401478,0.0,0.0,0.0,4043.0,4055.0,4088.0,4088.0,0.0,0.0,0.0
1.1624228954315186,0.02941756322979927,-0.03449635207653046,0.07966438680887222,0.02405408875281106,-0.028256188365990385,0.06305139628164669,0.04618676878750917,-0.010117987657357138,-0.08897191926536442,0.0,0.0,0.0,4043.0,4055.0,4088.0,4088.0,0.0,0.0,0.0
1.1727588176727295,0.029409684240818024,-0.034517839550971985,0.07966941595077515,-0.002332623689708605,0.0026826898027982223,-0.0082568839571503,0.04620160870301753,-0.010079312397778964,-0.08908429401680436,0.0,0.0,0.0,4043.0,4055.0,4088.0,4088.0,0.0,0.0,0.0
1.1827473640441895,0.0294218510389328,-0.03450709208846092,0.07967910170555115,-0.03187488106616889,0.03729979697644958,-0.08854491403096366,0.046065183404933534,-0.01030124394682918,-0.08900519634361692,0.0,0.0,0.0,4043.0,4055.0,4088.0,4088.0,0.0,0.0,0.0
1.1929941177368164,0.029406238347291946,-0.03450331836938858,0.07966598868370056,-0.04747457411456393,0.055597106917871675,-0.1302630765383782,0.04606251300084779,-0.010221228236025401,-0.08903223657404312,0.0,0.0,0.0,4043.0,4055.0,4088.0,4088.0,0.0,0.0,0.0
1.203019142150879,0.02940000221133232,-0.034508511424064636,0.07965303957462311,-0.07604117034860378,0.0890697735380621,-0.20771628913797127,0.04632138567934656,-0.010247619933225633,-0.08907405353210746,0.0,0.0,0.0,4043.0,4055.0,4088.0,4088.0,0.0,0.0,0.0
1.2131893634796143,0.029422614723443985,-0.03450948745012283,0.07967676222324371,-0.07460881140972318,0.08739888983047271,-0.20333695336992955,0.04599754711297539,-0.010154018278203083,-0.08894736248278501,0.0,0.0,0.0,4043.0,4055.0,4088.0,4088.0,0.0,0.0,0.0
1.2234306335449219,0.029591219499707222,-0.0350072868168354,0.07902157306671143,-0.08956730169478351,0.10486121687328856,-0.2440610377989858,-0.0043845489491350954,-0.033383588611851145,-0.06913895421102867,0.0,0.0,0.0,4043.0,4055.0,4088.0,4088.0,0.0,0.0,0.0
1.2336018085479736,0.02940630540251732,-0.034501172602176666,0.07965613901615143,-0.11411484945522792,0.13346616062836705,-0.3112370755742144,0.04604297406899238,-0.010231100746744137,-0.0890738680851915,0.0,0.0,0.0,4043.0,4055.0,4088.0,4088.0,0.0,0.0,0.0
1.2437961101531982,0.029416587203741074,-0.03451433777809143,0.07966901361942291,-0.12363828548099715,0.14456611951207732,-0.3371596550131097,0.04625770852183664,-0.01007783946504797,-0.08901366058847832,0.0,0.0,0.0,4043.0,4055.0,4088.0,4088.0,0.0,0.0,0.0
1.254225492477417,0.029401149600744247,-0.03450649231672287,0.07965222746133804,-0.14326008826760278,0.16754824149352354,-0.39032589360981307,0.046087964822895476,-0.010205710481016145,-0.08902498382035387,0.0,0.0,0.0,4043.0,4055.0,4088.0,4088.0,0.0,0.0,0.0
1.2644054889678955,0.029407966881990433,-0.03451094776391983,0.07967687398195267,-0.22167784477681787,0.2593011110760012,-0.6035542782438801,0.046015962918642954,-0.010352019246571812,-0.08893515613289513,0.0,0.0,0.0,4043.0,4055.0,4088.0,4088.0,0.0,0.0,0.0
1.275033712387085,0.029417164623737335,-0.03449232131242752,0.07966963201761246,-0.23507253732924224,0.2750108383419698,-0.6396571499285346,0.04607418647383316,-0.010168545493358412,-0.08902434121619608,0.0,0.0,0.0,4043.0,4055.0,4088.0,4088.0,0.0,0.0,0.0
1.2852914333343506,0.029419884085655212,-0.03449275344610214,0.0796561986207962,-0.23431548711062838,0.2741779221133328,-0.637321308815587,0.04628827032298351,-0.009949397950425645,-0.0889988258099686,0.0,0.0,0.0,4043.0,4055.0,4088.0,4088.0,0.0,0.0,0.0
1.2952990531921387,0.029421404004096985,-0.03449351340532303,0.07964862138032913,-0.2587211996292547,0.3027951165312437,-0.7034748525131076,0.0460852466112386,-0.009968559519152206,-0.0890555203487957,0.0,0.0,0.0,4043.0,4055.0,4088.0,4088.0,0.0,0.0,0.0
1.3056526184082031,0.029589785262942314,-0.03499197959899902,0.07903026044368744,-0.1891205552149453,0.22129919679049811,-0.5143686770405258,-0.0043845489491350954,-0.033383588611851145,-0.06913895421102867,0.0,0.0,0.0,4043.0,4055.0,4088.0,4088.0,0.0,0.0,0.0
1.3159244060516357,0.029428739100694656,-0.03450183942914009,0.07965288311243057,-0.26724833759718897,0.31255547985954213,-0.7274620743156279,0.04625079514618423,-0.010124970930600307,-0.08900076451642239,0.0,0.0,0.0,4043.0,4055.0,4088.0,4088.0,0.0,0.0,0.0
1.3259904384613037,0.02941570058465004,-0.034500520676374435,0.07965196669101715,-0.30597582165703024,0.3577618002037567,-0.8331877310749383,0.04618133781579356,-0.010105256809023399,-0.08897911322008939,0.0,0.0,0.0,4043.0,4055.0,4088.0,4088.0,0.0,0.0,0.0
1.3361945152282715,0.0294124037027359,-0.03450856730341911,0.0796649307012558,-0.26664356887291085,0.31177808525807643,-0.7260051766143581,0.04612709882596591,-0.010124125772222874,-0.08910702111147023,0.0,0.0,0.0,4043.0,4055.0,4088.0,4088.0,0.0,0.0,0.0
1.346571683883667,0.02942172810435295,-0.03450808301568031,0.07967913150787354,-0.2856264357862415,0.333971840344795,-0.7775966724255137,0.04619427521230093,-0.010103146020953293,-0.08903095402921878,0.0,0.0,0.0,4043.0,4055.0,4088.0,4088.0,0.0,0.0,0.0
1.3567321300506592,0.029398977756500244,-0.03450137749314308,0.07965853065252304,-0.37275107520583306,0.43583797919891876,-1.0146634669088255,0.04613754916138309,-0.010021194103288266,-0.08898857144881052,0.0,0.0,0.0,4043.0,4055.0,4088.0,4088.0,0.0,0.0,0.0
1.3665497303009033,0.02942362055182457,-0.034499891102313995,0.07967308908700943,-0.39383394973706454,0.46048499264575027,-1.0719295982070218,0.04613272354398758,-0.010175765105067605,-0.08906877157351643,0.0,0.0,0.0,4043.0,4055.0,4088.0,4088.0,0.0,0.0,0.0
1.3767926692962646,0.02958647347986698,-0.034998636692762375,0.07902247458696365,-0.23009638929727577,0.26896489543116087,-0.6264944771147658,-0.0043845489491350954,-0.033383588611851145,-0.06913895421102867,0.0,0.0,0.0,4043.0,4055.0,4088.0,4088.0,0.0,0.0,0.0
1.3870370388031006,0.02941487357020378,-0.034497931599617004,0.07966194301843643,-0.2921879340287709,0.3413584527224713,-0.7962039101583924,0.0459928303150947,-0.010261994170964085,-0.08895347967859582,0.0,0.0,0.0,4043.0,4055.0,4088.0,4088.0,0.0,0.0,0.0
1.3972761631011963,0.02941129356622696,-0.03449412062764168,0.07965361326932907,-0.3510328511735477,0.4099844543749236,-0.9569434201038118,0.04603701608289735,-0.010251034435235108,-0.08904235005573287,0.0,0.0,0.0,4043.0,4055.0,4088.0,4088.0,0.0,0.0,0.0
1.4072699546813965,0.029403064399957657,-0.03451118990778923,0.07967530190944672,-0.35263519676251354,0.41183402894266563,-0.9612918697825996,0.04607631671369998,-0.010251254860268113,-0.08896104280799258,0.0,0.0,0.0,4043.0,4055.0,4088.0,4088.0,0.0,0.0,0.0
1.4175245761871338,0.029409296810626984,-0.03450052812695503,0.0796625018119812,-0.2503229368854125,0.29232467795362105,-0.6823616174073182,0.04615285935910694,-0.010178062800738278,-0.08907244543478778,0.0,0.0,0.0,4043.0,4055.0,4088.0,4088.0,0.0,0.0,0.0
1.427854061126709,0.029421955347061157,-0.03449654579162598,0.07967337965965271,-0.2847104804032035,0.3324683923199163,-0.7760862414681635,0.04608051212485795,-0.010208804056489076,-0.08906302932072228,0.0,0.0,0.0,4043.0,4055.0,4088.0,4088.0,0.0,0.0,0.0
1.4381451606750488,0.029416341334581375,-0.03449542447924614,0.07967200875282288,-0.3562971311076564,0.4160644961487489,-0.9712296480956768,0.04611339971695117,-0.010123374919556595,-0.08895724155047684,0.0,0.0,0.0,4043.0,4055.0,4088.0,4088.0,0.0,0.0,0.0
1.4483065605163574,0.029402583837509155,-0.03449496626853943,0.07964900135993958,-0.3985029080070366,0.46534993342309305,-1.0862803385681064,0.046274196815204754,-0.010110050345550325,-0.08903031125578109,0.0,0.0,0.0,4043.0,4055.0,4088.0,4088.0,0.0,0.0,0.0
1.4583313465118408,0.029426109045743942,-0.034482430666685104,0.07966133952140808,-0.36255983657592206,0.42337888765096,-0.9883078566472947,0.046245467633371465,-0.010210800790301457,-0.0889205960426613,0.0,0.0,0.0,4043.0,4055.0,4088.0,4088.0,0.0,0.0,0.0
1.468456506729126,0.029409434646368027,-0.03449709713459015,0.07967543601989746,-0.2660012287719457,0.31062925881666353,-0.7251050669662686,0.046157430299304004,-0.01011946588967326,-0.08902666907941235,0.0,0.0,0.0,4043.0,4055.0,4088.0,4088.0,0.0,0.0,0.0
1.4788596630096436,0.029411662369966507,-0.034501317888498306,0.07965772598981857,-0.26088731044018026,0.3046543698106647,-0.7111591710869531,0.046140825818315793,-0.010137545327951398,-0.08902391885787629,0.0,0.0,0.0,4043.0,4055.0,4088.0,4088.0,0.0,0.0,0.0
1.48887300491333,0.02940518409013748,-0.034512609243392944,0.07968002557754517,-0.3605305882490188,0.42099108804495755,-0.982755555218466,0.04603209477300784,-0.010301208174953811,-0.08903733962698979,0.0,0.0,0.0,4043.0,4055.0,4088.0,4088.0,0.0,0.0,0.0
1.4991042613983154,0.029423221945762634,-0.03450935333967209,0.07967443764209747,-0.27319166028496017,0.31898624220306393,-0.7446673243828565,0.04613140821250427,-0.01016191285022416,-0.08898653697043403,0.0,0.0,0.0,4043.0,4055.0,4088.0,4088.0,0.0,0.0,0.0
1.5092036724090576,0.029433641582727432,-0.034492477774620056,0.07965484261512756,-0.28923228897577413,0.33771322072494314,-0.7884103651826715,0.046110639093110764,-0.01014448283987697,-0.08904001506671005,0.0,0.0,0.0,4043.0,4055.0,4088.0,4088.0,0.0,0.0,0.0
1.5195517539978027,0.029418081045150757,-0.03448835015296936,0.0796506330370903,-0.24962528788817512,0.29148143401306237,-0.6804893314990015,0.046182177406356925,-0.01008496432976801,-0.08900396799095141,0.0,0.0,0.0,4043.0,4055.0,4088.0,4088.0,0.0,0.0,0.0
1.529628038406372,0.02943013608455658,-0.034503061324357986,0.07963685691356659,-0.32144338818269025,0.3753586912974771,-0.8763244921787138,0.04600805597919993,-0.010257517310298697,-0.08903506623000179,0.0,0.0,0.0,4043.0,4055.0,4088.0,4088.0,0.0,0.0,0.0
1.5400238037109375,0.029416289180517197,-0.03449159860610962,0.07966193556785583,-0.26443633765339686,0.3087979986364201,-0.7209506040253819,0.046202918226075675,-0.010103227515019887,-0.08903198237885164,0.0,0.0,0.0,4043.0,4055.0,4088.0,4088.0,0.0,0.0,0.0
1.550032138824463,0.02940310537815094,-0.03449183702468872,0.07966793328523636,-0.34894462608980775,0.4074853507262067,-0.9513598249627069,0.04617334798815613,-0.010133582962707227,-0.08900607356969768,0.0,0.0,0.0,4043.0,4055.0,4088.0,4088.0,0.0,0.0,0.0
1.5603229999542236,0.029417552053928375,-0.034517962485551834,0.07966959476470947,-0.25013633449548495,0.2920913669566663,-0.6819509581461367,0.0460364724986155,-0.010190839495814756,-0.08906417999729493,0.0,0.0,0.0,4043.0,4055.0,4088.0,4088.0,0.0,0.0,0.0
1.5703165531158447,0.029407337307929993,-0.0344916433095932,0.07966573536396027,-0.3033216646433573,0.3541807066779073,-0.8269347370450482,0.046111815611188656,-0.010140046287200532,-0.08900966232440685,0.0,0.0,0.0,4043.0,4055.0,4088.0,4088.0,0.0,0.0,0.0
1.5807139873504639,0.029419682919979095,-0.03449329733848572,0.07965438067913055,-0.23946278155338335,0.2796091076029097,-0.6528362131627147,0.04610663324972469,-0.010136841681594776,-0.08901293271763533,0.0,0.0,0.0,4043.0,4055.0,4088.0,4088.0,0.0,0.0,0.0
1.5908801555633545,0.029406633228063583,-0.03449706733226776,0.07966186851263046,-0.33449896303713866,0.39057922653796173,-0.9119373593619966,0.046105913457297705,-0.01016733661792412,-0.0889762273191003,0.0,0.0,0.0,4043.0,4055.0,4088.0,4088.0,0.0,0.0,0.0
1.6011083126068115,0.02938659116625786,-0.03449653461575508,0.07964196801185608,-0.32536949573266566,0.37990629764851513,-0.8870355213791619,0.04622075255095945,-0.010039320105872768,-0.08903513048176509,0.0,0.0,0.0,4043.0,4055.0,4088.0,4088.0,0.0,0.0,0.0
1.611180067062378,0.029408589005470276,-0.034504976123571396,0.07966434210538864,-0.3460512510038228,0.4040257086266672,-0.9433814298106271,0.04608225762470053,-0.010100858825142557,-0.08894615345168276,0.0,0.0,0.0,4043.0,4055.0,4088.0,4088.0,0.0,0.0,0.0
1.6212916374206543,0.029400434345006943,-0.03450508043169975,0.07966279983520508,-0.30172205508130917,0.35224561613055866,-0.8225071427394699,0.04617530421074613,-0.010135959741109353,-0.08898845161309293,0.0,0.0,0.0,4043.0,4055.0,4088.0,4088.0,0.0,0.0,0.0
1.6315186023712158,0.02940962463617325,-0.03449375554919243,0.07965385913848877,-0.2829772572063146,0.33034520884014024,-0.7713914063635752,0.04605630718594284,-0.010175345666884484,-0.08907475700116173,0.0,0.0,0.0,4043.0,4055.0,4088.0,4088.0,0.0,0.0,0.0
1.6418745517730713,0.029425248503684998,-0.03450968116521835,0.07967644184827805,-0.28423765047825994,0.3318109827416857,-0.7748307856627373,0.0461574221457626,-0.010178503838124787,-0.0890495995720647,0.0,0.0,0.0,4043.0,4055.0,4088.0,4088.0,0.0,0.0,0.0
1.6520774364471436,0.02941521257162094,-0.03450215607881546,0.07967495918273926,-0.3036352475011552,0.3544565751494942,-0.8277279826100249,0.04610926356512093,-0.010138157676791389,-0.08906040151677407,0.0,0.0,0.0,4043.0,4055.0,4088.0,4088.0,0.0,0.0,0.0
1.6623749732971191,0.029413405805826187,-0.034513071179389954,0.07966851443052292,-0.2672642091094282,0.31199371070493764,-0.7285871217118761,0.046132683439002405,-0.010221678580128657,-0.08901001121041233,0.0,0.0,0.0,4043.0,4055.0,4088.0,4088.0,0.0,0.0,0.0
1.672532558441162,0.029405299574136734,-0.03451209515333176,0.07966102659702301,-0.3079860744696425,0.35951330117843844,-0.8395968491684349,0.04627436546258743,-0.010049222266387308,-0.08910603198898252,0.0,0.0,0.0,4043.0,4055.0,4088.0,4088.0,0.0,0.0,0.0
1.683518648147583,0.029417119920253754,-0.03450644016265869,0.07967065274715424,-0.29213506321299604,0.34099062983081346,-0.7963824841797195,0.04618977388356602,-0.010223293459165235,-0.0890675260631348,0.0,0.0,0.0,4043.0,4055.0,4088.0,4088.0,0.0,0.0,0.0
1.693751573562622,0.029399409890174866,-0.03449238836765289,0.0796818733215332,-0.2935115451375663,0.3425853633200171,-0.8001230045825256,0.0459341047970813,-0.010299562838123444,-0.08890168133028348,0.0,0.0,0.0,4043.0,4055.0,4088.0,4088.0,0.0,0.0,0.0
1.7039456367492676,0.02940744161605835,-0.034500546753406525,0.07967264950275421,-0.28771951796925166,0.3358157821594413,-0.7843020390542941,0.0461032156727935,-0.010179563624824986,-0.0890066231852305,0.0,0.0,0.0,4043.0,4055.0,4088.0,4088.0,0.0,0.0,0.0
1.7139298915863037,0.029409658163785934,-0.03449040278792381,0.07965882122516632,-0.26967097591162653,0.3147443352501913,-0.7350805815138242,0.04619019078102629,-0.010121947488545587,-0.0890765635624901,0.0,0.0,0.0,4043.0,4055.0,4088.0,4088.0,0.0,0.0,0.0
1.7249956130981445,0.029418256133794785,-0.03448653966188431,0.07966398447751999,-0.1935512194545186,0.22590722044737682,-0.5275946534491175,0.04618355310969783,-0.01009378147576676,-0.08897837014390653,0.0,0.0,0.0,4043.0,4055.0,4088.0,4088.0,0.0,0.0,0.0
1.7343711853027344,0.029415152966976166,-0.03449892997741699,0.07965733110904694,-0.6339681528931636,0.7399923576736412,-1.7281723841833467,0.04602312821292469,-0.010212360764154186,-0.08902337985905143,0.0,0.0,0.0,4043.0,4055.0,4088.0,4088.0,0.0,0.0,0.0
1.7443490028381348,0.02942676469683647,-0.03451785445213318,0.07965490221977234,-0.2456364201996182,0.2867300113749748,-0.6696339831160268,0.046352650514468074,-0.010047572507197717,-0.0890202070379061,0.0,0.0,0.0,4043.0,4055.0,4088.0,4088.0,0.0,0.0,0.0
1.7545742988586426,0.029416222125291824,-0.03448920324444771,0.07965083420276642,-0.1687225223408449,0.19695776849491192,-0.45999205215979944,0.04609484585242064,-0.010058082676558673,-0.08898149143631809,0.0,0.0,0.0,4043.0,4055.0,4088.0,4088.0,0.0,0.0,0.0
1.7650198936462402,0.029412705451250076,-0.03450041264295578,0.07964896410703659,-0.1894460850160633,0.2211635031289153,-0.5165219323543333,0.046331763771731566,-0.009927193175154187,-0.08908138477296583,0.0,0.0,0.0,4345.0,4340.0,4360.0,4360.0,0.0,0.0,0.0
1.774839162826538,0.029416639357805252,-0.034508172422647476,0.07966078072786331,-0.2599468593694819,0.3034811084722277,-0.7087672165388144,0.04618557781366161,-0.010115087372092884,-0.08898053063236896,0.0,0.0,0.0,4797.0,4765.0,4769.0,4769.0,0.0,0.0,0.0
1.7851629257202148,0.02941247820854187,-0.03449814394116402,0.07966265827417374,-0.15330168464416966,0.17898013767507098,-0.41799988529366044,0.046230098636361454,-0.010232457565198748,-0.08907786530924582,0.0,0.0,0.0,5198.0,5145.0,5135.0,5135.0,0.0,0.0,0.0
1.7952516078948975,0.029417168349027634,-0.03449340537190437,0.07965215295553207,-0.20382604515732675,0.23797916919784706,-0.5557726544702702,0.0461667014681021,-0.010257755234966739,-0.08896755680612335,0.0,0.0,0.0,5437.0,5371.0,5354.0,5354.0,0.0,0.0,0.0
1.8055083751678467,0.029420148581266403,-0.03450567647814751,0.0796629786491394,-0.18677103299692835,0.21808208010720986,-0.5092864142061144,0.04612161607679824,-0.010299542696317344,-0.08906151140746875,0.0,0.0,0.0,5786.0,5702.0,5675.0,5675.0,0.0,0.0,0.0
1.8156259059906006,0.02941485494375229,-0.034498851746320724,0.07965043932199478,-0.20362701554684823,0.2377788102973937,-0.5552736450470119,0.046102527483582983,-0.010132662855658196,-0.08899103505360208,0.0,0.0,0.0,5757.0,5675.0,5649.0,5649.0,0.0,0.0,0.0
1.8258237838745117,0.029401902109384537,-0.03451722115278244,0.07966907322406769,-0.18182511624193864,0.21232177798161794,-0.4958260736471066,0.04613651069969375,-0.010203003484344693,-0.08905304609227245,0.0,0.0,0.0,5899.0,5810.0,5780.0,5780.0,0.0,0.0,0.0
1.8359942436218262,0.02942100167274475,-0.03450245037674904,0.07964152842760086,-0.17977199672773925,0.20991685653326236,-0.49022245492917094,0.04636947540970233,-0.009877374994420842,-0.08895149887155164,0.0,0.0,0.0,5899.0,5810.0,5780.0,5780.0,0.0,0.0,0.0
1.8462944030761719,0.029414914548397064,-0.03449143469333649,0.07965197414159775,-0.1680723640111046,0.19626098239746792,-0.45833601174715133,0.04618995710133481,-0.010149054778707834,-0.08898501424263013,0.0,0.0,0.0,6316.0,6206.0,6166.0,6166.0,0.0,0.0,0.0
1.856513500213623,0.02941836044192314,-0.034519750624895096,0.07968597859144211,-0.18294290614986497,0.213638741005351,-0.4989077984515837,0.04602866862241697,-0.010092729307175106,-0.08897268911942566,0.0,0.0,0.0,6316.0,6206.0,6166.0,6166.0,0.0,0.0,0.0
1.8668136596679688,0.029417328536510468,-0.034513235092163086,0.07966898381710052,-0.1731121534407548,0.2021593369554778,-0.47209773033422747,0.046231612179665996,-0.010209874045824867,-0.08904305066184287,0.0,0.0,0.0,6978.0,6836.0,6782.0,6782.0,0.0,0.0,0.0
1.8768229484558105,0.02941085770726204,-0.03450784087181091,0.07967044413089752,-0.15739704683977518,0.18380360265097265,-0.42923586223529575,0.04606131413923815,-0.010082392097852172,-0.08903949727084855,0.0,0.0,0.0,7156.0,7007.0,6949.0,6949.0,0.0,0.0,0.0
1.887021541595459,0.029416494071483612,-0.03451160714030266,0.0796600729227066,-0.11327509216744497,0.1322774631065946,-0.3089089320408922,0.04623778492134388,-0.0101243407925539,-0.08901897604374051,0.0,0.0,0.0,7232.0,7079.0,7020.0,7020.0,0.0,0.0,0.0
1.8973441123962402,0.029415659606456757,-0.03450316563248634,0.07967188954353333,-0.112285161812535,0.131122542695138,-0.3062124410532524,0.046151524026009076,-0.010014941619915936,-0.08900540845971683,0.0,0.0,0.0,7232.0,7079.0,7020.0,7020.0,0.0,0.0,0.0
1.9078922271728516,0.029424503445625305,-0.034508779644966125,0.07965119928121567,-0.13950461100735417,0.16291715440229748,-0.3804590146560295,0.04610620658768103,-0.010293811743038712,-0.08912497165871215,0.0,0.0,0.0,7506.0,7341.0,7277.0,7277.0,0.0,0.0,0.0
1.9177703857421875,0.02941572293639183,-0.03448789566755295,0.07966180145740509,-0.23100431556727732,0.2698008113800376,-0.630050102908257,0.046025232717295306,-0.010162825140581299,-0.08895936908646279,0.0,0.0,0.0,7232.0,7079.0,7020.0,7020.0,0.0,0.0,0.0
1.9279706478118896,0.02941763773560524,-0.034505538642406464,0.07965625077486038,-0.1370964777277411,0.16014012575471948,-0.37395416283963884,0.04612170363147709,-0.010239027650874684,-0.08910171481227587,0.0,0.0,0.0,7966.0,7781.0,7709.0,7709.0,0.0,0.0,0.0
1.9379675388336182,0.029416311532258987,-0.03451022505760193,0.07966464012861252,-0.1317325143403268,0.1538841899987613,-0.359348974442381,0.04621605023628352,-0.010072320043357659,-0.0889908449518867,0.0,0.0,0.0,8108.0,7917.0,7843.0,7843.0,0.0,0.0,0.0
1.9472298622131348,0.029416527599096298,-0.03450385853648186,0.07967085391283035,-0.09533090301535457,0.111363908174971,-0.2600649621725801,0.04600857815246737,-0.01030441464527211,-0.0890172402084052,0.0,0.0,0.0,7029.0,6885.0,6830.0,6830.0,0.0,0.0,0.0
1.9585065841674805,0.02941286563873291,-0.034514788538217545,0.07966352999210358,-0.0024988119481065617,0.0029185206020012865,-0.006816946045119089,0.046357172806184246,-0.01001779986501444,-0.0890120038783392,0.0,0.0,0.0,7894.0,7712.0,7642.0,7642.0,0.0,0.0,0.0
1.9685637950897217,0.029400981962680817,-0.03449053689837456,0.07965415716171265,-0.117085563884933,0.13666473890387612,-0.3194039811018403,0.046107140776319853,-0.010143756234759603,-0.08904337346788488,0.0,0.0,0.0,7894.0,7712.0,7642.0,7642.0,0.0,0.0,0.0
1.978952169418335,0.029400914907455444,-0.0344957672059536,0.07965248823165894,-0.08412434282271158,0.0981055122123706,-0.22946217019367782,0.04627710160061519,-0.010001995814833445,-0.08894735273749028,0.0,0.0,0.0,7207.0,7055.0,6996.0,6996.0,0.0,0.0,0.0
1.9891045093536377,0.029406078159809113,-0.03450681269168854,0.07965539395809174,-0.10874682923512054,0.12670206321744248,-0.296587297951858,0.04615824407052142,-0.0101456474315892,-0.08909319983838156,0.0,0.0,0.0,7942.0,7758.0,7687.0,7687.0,0.0,0.0,0.0
1.9990763664245605,0.02937247045338154,-0.03463349491357803,0.07900893688201904,-0.11028365626898018,0.12830970491256297,-0.30092531068232287,-0.0043845489491350954,-0.033383588611851145,-0.06913895421102867,0.0,0.0,0.0,8225.0,8029.0,7953.0,7953.0,0.0,0.0,0.0
2.0091683864593506,0.02942032366991043,-0.034501902759075165,0.07966341078281403,-0.07533028021456484,0.08748625548968594,-0.20576992914840977,0.046068044494671105,-0.010188540300444408,-0.08901137983245128,0.0,0.0,0.0,8225.0,8029.0,7953.0,7953.0,0.0,0.0,0.0
2.0194785594940186,0.029418978840112686,-0.034487102180719376,0.07966555655002594,-0.06165100222902559,0.07152272253367496,-0.16845682326656355,0.046093307801344,-0.010243873226480934,-0.08902334764306864,0.0,0.0,0.0,7358.0,7199.0,7137.0,7137.0,0.0,0.0,0.0
2.02958607673645,0.029426343739032745,-0.03451351076364517,0.07964342832565308,-0.07465626489771805,0.08657140061158154,-0.20391223200591363,0.04617503970881963,-0.010234132513888671,-0.08900132453754547,0.0,0.0,0.0,8013.0,7826.0,7754.0,7754.0,0.0,0.0,0.0
2.0396454334259033,0.0294395312666893,-0.03449970856308937,0.07964498549699783,-0.06342553835417337,0.07351570332041403,-0.17319398590178844,0.046255931549650936,-0.010117285092019606,-0.08899177415185087,0.0,0.0,0.0,7555.0,7388.0,7323.0,7323.0,0.0,0.0,0.0
2.049832582473755,0.02941204607486725,-0.0345010869204998,0.07965271174907684,-0.0536710981706377,0.06218169120350257,-0.14652420487073378,0.046174938374631144,-0.010212262696936774,-0.08903431199283168,0.0,0.0,0.0,7555.0,7388.0,7323.0,7323.0,0.0,0.0,0.0
2.0602335929870605,0.029401883482933044,-0.034510109573602676,0.0796845480799675,-0.05240407166793397,0.060669182789364604,-0.14297964943181504,0.04610133782156898,-0.010086739097247593,-0.08901316435754211,0.0,0.0,0.0,7432.0,7270.0,7207.0,7207.0,0.0,0.0,0.0
2.070517063140869,0.02941790595650673,-0.034504249691963196,0.07965853810310364,-0.06261601698055058,0.07241725959022915,-0.17068651478721034,0.046174544296098796,-0.010120226584408788,-0.08895245367767943,0.0,0.0,0.0,7432.0,7270.0,7207.0,7207.0,0.0,0.0,0.0
2.0806243419647217,0.029372407123446465,-0.034637290984392166,0.07900425046682358,-0.06713094583603843,0.07750441445040665,-0.18300448669861988,-0.0043845489491350954,-0.033383588611851145,-0.06913895421102867,0.0,0.0,0.0,7432.0,7270.0,7207.0,7207.0,0.0,0.0,0.0
2.0909225940704346,0.02941862866282463,-0.034492772072553635,0.07964606583118439,-0.054572650964601,0.06285305940362025,-0.14893472587023104,0.0461856168126941,-0.010080896322320542,-0.0889443762044836,0.0,0.0,0.0,7358.0,7199.0,7137.0,7137.0,0.0,0.0,0.0
2.1010732650756836,0.029424063861370087,-0.03450750932097435,0.07966975122690201,-0.06541469772799369,0.07522344675631819,-0.1785353319560599,0.046038346027665995,-0.010237298442531151,-0.08904207255424572,0.0,0.0,0.0,7282.0,7128.0,7067.0,7067.0,0.0,0.0,0.0
2.111022710800171,0.029415201395750046,-0.0344969742000103,0.0796683132648468,-0.05417788514202232,0.062257246140852575,-0.14769703498116588,0.04601041665734232,-0.010380223248262863,-0.08903385567191668,0.0,0.0,0.0,7942.0,7758.0,7687.0,7687.0,0.0,0.0,0.0
2.121429681777954,0.02941184863448143,-0.03451092913746834,0.07967139780521393,-0.033723728330939395,0.03871684891814056,-0.09180718126751646,0.04609342632403885,-0.010213840262368708,-0.08900712520679004,0.0,0.0,0.0,8037.0,7849.0,7776.0,7776.0,0.0,0.0,0.0
2.131833553314209,0.029431801289319992,-0.03449717164039612,0.07965724170207977,-0.04532633828763314,0.05198269910876862,-0.12320910898326798,0.04613903091022715,-0.010006238634901733,-0.08897572898746127,0.0,0.0,0.0,7750.0,7575.0,7506.0,7506.0,0.0,0.0,0.0
2.1418583393096924,0.029412295669317245,-0.034494832158088684,0.07966428995132446,-0.053545900258666755,0.06135168336142996,-0.14533994388930083,0.046225865188108034,-0.010097452889627965,-0.08905071613205316,0.0,0.0,0.0,7629.0,7458.0,7392.0,7392.0,0.0,0.0,0.0
2.15107798576355,0.029428258538246155,-0.03449413552880287,0.0796627551317215,-0.03874762807149015,0.04435637906456747,-0.10500640437487821,0.04611366984651334,-0.010366521691252684,-0.08915274731531704,0.0,0.0,0.0,7629.0,7458.0,7392.0,7392.0,0.0,0.0,0.0
2.1611454486846924,0.029416218400001526,-0.034506503492593765,0.07966813445091248,-0.0021392986822472,0.0024449321385667587,-0.005785075984629221,0.04616065259632751,-0.01016218336932807,-0.08901358399958446,0.0,0.0,0.0,7774.0,7598.0,7529.0,7529.0,0.0,0.0,0.0
2.1712822914123535,0.029413491487503052,-0.03451131656765938,0.07967013865709305,-0.0011000396185836302,0.001252362939229034,-0.002964082829240673,0.046031975937004206,-0.010253443005373267,-0.08908903688480223,0.0,0.0,0.0,7823.0,7644.0,7574.0,7574.0,0.0,0.0,0.0
2.181396722793579,0.029404595494270325,-0.03451906517148018,0.0796804279088974,-0.0008212616081497952,0.0009281950998014361,-0.002199640290473003,0.04611765563066405,-0.010304198649977035,-0.08898838715204577,0.0,0.0,0.0,7823.0,7644.0,7574.0,7574.0,0.0,0.0,0.0
2.1914968490600586,0.029403530061244965,-0.03449419140815735,0.07967425137758255,-0.001168571301944312,0.0013072621761671679,-0.0031013736396996302,0.04610455680170776,-0.010288260187803867,-0.08905071032029015,0.0,0.0,0.0,7750.0,7575.0,7506.0,7506.0,0.0,0.0,0.0
2.2016170024871826,0.02941029891371727,-0.034502189606428146,0.07964678108692169,-0.0007667660891716531,0.0008481553372037658,-0.0020130327697379284,0.04621994740839915,-0.010114583716499228,-0.08904730429398212,0.0,0.0,0.0,7604.0,7435.0,7369.0,7369.0,0.0,0.0,0.0
2.2117743492126465,0.029404766857624054,-0.0345088467001915,0.07965727150440216,-0.00047228282392374073,0.0005151881956095885,-0.001225455687385012,0.04614683453572635,-0.010093126514127164,-0.08912080258407137,0.0,0.0,0.0,9869.0,9606.0,9513.0,9513.0,0.0,0.0,0.0
2.2218518257141113,0.02942517027258873,-0.034503258764743805,0.07967118918895721,-0.00048034510855241524,0.0005145431368907586,-0.0012287686302657498,0.04605070366739214,-0.010222712114103243,-0.0889623666375923,0.0,0.0,0.0,9869.0,9606.0,9513.0,9513.0,0.0,0.0,0.0
2.231904983520508,0.02941262722015381,-0.03450290113687515,0.07967060804367065,-0.00046780790118330505,0.0004904499107203223,-0.0011749281157493723,0.04610917734537629,-0.01015886596368608,-0.0890214687640358,0.0,0.0,0.0,7482.0,7318.0,7254.0,7254.0,0.0,0.0,0.0
2.242009401321411,0.029426246881484985,-0.03449254110455513,0.07965200394392014,-0.00025223046885584406,0.00025747758255645337,-0.0006184138086861061,0.04620385438719052,-0.010114719684572187,-0.08911130948012168,0.0,0.0,0.0,7106.0,6959.0,6901.0,6901.0,0.0,0.0,0.0
2.2522506713867188,0.02940472960472107,-0.034492094069719315,0.07965008914470673,-0.00022278090060031514,0.0002189236144346524,-0.0005274519906277325,0.04615609439569428,-0.01033558419948092,-0.0890666986418363,0.0,0.0,0.0,6874.0,6738.0,6685.0,6685.0,0.0,0.0,0.0
2.26225209236145,0.029424648731946945,-0.03449448198080063,0.07964668422937393,-0.00036083528698761314,0.0003308551015030573,-0.0008019038903358284,0.04625688039983504,-0.010117494089090203,-0.0889258348106772,0.0,0.0,0.0,6874.0,6738.0,6685.0,6685.0,0.0,0.0,0.0
2.272390127182007,0.029407493770122528,-0.034507762640714645,0.0796656534075737,-0.00011229914057210366,8.671123369522008e-05,-0.00021462124083076464,0.046028708341400666,-0.010230412849531564,-0.08903700407544564,0.0,0.0,0.0,7106.0,6959.0,6901.0,6901.0,0.0,0.0,0.0
2.2825584411621094,0.029406379908323288,-0.034508731216192245,0.07964344322681427,-5.219436570992855e-05,1.5023337029964744e-05,-4.732978776404756e-05,0.04615862693486676,-0.010129373268575041,-0.08902103908271877,0.0,0.0,0.0,7232.0,7079.0,7020.0,7020.0,0.0,0.0,0.0
2.292710781097412,0.02942347154021263,-0.03449728712439537,0.07964449375867844,2.2655614678744582e-06,-7.757381486879256e-05,0.00015926688918153285,0.04614195746145032,-0.010183137255608756,-0.08904216556194956,0.0,0.0,0.0,7080.0,6934.0,6878.0,6878.0,0.0,0.0,0.0
2.3027572631835938,0.02934887818992138,-0.034614697098731995,0.07900573313236237,7.845326257274487e-05,-0.00017951560942757356,0.00034650798798841745,-0.0043845489491350954,-0.033383588611851145,-0.06913895421102867,0.0,0.0,0.0,7003.0,6861.0,6806.0,6806.0,0.0,0.0,0.0
2.3129220008850098,0.029414892196655273,-0.03450983762741089,0.07965695858001709,0.00013038381620803042,-0.00024873936810215454,0.0004353759994483869,0.04603038705211433,-0.010171309974205869,-0.0889579101268312,0.0,0.0,0.0,7106.0,6959.0,6901.0,6901.0,0.0,0.0,0.0
2.3229637145996094,0.029433809220790863,-0.03449716046452522,0.07964067161083221,0.00023878209533009185,-0.0004083747471607703,0.0007350677924871605,0.04608088334960385,-0.010111964473007835,-0.08904827885317523,0.0,0.0,0.0,6952.0,6812.0,6758.0,6758.0,0.0,0.0,0.0
2.333132028579712,0.029414653778076172,-0.03450006619095802,0.07964587211608887,0.00026742063366968057,-0.0004184125279331992,0.0008082351976292033,0.046036475133053506,-0.010188585839399005,-0.08906411852879816,0.0,0.0,0.0,6638.0,6513.0,6465.0,6465.0,0.0,0.0,0.0
2.3432910442352295,0.029407378286123276,-0.03450793772935867,0.07965803146362305,0.0002804329988782931,-0.0004169313739874629,0.0008424254851181646,0.046189203696747054,-0.010091098301774157,-0.08900468433025549,0.0,0.0,0.0,6638.0,6513.0,6465.0,6465.0,0.0,0.0,0.0
2.3534998893737793,0.029417525976896286,-0.0345018208026886,0.07965732365846634,0.0003390131012923065,-0.0004886489335942075,0.001018664394130059,0.04620062825598418,-0.010121247545565178,-0.08906019408052486,0.0,0.0,0.0,7482.0,7318.0,7254.0,7254.0,0.0,0.0,0.0
2.3635761737823486,0.029397930949926376,-0.034495919942855835,0.07966148853302002,0.0007861554324616018,-0.001107099634792696,0.0023641802021507475,0.04603628034588103,-0.010160434029840636,-0.08905286530849804,0.0,0.0,0.0,6822.0,6688.0,6637.0,6637.0,0.0,0.0,0.0
2.3737409114837646,0.029422573745250702,-0.03449626266956329,0.07965154945850372,0.0004332543287566459,-0.0005983025288921274,0.0013024965119625205,0.04611975910455508,-0.010269549953037454,-0.08900987720127451,0.0,0.0,0.0,6532.0,6412.0,6366.0,6366.0,0.0,0.0,0.0
2.383864164352417,0.029425103217363358,-0.0345110222697258,0.079657644033432,0.0006032211698014716,-0.0008179123977852385,0.0018059986605702552,0.046023357826025506,-0.010252164119085791,-0.08898745598629011,0.0,0.0,0.0,5843.0,5756.0,5728.0,5728.0,0.0,0.0,0.0
2.393986463546753,0.02941935881972313,-0.03450228273868561,0.07965133339166641,0.0006041627803240393,-0.0008065207071170508,0.0017990602048666828,0.046276487882136334,-0.010083863489287371,-0.08902026240466308,0.0,0.0,0.0,5843.0,5756.0,5728.0,5728.0,0.0,0.0,0.0
2.4041433334350586,0.02938937395811081,-0.03451157361268997,0.07966239750385284,0.0005779387907174389,-0.0007642256778969092,0.0017187032440506055,0.04605738061821146,-0.010227558208632703,-0.08900218908086278,0.0,0.0,0.0,6638.0,6513.0,6465.0,6465.0,0.0,0.0,0.0
2.414292335510254,0.02940792217850685,-0.03449104726314545,0.07966268062591553,0.0006231709191605877,-0.0008197730302385335,0.001858075127314085,0.046065734376925585,-0.010037725439414837,-0.0889492424082934,0.0,0.0,0.0,6638.0,6513.0,6465.0,6465.0,0.0,0.0,0.0
2.4244205951690674,0.029401488602161407,-0.03452693298459053,0.07966876029968262,0.0007068189757853049,-0.000925792829493782,0.0021128591877895256,0.04606892473810197,-0.01015722066550962,-0.08898116263572045,0.0,0.0,0.0,6289.0,6180.0,6140.0,6140.0,0.0,0.0,0.0
