T,input Acc,input Wb1,input Wb2,input Wb3,Px,Py,Pz,Vx,Vy,Vz,Roll,Pitch,Yaw,R_rate,P_rate,Y_rate,Wb1,Wb2,Wb3
0,0.0,0.0,0.0,0.0,0.0,0.0,0.4,0.0,0.0,0.0,0.0,0.0,0.0,0.0,0.0,0.0,0.0,0.0,0.0
0.0002243518829345703,9.1871624840796,0.012883134188703996,-0.024802772587161376,-0.00012406887566482924,0.0,0.0,0.4,-0.12458984926342964,-0.06327289715409279,0.5935812420397998,0.006326533349483328,-0.012459369017548221,0.0,0.0,0.0,0.0,0.0,0.0,0.0
0.005623817443847656,9.613737912088222,0.00014007125605227925,-0.0002746768252812847,-8.881675173135468e-07,0.0,0.0,0.4,-0.0006908821577229493,-0.0003507592164996065,0.8075146386144366,6.099799025613171e-05,-0.00012014643519798825,0.0,0.0,0.0,0.0,0.0,0.0,0.0
0.01102900505065918,9.606397749142916,0.0007520940163290648,-0.0014763813143535457,-4.053274965773003e-06,0.0,0.0,0.4,-0.003301015954306981,-0.001676097755207899,0.8080783160800152,0.0003635048367946775,-0.0007159288860476525,0.0,0.0,0.0,0.0,0.0,0.0,0.0
0.016409635543823242,9.573557578846243,0.00231658409875814,-0.004545477390476832,-8.65573907988905e-06,0.0,0.0,0.4,-0.008080161534745217,-0.004103131277638622,0.804932961424544,0.0011391523602714134,-0.0022434206813813705,0.0,0.0,0.0,0.0,0.0,0.0,0.0
0.02172231674194336,9.506440389093735,0.005202404569112353,-0.010208232875714537,-1.2651732393695305e-05,0.0,0.0,0.4,-0.01448986216714723,-0.007358458068765303,0.7989692461876818,0.0025725475673281386,-0.005066056028137758,0.0,0.0,0.0,0.0,0.0,0.0,0.0
0.027105093002319336,9.401194926388307,0.009577417930668328,-0.018802923146595235,-1.629796107591322e-05,0.0,0.0,0.4,-0.022063317230215793,-0.011204804364460225,0.790962570465482,0.004748391471664268,-0.009350588226471014,0.0,0.0,0.0,0.0,0.0,0.0,0.0
0.03239250183105469,9.25908202341078,0.01540544087472256,-0.03025987827901303,-2.069896830234228e-05,0.0,0.0,0.4,-0.030400780825533224,-0.015439129177322257,0.781578967571249,0.007647771326872664,-0.01505980117037543,0.0,0.0,0.0,0.0,0.0,0.0,0.0
0.037698984146118164,9.084926748458354,0.022508627090583242,-0.044221726620303214,-2.59813483970859e-05,0.0,0.0,0.4,-0.03916516474517452,-0.019890352094826497,0.7713824028828556,0.011179319891502289,-0.02201380954007757,0.0,0.0,0.0,0.0,0.0,0.0,0.0
0.04307746887207031,8.885833138750215,0.030612713137623815,-0.06014950932120962,-3.288905529641791e-05,0.0,0.0,0.4,-0.04807757141731235,-0.02441685337810695,0.7608424434798845,0.015205102541495806,-0.02994104253528897,0.0,0.0,0.0,0.0,0.0,0.0,0.0
0.04835939407348633,8.670141402302288,0.03939017618080241,-0.07740734820502673,-4.16748031518826e-05,0.0,0.0,0.4,-0.05691175524564733,-0.028903589546464038,0.750342510780426,0.019561622002991115,-0.0385196350744083,0.0,0.0,0.0,0.0,0.0,0.0,0.0
0.05364847183227539,8.446605979075137,0.04849595552601854,-0.09531762658523904,-5.081391225622881e-05,0.0,0.0,0.4,-0.06548747810949188,-0.033258997946396515,0.7401889953848028,0.02407638091588804,-0.047409927445597314,0.0,0.0,0.0,0.0,0.0,0.0,0.0
0.05900716781616211,8.223768294173443,0.05759301870881715,-0.1132126634474211,-5.8828081179074517e-05,0.0,0.0,0.4,-0.073665662510914,-0.03741252559628257,0.7306198184884631,0.02858050325741631,-0.056279306239205004,0.0,0.0,0.0,0.0,0.0,0.0,0.0
0.06435585021972656,8.009499386023268,0.0663678519676253,-0.13047598862623483,-6.5927188825304e-05,0.0,0.0,0.4,-0.0813440832198137,-0.04131214219872819,0.7218127730522362,0.03291792849923943,-0.06482048931892381,0.0,0.0,0.0,0.0,0.0,0.0,0.0
0.06971955299377441,7.810686671784725,0.07454170894124405,-0.14656224573089316,-7.292648535808521e-05,0.0,0.0,0.4,-0.0884517293729573,-0.044921775842956826,0.7138934081401176,0.03695177239012015,-0.07276403876643542,0.0,0.0,0.0,0.0,0.0,0.0,0.0
0.0750281810760498,7.633040824316462,0.08188708012566291,-0.16101831133531938,-7.959141612291459e-05,0.0,0.0,0.4,-0.09494442986720975,-0.04821922598222925,0.706942316142165,0.04056838737074932,-0.07988611142876131,0.0,0.0,0.0,0.0,0.0,0.0,0.0
0.08031129837036133,7.481001944113515,0.08822878916384928,-0.17349420403344612,-8.417495664991204e-05,0.0,0.0,0.4,-0.10080070145795295,-0.051193646146210234,0.7010022885787405,0.04367934690136312,-0.08601228647237967,0.0,0.0,0.0,0.0,0.0,0.0,0.0
0.08566498756408691,7.357725014398856,0.09343941228512122,-0.18374385697819773,-8.611024517492805e-05,0.0,0.0,0.4,-0.10601789190565891,-0.05384341511674065,0.6960849297919462,0.0462216527461003,-0.09101838747481826,0.0,0.0,0.0,0.0,0.0,0.0,0.0
0.09098291397094727,7.265128130793277,0.09744123823271944,-0.19161457160688208,-8.850521036632278e-05,0.0,0.0,0.4,-0.11060805178717285,-0.05617449981288175,0.6921770580027394,0.048156709233341366,-0.09482879961415726,0.0,0.0,0.0,0.0,0.0,0.0,0.0
0.0962667465209961,7.203986465691694,0.10019935117048558,-0.19703564011979227,-9.295889837717923e-05,0.0,0.0,0.4,-0.11459387424755936,-0.05819859536822643,0.6892461923693994,0.049468694222482415,-0.09741265078363379,0.0,0.0,0.0,0.0,0.0,0.0,0.0
0.10166525840759277,7.174055853898604,0.10171806908734245,-0.20002484051058084,-9.87025751308029e-05,0.0,0.0,0.4,-0.11800733885672224,-0.05993188913371998,0.6872446848727554,0.05016220366013859,-0.09877901828185805,0.0,0.0,0.0,0.0,0.0,0.0,0.0
0.1070261001586914,7.174214786203384,0.1020415215190205,-0.20067185521378653,-0.00010494185537384091,0.0,0.0,0.4,-0.12088749290160818,-0.061394036705080576,0.6861135999824716,0.05025939781924836,-0.09897151120440457,0.0,0.0,0.0,0.0,0.0,0.0,0.0
0.1123049259185791,7.202615766879225,0.10124373065747434,-0.19911140665223107,-0.0001114680980366613,0.0,0.0,0.4,-0.12327674923491429,-0.0626066813859601,0.685786390414409,0.049796923052011145,-0.09806228425381147,0.0,0.0,0.0,0.0,0.0,0.0,0.0
0.11767220497131348,7.256838138872349,0.09941939966885821,-0.1955230127532346,-0.00011736908073848203,0.0,0.0,0.4,-0.12521917567866042,-0.06359244613902058,0.6861918221263271,0.04882286266822562,-0.09614586375335997,0.0,0.0,0.0,0.0,0.0,0.0,0.0
0.12306404113769531,7.334035097462568,0.09669228566808426,-0.19011495124788855,-0.00013464944892713405,0.0,0.0,0.4,-0.12676069749530838,-0.06437504555766778,0.6872559471857014,0.047393278176109374,-0.0933336653694057,0.0,0.0,0.0,0.0,0.0,0.0,0.0
0.1283571720123291,7.43107108189644,0.09319107510736402,-0.1831196808449927,-0.00020378855188436681,0.0,0.0,0.4,-0.12794824172608757,-0.06497904399232038,0.6889039746686622,0.045568923475470494,-0.08974909006173319,0.0,0.0,0.0,0.0,0.0,0.0,0.0
0.1337137222290039,7.54465207873044,0.08902854749610087,-0.17480840856013233,-0.00034069225610892413,0.0,0.0,0.4,-0.12882724804938228,-0.06542721521912348,0.6910636733333093,0.04341509561717967,-0.08552130794334584,0.0,0.0,0.0,0.0,0.0,0.0,0.0
0.13909506797790527,7.671444059708076,0.08433842135355686,-0.16545393116907997,-0.0004919911336563044,0.0,0.0,0.4,-0.12944039095228205,-0.06573909643093213,0.693667420931278,0.041000751036699964,-0.080779803162987,0.0,0.0,0.0,0.0,0.0,0.0,0.0
0.1443769931793213,7.808171851945628,0.07926340937742375,-0.1553162980263096,-0.0005924094443519963,0.0,0.0,0.4,-0.12982663273948636,-0.06593364983605231,0.6966515676761907,0.038393426612799174,-0.0756518181932459,0.0,0.0,0.0,0.0,0.0,0.0,0.0
0.14969706535339355,7.9516979043411435,0.07392582069165754,-0.14465271630502255,-0.0006498916599316281,0.0,0.0,0.4,-0.1300218271360844,-0.06603067859966558,0.6999561027438003,0.03565465928929297,-0.0702607317128117,0.0,0.0,0.0,0.0,0.0,0.0,0.0
0.15506696701049805,8.099084099073908,0.06843811961557231,-0.1336962381324814,-0.0007178744518717006,0.0,0.0,0.4,-0.13006017937363018,-0.0660487043945381,0.7035255085818332,0.032840867906977496,-0.06472278335022022,0.0,0.0,0.0,0.0,0.0,0.0,0.0
0.1603527069091797,8.247640973320044,0.06290369761890807,-0.12265844730734946,-0.0007970144566373031,0.0,0.0,0.4,-0.12997274276642226,-0.0660026543408582,0.7073100239990211,0.03000574584283112,-0.059143464507998865,0.0,0.0,0.0,0.0,0.0,0.0,0.0
0.16571831703186035,8.394961628147373,0.057421569963690314,-0.11172471437641862,-0.0008497663696424312,0.0,0.0,0.4,-0.12978657008769431,-0.06590470552815256,0.711265058945271,0.02719816303551458,-0.05361669718693486,0.0,0.0,0.0,0.0,0.0,0.0,0.0
0.17106223106384277,8.53894520971105,0.05205683269693009,-0.10104208005107201,-0.0008420740466310828,0.0,0.0,0.4,-0.1295254203023007,-0.06576569859338777,0.7153516708789001,0.024460053321086087,-0.04822471578064414,0.0,0.0,0.0,0.0,0.0,0.0,0.0
0.17636728286743164,8.677808498647304,0.04683482046467019,-0.0907483760624516,-0.0007478457958756814,0.0,0.0,0.4,-0.12920995866857257,-0.06559604627333082,0.7195365119239523,0.021826434081859893,-0.04303761272314712,0.0,0.0,0.0,0.0,0.0,0.0,0.0
0.18175745010375977,8.810078781013859,0.04182003081732978,-0.08095423527047553,-0.000593635139205837,0.0,0.0,0.4,-0.12885880113438986,-0.06540735407266153,0.7237886209160662,0.019325388314885093,-0.03811380607950264,0.0,0.0,0.0,0.0,0.0,0.0,0.0
0.18704986572265625,8.93458351731929,0.03710917617787892,-0.07174445742938654,-0.00043667113775168654,0.0,0.0,0.4,-0.12848767288792742,-0.06520946405324904,0.7280808043286313,0.01697930438470444,-0.03349987924520704,0.0,0.0,0.0,0.0,0.0,0.0,0.0
0.19237947463989258,9.05043726456297,0.032760911913617186,-0.06321545893412801,-0.00031152624480357304,0.0,0.0,0.4,-0.12810740033598847,-0.06500913446095,0.7323910835608346,0.014805921292788042,-0.02923025752152555,0.0,0.0,0.0,0.0,0.0,0.0,0.0
0.19772911071777344,9.157022189673022,0.02880402687199854,-0.05541272908345762,-0.00025640304697399446,0.0,0.0,0.4,-0.1277271487196618,-0.06481205654236663,0.7367010303335878,0.012817889712184618,-0.02532829024362575,0.0,0.0,0.0,0.0,0.0,0.0,0.0
0.20313692092895508,9.253967760374595,0.02526579710057232,-0.04833862380186648,-0.0003077747545436098,0.0,0.0,0.4,-0.1273565809172818,-0.0646228112271797,0.7409959616629137,0.011023105685913076,-0.02180753033320833,0.0,0.0,0.0,0.0,0.0,0.0,0.0
0.20841574668884277,9.341123238375555,0.022157487736165365,-0.04201383231997077,-0.00044320649780241927,0.0,0.0,0.4,-0.12700278029567724,-0.06444510568872783,0.7452636192258459,0.009425676278111082,-0.018672622351047965,0.0,0.0,0.0,0.0,0.0,0.0,0.0
0.21377134323120117,9.418529479330918,0.01945173024366695,-0.036451073605734595,-0.0005746807411901504,0.0,0.0,0.4,-0.1266684925819665,-0.06427903835668727,0.7494939333994617,0.00802555454012068,-0.015920235258674892,0.0,0.0,0.0,0.0,0.0,0.0,0.0
0.21916866302490234,9.4863945111962,0.01709440517370541,-0.03162608153063564,-0.0006388706936019697,0.0,0.0,0.4,-0.12635416334468372,-0.06412342144118104,0.7536803080485205,0.006817963899874018,-0.013540287062269257,0.0,0.0,0.0,0.0,0.0,0.0,0.0
0.22452688217163086,9.54506596366893,0.015034559471688106,-0.02749690843877934,-0.0006761927166639679,0.0,0.0,0.4,-0.12606203936495788,-0.0639830714365055,0.7578180400672357,0.005794841871438612,-0.011517496303737395,0.0,0.0,0.0,0.0,0.0,0.0,0.0
0.22985076904296875,9.594998430606903,0.013292897384896488,-0.024018013989521796,-0.0007807029079614453,0.0,0.0,0.4,-0.12579614780041307,-0.06386556464138188,0.7619017610115922,0.0049470875699463195,-0.009832714074767972,0.0,0.0,0.0,0.0,0.0,0.0,0.0
0.23525190353393555,9.636725520203372,0.011945686606366813,-0.021137118273776664,-0.0009979823437956787,0.0,0.0,0.4,-0.12555829607047886,-0.06377428238392288,0.7659266990751306,0.004265404262121912,-0.008463737542286732,0.0,0.0,0.0,0.0,0.0,0.0,0.0
0.24053549766540527,9.670845059335218,0.01101443125262073,-0.018824340806726906,-0.0013083665453598509,0.0,0.0,0.4,-0.12534844031433712,-0.06370928519534122,0.7698923480599149,0.0037397778864915977,-0.007386134437289369,0.0,0.0,0.0,0.0,0.0,0.0,0.0
0.245896577835083,9.698001854603808,0.010486115155263181,-0.017043045822977016,-0.0016670779782154317,0.0,0.0,0.4,-0.12516591034189686,-0.06367061660646421,0.7737999783066719,0.0033590535715899024,-0.006573956622356454,0.0,0.0,0.0,0.0,0.0,0.0,0.0
0.25125813484191895,9.718864492780087,0.010351094893695897,-0.015738367454968434,-0.002030003315210224,0.0,0.0,0.4,-0.1250092525405502,-0.06365746559902638,0.7776491221920843,0.003110939656030235,-0.0060003368090279195,0.0,0.0,0.0,0.0,0.0,0.0,0.0
0.2565793991088867,9.73411389127957,0.010587275754825995,-0.014878922559866194,-0.0023827611654140242,0.0,0.0,0.4,-0.12487757578112176,-0.06366746336450482,0.7814416466556542,0.0029821328392184037,-0.005638282826069923,0.0,0.0,0.0,0.0,0.0,0.0,0.0
0.2619132995605469,9.74443683271943,0.01117071650601567,-0.014447523545535476,-0.002736538874394205,0.0,0.0,0.4,-0.12476981917915306,-0.06369884125655899,0.7851831391491799,0.002958789511587356,-0.005461228377489646,0.0,0.0,0.0,0.0,0.0,0.0,0.0
0.2672278881072998,9.750509282911233,0.01210783375897892,-0.014430920689607833,-0.003102536017772219,0.0,0.0,0.4,-0.1246851234900242,-0.06375044730326428,0.7888774864988155,0.0030270371592142843,-0.005443565926341247,0.0,0.0,0.0,0.0,0.0,0.0,0.0
0.2725341320037842,9.75298174639186,0.013418008832607768,-0.01478459084015319,-0.0034911138022508076,0.0,0.0,0.4,-0.12462247332363055,-0.0638203973149181,0.7925269845390548,0.0031732385731366103,-0.0055609984880660565,0.0,0.0,0.0,0.0,0.0,0.0,0.0
0.27788519859313965,9.75247595664014,0.01503164597918405,-0.01544190420341854,-0.0038990057751209046,0.0,0.0,0.4,-0.12457913846378879,-0.06390625093034874,0.7961367939185482,0.003384172317038287,-0.005790503579779356,0.0,0.0,0.0,0.0,0.0,0.0,0.0
0.2831881046295166,9.749573283097288,0.016815473346606238,-0.016354330539880294,-0.004304577533713276,0.0,0.0,0.4,-0.12455313329542725,-0.06400634847232672,0.7997109023178739,0.0036473101687562667,-0.006110566323293368,0.0,0.0,0.0,0.0,0.0,0.0,0.0
0.28859400749206543,9.744798332135924,0.018684690478805607,-0.017460917372054113,-0.004687515524762667,0.0,0.0,0.4,-0.12454377803859684,-0.06411866667755609,0.8032487656747165,0.003950871998180084,-0.006501517185633606,0.0,0.0,0.0,0.0,0.0,0.0,0.0
0.29398536682128906,9.738614107946407,0.020639055294633044,-0.01867980118400736,-0.005036565939062478,0.0,0.0,0.4,-0.12454998939030973,-0.06423938119876593,0.8067497176926254,0.004283636702199375,-0.006945681334464816,0.0,0.0,0.0,0.0,0.0,0.0,0.0
0.2993495464324951,9.73142112856053,0.02271606696993258,-0.01994029865485288,-0.005364930237272214,0.0,0.0,0.4,-0.12457060848142246,-0.06436512316221726,0.8102138101526839,0.004634935858936734,-0.007427467927945297,0.0,0.0,0.0,0.0,0.0,0.0,0.0
0.3046588897705078,9.723555207943514,0.02490063998427764,-0.02120655694986997,-0.005693631266072209,0.0,0.0,0.4,-0.12460451285874566,-0.06449349994213913,0.8136391309519314,0.004994857221929922,-0.007933261022409635,0.0,0.0,0.0,0.0,0.0,0.0,0.0
0.3100159168243408,9.71528715833425,0.02710943895664567,-0.022475141617154894,-0.005996408721930338,0.0,0.0,0.4,-0.12464803987314574,-0.06462229282241855,0.8170220667387933,0.0053546481505519754,-0.008450749243394466,0.0,0.0,0.0,0.0,0.0,0.0,0.0
0.3154158592224121,9.706834557348259,0.029219880868323306,-0.023732317942392625,-0.006220197196226976,0.0,0.0,0.4,-0.1246957843100863,-0.06474857514348364,0.8203616240854077,0.0057066407865894505,-0.008968452169907474,0.0,0.0,0.0,0.0,0.0,0.0,0.0
0.32078099250793457,9.698364581609072,0.031104581611468857,-0.024939287154239886,-0.006350382900571038,0.0,0.0,0.4,-0.12474550801565347,-0.06486862493220849,0.8236559494542344,0.006043783496110161,-0.009476196177581667,0.0,0.0,0.0,0.0,0.0,0.0,0.0
0.3261377811431885,9.689995533450496,0.032649211089791526,-0.026085710800794287,-0.0064016585540654656,0.0,0.0,0.4,-0.1247967398633408,-0.06497975410754768,0.8269008881835409,0.006359710073778785,-0.009965488672437484,0.0,0.0,0.0,0.0,0.0,0.0,0.0
0.33149123191833496,9.681808989296142,0.03383011541697305,-0.027158099933614094,-0.006406667195678679,0.0,0.0,0.4,-0.12484927689947073,-0.0650815849986368,0.8300947031921562,0.006649148187632645,-0.010429774158434192,0.0,0.0,0.0,0.0,0.0,0.0,0.0
0.33678460121154785,9.674047066366954,0.03471858561425539,-0.028178948534653064,-0.006403690164527428,0.0,0.0,0.4,-0.1248957898361304,-0.06515847942445019,0.8332978315711644,0.006905427625829768,-0.010863076907536868,0.0,0.0,0.0,0.0,0.0,0.0,0.0
0.34217071533203125,9.667064974620429,0.03537650089393329,-0.029167214435209542,-0.006398433339811809,0.0,0.0,0.4,-0.12492935277631376,-0.06519759825314053,0.836553788598529,0.007120688192207985,-0.011259485186475434,0.0,0.0,0.0,0.0,0.0,0.0,0.0
0.3475351333618164,9.660935620353525,0.03586625424231533,-0.030010357679253936,-0.0063689909718662365,0.0,0.0,0.4,-0.12496041244685158,-0.06522133578646677,0.8397693507764128,0.007291472926456032,-0.011615774567924958,0.0,0.0,0.0,0.0,0.0,0.0,0.0
0.3529071807861328,9.655472494345407,0.0362056259018828,-0.030645703103828765,-0.006309149223579243,0.0,0.0,0.4,-0.1249982667551823,-0.06524858921819046,0.8428750538896211,0.007419760266973278,-0.011932107486698033,0.0,0.0,0.0,0.0,0.0,0.0,0.0
0.35827064514160156,9.650373585910769,0.036405902477309224,-0.031093782900263916,-0.006255338047416478,0.0,0.0,0.4,-0.12504279681087754,-0.06528020192156177,0.8458743206852668,0.0075109184158979,-0.012211057409870016,0.0,0.0,0.0,0.0,0.0,0.0,0.0
0.36367034912109375,9.64529895703996,0.03653333709919749,-0.03136544437567455,-0.0062394317283390325,0.0,0.0,0.4,-0.1250943756867885,-0.06531694235986307,0.8487628773060774,0.007571633850036452,-0.012456291325174132,0.0,0.0,0.0,0.0,0.0,0.0,0.0
0.3689877986907959,9.639984632104355,0.03663447243487167,-0.03148665397052124,-0.006255392515498551,0.0,0.0,0.4,-0.12515344802838074,-0.06535771310099114,0.8515438264219628,0.007608053093757314,-0.012671486957116104,0.0,0.0,0.0,0.0,0.0,0.0,0.0
0.3743562698364258,9.634248156812166,0.036719003203581575,-0.03150088380005789,-0.006268872081581225,0.0,0.0,0.4,-0.12521975646965441,-0.06540139299068098,0.8542263141826707,0.007625619893675117,-0.012860173286961655,0.0,0.0,0.0,0.0,0.0,0.0,0.0
0.3796730041503906,9.627964482653585,0.036791733955254174,-0.03145768110511821,-0.006251126527665825,0.0,0.0,0.4,-0.12529210671370036,-0.06544756909475163,0.8568117500153066,0.007628909780648255,-0.013025580524195723,0.0,0.0,0.0,0.0,0.0,0.0,0.0
0.385040283203125,9.621029379103353,0.03691411385224259,-0.031374582783208274,-0.006197981188279453,0.0,0.0,0.4,-0.1253692418430992,-0.06549517650832495,0.8592919301178488,0.007621506833436987,-0.01317057260387945,0.0,0.0,0.0,0.0,0.0,0.0,0.0
0.39040040969848633,9.613377524023887,0.03712946582178361,-0.03127680004639273,-0.006110926070741558,0.0,0.0,0.4,-0.12544920089743306,-0.06554269866671653,0.8616698188061455,0.0076061307069636855,-0.013297407047199018,0.0,0.0,0.0,0.0,0.0,0.0,0.0
0.39568185806274414,9.60497326636276,0.037440109226755044,-0.031201087854585453,-0.0060114701201020295,0.0,0.0,0.4,-0.12553077605196072,-0.06558966217710377,0.8639486181797016,0.00758473969490909,-0.01340794015358319,0.0,0.0,0.0,0.0,0.0,0.0,0.0
0.40099120140075684,9.59578064386879,0.03785764256079708,-0.03116509901893638,-0.005927890117613437,0.0,0.0,0.4,-0.1256142976685264,-0.06563620332187164,0.8661194631942981,0.007558837968555606,-0.013503893764696882,0.0,0.0,0.0,0.0,0.0,0.0,0.0
0.4063539505004883,9.585792981163774,0.038318528745476206,-0.031170032232530568,-0.0058390908935173095,0.0,0.0,0.4,-0.12569981308243017,-0.06568086240463836,0.8681851440072552,0.007529731880941917,-0.013586754637314348,0.0,0.0,0.0,0.0,0.0,0.0,0.0
0.41173458099365234,9.575048187404601,0.03872958780746857,-0.031180980622798303,-0.005706337900941011,0.0,0.0,0.4,-0.12578721446833632,-0.06572156261150015,0.8701571804122543,0.007498230679271458,-0.013657937965694105,0.0,0.0,0.0,0.0,0.0,0.0,0.0
0.4171128273010254,9.563591851663475,0.03904803679886614,-0.031170410894523846,-0.005523047453317337,0.0,0.0,0.4,-0.12587504185491583,-0.06575674024170684,0.8720323537010245,0.0074643536367781345,-0.013718669300059444,0.0,0.0,0.0,0.0,0.0,0.0,0.0
0.4224708080291748,9.551448417341968,0.039242901603083906,-0.03114518972258946,-0.005295670371424538,0.0,0.0,0.4,-0.12596090810751923,-0.06578390406846966,0.8737988303091897,0.007427394760556293,-0.013769678514181104,0.0,0.0,0.0,0.0,0.0,0.0,0.0
0.4278390407562256,9.538645216941273,0.03931642196324607,-0.03110347191406615,-0.005056253353917695,0.0,0.0,0.4,-0.12604429014948654,-0.06580240722872224,0.8754584075891771,0.007386265619109932,-0.013811495206986078,0.0,0.0,0.0,0.0,0.0,0.0,0.0
0.4331512451171875,9.525194617389925,0.039289479363711674,-0.030989339831766743,-0.004851691354255042,0.0,0.0,0.4,-0.12612630576989428,-0.06581454705404209,0.8770078466616027,0.00734018957012855,-0.013844801736461406,0.0,0.0,0.0,0.0,0.0,0.0,0.0
0.4385409355163574,9.511069014640263,0.03916166286445498,-0.03071147813010508,-0.004706333316302591,0.0,0.0,0.4,-0.12620787091440872,-0.06582306154621537,0.878431135674866,0.0072893018304757,-0.013870481827698617,0.0,0.0,0.0,0.0,0.0,0.0,0.0
0.4439055919647217,9.496258438221489,0.03892329142576209,-0.030266454050020593,-0.004611196024445467,0.0,0.0,0.4,-0.12628837637594728,-0.0658280584353698,0.8797325258654451,0.00723437505224876,-0.013889347320330503,0.0,0.0,0.0,0.0,0.0,0.0,0.0
0.4492149353027344,9.480816452235487,0.03855339805998696,-0.02972700258069909,-0.004539389531654503,0.0,0.0,0.4,-0.12636704584048963,-0.06582689384167183,0.8809326106944692,0.00717599384609851,-0.013902018808523441,0.0,0.0,0.0,0.0,0.0,0.0,0.0
0.45459508895874023,9.4648222814019,0.038048446494366665,-0.029144411430893045,-0.004476096086276478,0.0,0.0,0.4,-0.12644487167259302,-0.06581792929608739,0.8820336089654224,0.00711418469105962,-0.013909227750374448,0.0,0.0,0.0,0.0,0.0,0.0,0.0
0.4600205421447754,9.448337247854656,0.03741681481850865,-0.028531023469035986,-0.00442722188822998,0.0,0.0,0.4,-0.12652407532927828,-0.06580159717682256,0.8830237479365165,0.007048670014411086,-0.013912139904227263,0.0,0.0,0.0,0.0,0.0,0.0,0.0
0.46541261672973633,9.431431112972788,0.036700822366466414,-0.027875767458225145,-0.004418594631225297,0.0,0.0,0.4,-0.1266060835947984,-0.06577929499421337,0.8839084795624595,0.006979296723557597,-0.013912332190222856,0.0,0.0,0.0,0.0,0.0,0.0,0.0
0.47071266174316406,9.41417184042627,0.035922011176501914,-0.027245553551386383,-0.0044552711710511205,0.0,0.0,0.4,-0.12669150973622292,-0.0657505831496367,0.8846925158840083,0.00690616987734018,-0.013911445089569697,0.0,0.0,0.0,0.0,0.0,0.0,0.0
0.47607874870300293,9.396597606382864,0.035048098953750634,-0.02674556915898797,-0.00450212731999871,0.0,0.0,0.4,-0.1267812913998082,-0.06571359847724301,0.8853658869105365,0.006829454787948741,-0.013911002166829181,0.0,0.0,0.0,0.0,0.0,0.0,0.0
0.48143649101257324,9.378766588244055,0.03407169475312684,-0.026405349058641836,-0.004533924038014729,0.0,0.0,0.4,-0.12687538675499932,-0.06566926633803985,0.8859363041623558,0.006749322964952348,-0.013912340251321305,0.0,0.0,0.0,0.0,0.0,0.0,0.0
0.48673081398010254,9.3607931768825,0.03298044993217068,-0.026230453955790753,-0.004557891161406079,0.0,0.0,0.4,-0.12697297523883483,-0.0656200701290495,0.8864265173578642,0.006666137355230574,-0.01391651937188993,0.0,0.0,0.0,0.0,0.0,0.0,0.0
0.49209094047546387,9.34279590839894,0.03178494159148819,-0.02626269547098674,-0.004571970208655888,0.0,0.0,0.4,-0.1270744914407423,-0.06556640044501705,0.8868374612131742,0.006580608796223053,-0.013924322062415737,0.0,0.0,0.0,0.0,0.0,0.0,0.0
0.4974679946899414,9.324851520976393,0.030524156818078838,-0.02654594276178568,-0.004560931897019346,0.0,0.0,0.4,-0.12718078390751117,-0.06550731229565468,0.8871553728226793,0.006493492177109484,-0.013936374594735148,0.0,0.0,0.0,0.0,0.0,0.0,0.0
0.5028443336486816,9.307030531899347,0.029228172447755024,-0.027045737746562198,-0.004537867790322105,0.0,0.0,0.4,-0.12729099038575503,-0.06544267799991206,0.8873866478075514,0.006405181875156778,-0.013953118328741746,0.0,0.0,0.0,0.0,0.0,0.0,0.0
0.5081686973571777,9.289380705715153,0.027921048813097316,-0.02771304698782791,-0.004528519013017848,0.0,0.0,0.4,-0.12740399383700957,-0.06537326049464907,0.8875336335703797,0.0063159568077145725,-0.013974667719470871,0.0,0.0,0.0,0.0,0.0,0.0,0.0
0.51352858543396,9.271897788536654,0.026583232046273858,-0.028547465014353682,-0.00452624772649443,0.0,0.0,0.4,-0.12751900819438652,-0.06529955670014279,0.8875817208435699,0.006226364582656948,-0.01400065133055766,0.0,0.0,0.0,0.0,0.0,0.0,0.0
0.5189409255981445,9.254578621721627,0.02521223739210219,-0.029493730007357537,-0.004512492138124614,0.0,0.0,0.4,-0.12763517894501789,-0.06522235896091909,0.8875349857257818,0.00613716163530683,-0.014030354922710484,0.0,0.0,0.0,0.0,0.0,0.0,0.0
0.5243217945098877,9.237458202617244,0.02386628697656627,-0.030456470809651272,-0.004502457818949969,0.0,0.0,0.4,-0.1277517304931206,-0.06514306082980698,0.8874117938355055,0.006049067247302102,-0.014062967187419116,0.0,0.0,0.0,0.0,0.0,0.0,0.0
0.5297079086303711,9.220559451151663,0.02260844491196775,-0.03135415995294998,-0.004512553290868298,0.0,0.0,0.4,-0.1278682598906113,-0.06506179729656317,0.8872073747248247,0.005962777246073276,-0.01409759860176748,0.0,0.0,0.0,0.0,0.0,0.0,0.0
0.5350761413574219,9.203846084055321,0.021500266592800882,-0.03211055976883916,-0.004539912808448181,0.0,0.0,0.4,-0.1279865020060269,-0.06497853302498999,0.8869007169048972,0.005879021734074714,-0.014133659818383531,0.0,0.0,0.0,0.0,0.0,0.0,0.0
0.5403580665588379,9.187282612219963,0.020585914086313252,-0.03269219407617023,-0.004581903747981086,0.0,0.0,0.4,-0.1281072619259454,-0.06489435367486986,0.8864977361061577,0.005798521827358716,-0.014170878889641305,0.0,0.0,0.0,0.0,0.0,0.0,0.0
0.5456998348236084,9.170837215799644,0.019838138523114585,-0.03311446541266396,-0.004617719857014144,0.0,0.0,0.4,-0.12822843475509688,-0.06480783901595344,0.8860054458759095,0.005721729809629481,-0.014208784341125612,0.0,0.0,0.0,0.0,0.0,0.0,0.0
0.5510673522949219,9.154454727260514,0.019187970288555116,-0.03341447026680309,-0.004617731215195546,0.0,0.0,0.4,-0.12834815253586307,-0.06471605655698803,0.8854122794121994,0.005648484899103609,-0.014246542968076453,0.0,0.0,0.0,0.0,0.0,0.0,0.0
0.5563583374023438,9.138114324913566,0.018595544682329636,-0.0336134949362481,-0.004572775434875387,0.0,0.0,0.4,-0.12846564401834829,-0.0646180373615771,0.8847267794869005,0.005578002232113289,-0.014283111945373576,0.0,0.0,0.0,0.0,0.0,0.0,0.0
0.5616455078125,9.121865758603958,0.018037769492801305,-0.033715537504294166,-0.004498489758399759,0.0,0.0,0.4,-0.1285803637382087,-0.06451328302842319,0.8839737886146293,0.005509054347918007,-0.014317453408766495,0.0,0.0,0.0,0.0,0.0,0.0,0.0
0.5669631958007812,9.105781785238563,0.017484342657397314,-0.03374834853981462,-0.004412140733972958,0.0,0.0,0.4,-0.12869209429750406,-0.06440172928465597,0.8831571132055431,0.005440461692280008,-0.014348657851228052,0.0,0.0,0.0,0.0,0.0,0.0,0.0
0.5722432136535645,9.089897533501624,0.016909227442443147,-0.03375994254920202,-0.004306904178860128,0.0,0.0,0.4,-0.1288020220861244,-0.064282864169984,0.8822613855400414,0.0053712753351476215,-0.01437615321511717,0.0,0.0,0.0,0.0,0.0,0.0,0.0
0.5775961875915527,9.0742403031975,0.016325939105321537,-0.03375427167770887,-0.004195139098913634,0.0,0.0,0.4,-0.12891155929030132,-0.06415758132147945,0.8812901314443286,0.005300726303736488,-0.014399915841345281,0.0,0.0,0.0,0.0,0.0,0.0,0.0
0.5828931331634521,9.058884535976912,0.01574293391655715,-0.033713731571296215,-0.004092776599278355,0.0,0.0,0.4,-0.12902108024932354,-0.06402821092327596,0.8802673375663499,0.005228598726606925,-0.014420272585496444,0.0,0.0,0.0,0.0,0.0,0.0,0.0
0.5882177352905273,9.043913573262103,0.01510526166385343,-0.033687210913826704,-0.0039667439276750115,0.0,0.0,0.4,-0.12913187998895082,-0.06389343382735108,0.8791972350905111,0.0051550607595538065,-0.014437798829064517,0.0,0.0,0.0,0.0,0.0,0.0,0.0
0.5935723781585693,9.029359206343628,0.014379118615125197,-0.033726438215202464,-0.003809935962671438,0.0,0.0,0.4,-0.1292458008072816,-0.06375118783774861,0.8780623630722313,0.00507985541044273,-0.014453508239040073,0.0,0.0,0.0,0.0,0.0,0.0,0.0
0.5989511013031006,9.01524046419092,0.013620815117476438,-0.0338257620001737,-0.0036715978815008658,0.0,0.0,0.4,-0.12936364120899912,-0.06360233966986198,0.8768661920649485,0.005002327879602046,-0.014468753101638195,0.0,0.0,0.0,0.0,0.0,0.0,0.0
0.604233980178833,9.001562710138263,0.012883039623437087,-0.03401627128905771,-0.003579406294248238,0.0,0.0,0.4,-0.12948490866930001,-0.06344740248292101,0.8756147536791042,0.0049220677229549065,-0.014484705690793232,0.0,0.0,0.0,0.0,0.0,0.0,0.0
0.6096160411834717,8.988298044618157,0.012103198857032146,-0.0343651880947444,-0.0035089483445130327,0.0,0.0,0.4,-0.12960793248985586,-0.06328477834022178,0.8742988962899592,0.004838930707812377,-0.014501921347019251,0.0,0.0,0.0,0.0,0.0,0.0,0.0
0.6149752140045166,8.97545278356903,0.011202520236700517,-0.03489011535445467,-0.003429201474242564,0.0,0.0,0.4,-0.12973103378867268,-0.06311411602253368,0.8729310708939284,0.004752793454100263,-0.014520356796327166,0.0,0.0,0.0,0.0,0.0,0.0,0.0
0.6202683448791504,8.963093394187867,0.010217674025421317,-0.03557649974783055,-0.003339253200864357,0.0,0.0,0.4,-0.12985336901407646,-0.06293701323935275,0.8715353591830424,0.0046635825634141,-0.014539622857226006,0.0,0.0,0.0,0.0,0.0,0.0,0.0
0.6256206035614014,8.951280277826195,0.009228714670408776,-0.03639752680114956,-0.0032564959970813687,0.0,0.0,0.4,-0.12997597772200759,-0.06275406592016955,0.8701086483181598,0.004571355208926704,-0.014559427181670824,0.0,0.0,0.0,0.0,0.0,0.0,0.0
0.6309897899627686,8.94001405290377,0.00830570862483573,-0.037294997411973625,-0.003204695185766228,0.0,0.0,0.4,-0.13010147640597722,-0.06256534411458273,0.8686318660499632,0.0044763096068458534,-0.01458000697134523,0.0,0.0,0.0,0.0,0.0,0.0,0.0
0.6363503932952881,8.929273637323226,0.0075179368684211295,-0.038227609928978154,-0.0031976483802141627,0.0,0.0,0.4,-0.13023039827914906,-0.062372582016875955,0.8671074087671748,0.004379039213996914,-0.014601873600517807,0.0,0.0,0.0,0.0,0.0,0.0,0.0
0.6417229175567627,8.919024750651678,0.0068155369873767494,-0.0391757692720267,-0.0032066790090308096,0.0,0.0,0.4,-0.13036135249827457,-0.062176151588037534,0.8655402538366717,0.004280515537104528,-0.01462532145882848,0.0,0.0,0.0,0.0,0.0,0.0,0.0
0.6471154689788818,8.909212612155159,0.006085946868441873,-0.04008336934135538,-0.0031996110021244428,0.0,0.0,0.4,-0.13049448761819193,-0.0619739889578215,0.8639237150615227,0.00418138680141276,-0.014650514540850871,0.0,0.0,0.0,0.0,0.0,0.0,0.0
0.6523969173431396,8.899803822678194,0.0053417944358954625,-0.040892867755872184,-0.003187907648760835,0.0,0.0,0.4,-0.13063070263590884,-0.06176465784754791,0.8622643563278691,0.004081556350674438,-0.014677689582856252,0.0,0.0,0.0,0.0,0.0,0.0,0.0
0.6577122211456299,8.890808027034959,0.004648237233746965,-0.04159108638966236,-0.003170827013166773,0.0,0.0,0.4,-0.13076912001993268,-0.061547187082959864,0.8605783355072723,0.003980609234875775,-0.014706893815027001,0.0,0.0,0.0,0.0,0.0,0.0,0.0
0.6630809307098389,8.882238136684087,0.0040023795233908,-0.04219551712991443,-0.003144214057534783,0.0,0.0,0.4,-0.13090801902569693,-0.06132015811465204,0.8588650717999818,0.0038778206613758123,-0.014737827626633037,0.0,0.0,0.0,0.0,0.0,0.0,0.0
0.6683955192565918,8.874062171425184,0.003379256984427048,-0.042716083966335465,-0.003134193755561457,0.0,0.0,0.4,-0.13104762149847196,-0.061082024643756574,0.8571086930216673,0.0037719746491316035,-0.014770127259848189,0.0,0.0,0.0,0.0,0.0,0.0,0.0
0.6737897396087646,8.866252529845053,0.00275607354232457,-0.04315919298620733,-0.0031425582633263565,0.0,0.0,0.4,-0.13118762968061437,-0.06083290488317654,0.8553152374923515,0.003662088813325921,-0.014803269151420042,0.0,0.0,0.0,0.0,0.0,0.0,0.0
0.6790993213653564,8.858787783993888,0.0020613808330678524,-0.043565448565907744,-0.0031522145837556033,0.0,0.0,0.4,-0.13132699431999342,-0.06057170714243622,0.853492442673979,0.0035472700938457254,-0.01483659853725229,0.0,0.0,0.0,0.0,0.0,0.0,0.0
0.6843798160552979,8.8516150135629,0.0012472100353058083,-0.04394384194756831,-0.0031481173878247283,0.0,0.0,0.4,-0.1314667054112172,-0.0602954796842453,0.8516279323583447,0.003426319777883289,-0.014869663430850685,0.0,0.0,0.0,0.0,0.0,0.0,0.0
0.689755916595459,8.844711722599916,0.0003436109465839858,-0.04426196596889828,-0.0031067035868266803,0.0,0.0,0.4,-0.13160711884867918,-0.060004907162173764,0.8497303880827178,0.003298320126566008,-0.014902140479572236,0.0,0.0,0.0,0.0,0.0,0.0,0.0
0.6950721740722656,8.83813237950557,-0.0006355654072807074,-0.04460885605099375,-0.003002639410702789,0.0,0.0,0.4,-0.13174712473946956,-0.05970156429063944,0.8478282062205542,0.0031628122473856468,-0.014933686433520258,0.0,0.0,0.0,0.0,0.0,0.0,0.0
0.7003889083862305,8.831947457374156,-0.0016855279392053522,-0.045061724427959096,-0.0028533778869689634,0.0,0.0,0.4,-0.13188780801386704,-0.05938567358291143,0.8459238256945913,0.003019489801575387,-0.014964250736065669,0.0,0.0,0.0,0.0,0.0,0.0,0.0
0.7057754993438721,8.826184281599115,-0.0027670058660936693,-0.04553583090795609,-0.0026918008549395903,0.0,0.0,0.4,-0.132031081041568,-0.059057416514092104,0.8440002941043185,0.0028682926451734235,-0.014994162952232952,0.0,0.0,0.0,0.0,0.0,0.0,0.0
0.7111372947692871,8.820877433452955,-0.0038695945077703714,-0.04604360571883409,-0.0025043457394194964,0.0,0.0,0.4,-0.132174698862735,-0.05871528340837978,0.8420675928270859,0.0027093794465122747,-0.015023466969775415,0.0,0.0,0.0,0.0,0.0,0.0,0.0
0.7165231704711914,8.816051987022703,-0.004993483628894672,-0.04662790405084925,-0.002299411640089881,0.0,0.0,0.4,-0.13231805116215986,-0.05835804006641629,0.8401324831075272,0.0025425710504127113,-0.015052125091856229,0.0,0.0,0.0,0.0,0.0,0.0,0.0
0.7218766212463379,8.811677634370485,-0.0060931364699980005,-0.04715078060150192,-0.00212193664767954,0.0,0.0,0.4,-0.1324662421861468,-0.057988166741286956,0.8381774867811584,0.0023678329779930514,-0.015080843390902385,0.0,0.0,0.0,0.0,0.0,0.0,0.0
0.7272846698760986,8.807722836724903,-0.007132625984352007,-0.0475560004635652,-0.0019752471410643137,0.0,0.0,0.4,-0.13262047479770947,-0.05760901067171871,0.8362049193770438,0.0021861818865825254,-0.01511065987128442,0.0,0.0,0.0,0.0,0.0,0.0,0.0
0.7325794696807861,8.804197246133825,-0.00810862450181813,-0.04794303042323518,-0.001830256075466165,0.0,0.0,0.4,-0.13277639725145224,-0.0572211809001147,0.8342351473616199,0.001999302978476176,-0.015142066062485282,0.0,0.0,0.0,0.0,0.0,0.0,0.0
0.737938642501831,8.80112066891859,-0.008994314721724172,-0.04832390618566135,-0.0017160890929502522,0.0,0.0,0.4,-0.13293392369855078,-0.05682450509379222,0.8322704377243191,0.0018085134275641062,-0.01517525875978424,0.0,0.0,0.0,0.0,0.0,0.0,0.0
0.7433242797851562,8.798480698876741,-0.009769131811250328,-0.048638374813461345,-0.001695919829833279,0.0,0.0,0.4,-0.13309688449400103,-0.056419288872575066,0.8302973584280758,0.0016147163496292997,-0.015210720365322814,0.0,0.0,0.0,0.0,0.0,0.0,0.0
0.7486329078674316,8.796277169429574,-0.010498112403867827,-0.04890875797112703,-0.0017367214347941884,0.0,0.0,0.4,-0.13326409566826944,-0.05600602669114779,0.8283243418789219,0.0014193741818388055,-0.015248765730875078,0.0,0.0,0.0,0.0,0.0,0.0,0.0
0.7539894580841064,8.794508590754985,-0.011249031807591013,-0.04920782419037821,-0.00177497572809011,0.0,0.0,0.4,-0.13343308523928304,-0.055583461408324354,0.8263574092728185,0.0012237791156608747,-0.015289356871922921,0.0,0.0,0.0,0.0,0.0,0.0,0.0
0.7593612670898438,8.79313048025221,-0.012022017924195159,-0.04953577375646017,-0.001813376905148547,0.0,0.0,0.4,-0.13360544632753152,-0.055149396698268204,0.824381686953833,0.0010281279824175809,-0.015332478112398877,0.0,0.0,0.0,0.0,0.0,0.0,0.0
0.7646784782409668,8.79211495985522,-0.012814920974300007,-0.04984425681467085,-0.0018554548251118858,0.0,0.0,0.4,-0.13378148095533873,-0.054705334401044595,0.8224035703947699,0.0008325666456812584,-0.015378045257969042,0.0,0.0,0.0,0.0,0.0,0.0,0.0
0.7700545787811279,8.791487419774182,-0.01361747672667112,-0.05014962314799135,-0.0018949020485197856,0.0,0.0,0.4,-0.13395901917810585,-0.05425440771756339,0.8204453071222911,0.0006377392097409615,-0.015425702020872518,0.0,0.0,0.0,0.0,0.0,0.0,0.0
0.7753729820251465,8.791284794808512,-0.014426166978578429,-0.05051080411890234,-0.0019338308054445224,0.0,0.0,0.4,-0.13413798891951473,-0.053795121981485367,0.818508390664613,0.00044413432746185825,-0.015474986623182538,0.0,0.0,0.0,0.0,0.0,0.0,0.0
0.7806754112243652,8.79150600393336,-0.015250389641194437,-0.05092029526895262,-0.0019747592973816557,0.0,0.0,0.4,-0.13432063622336754,-0.05332352854188478,0.8165778298488751,0.00025153612318069883,-0.015525720058103874,0.0,0.0,0.0,0.0,0.0,0.0,0.0
0.7860264778137207,8.792139985075291,-0.016043926296219407,-0.05132935086627538,-0.0020189165154537135,0.0,0.0,0.4,-0.13450748569546628,-0.05283991848355953,0.8146560271079037,5.941407321970744e-05,-0.015577971272500206,0.0,0.0,0.0,0.0,0.0,0.0,0.0
0.791306734085083,8.793154011510426,-0.01674725976681566,-0.051742331034185324,-0.0020784868515717914,0.0,0.0,0.4,-0.13469870204265633,-0.052343880677947506,0.8127432844842388,-0.00013312424445409082,-0.01563199980852991,0.0,0.0,0.0,0.0,0.0,0.0,0.0
0.7966203689575195,8.794467379467635,-0.017324718783755095,-0.052207844084514524,-0.0021650514360983266,0.0,0.0,0.4,-0.134895660704445,-0.05183223709076276,0.810823996863296,-0.0003273947193076041,-0.015688267279369464,0.0,0.0,0.0,0.0,0.0,0.0,0.0
0.8019685745239258,8.796022044049032,-0.017744152267788253,-0.052726492867165256,-0.002254488267624921,0.0,0.0,0.4,-0.13509791964477885,-0.051305614298139214,0.8089057000879014,-0.0005243227851562798,-0.01574713800983916,0.0,0.0,0.0,0.0,0.0,0.0,0.0
0.8073537349700928,8.797830902009274,-0.018033747990953197,-0.05325334934101888,-0.002317988074766139,0.0,0.0,0.4,-0.13530269404371498,-0.05076704836164597,0.8070135368586312,-0.0007242175888716566,-0.015808456035289742,0.0,0.0,0.0,0.0,0.0,0.0,0.0
0.8126571178436279,8.799932587824454,-0.018250127012147902,-0.05378748947113653,-0.00234929423722894,0.0,0.0,0.4,-0.13550793473083783,-0.05021648361922103,0.8051507826248935,-0.0009271795324959227,-0.01587147285994257,0.0,0.0,0.0,0.0,0.0,0.0,0.0
0.818016529083252,8.802337655328978,-0.018432457431717467,-0.05437570961796226,-0.0023271689146978657,0.0,0.0,0.4,-0.13571359667484797,-0.04965013944429132,0.8033033653150758,-0.0011335501176027133,-0.015935212304681156,0.0,0.0,0.0,0.0,0.0,0.0,0.0
0.8234133720397949,8.80506901258944,-0.01865908663957432,-0.055009501474201125,-0.0022111697518589993,0.0,0.0,0.4,-0.1359202951770147,-0.04906727391644298,0.8014798912700992,-0.0013437577033449553,-0.015998855533683853,0.0,0.0,0.0,0.0,0.0,0.0,0.0
0.8287420272827148,8.808145920252608,-0.018949705930929046,-0.055603353595203284,-0.0020309427151221295,0.0,0.0,0.4,-0.1361304812298555,-0.0484700923840935,0.7996863653795142,-0.0015585043653595456,-0.016062190324668123,0.0,0.0,0.0,0.0,0.0,0.0,0.0
0.8341076374053955,8.811535600138232,-0.019227607107561526,-0.056078469687391226,-0.0018771216203181263,0.0,0.0,0.4,-0.13634781907641072,-0.04785991783033978,0.7979054757479853,-0.0017784684089688179,-0.01612585000835535,0.0,0.0,0.0,0.0,0.0,0.0,0.0
0.8395085334777832,8.815200971178793,-0.019494515346798427,-0.056457257654766606,-0.0017662798255149864,0.0,0.0,0.4,-0.1365715428649072,-0.04723967319398499,0.7961374241673762,-0.00200292718039944,-0.016190668950257413,0.0,0.0,0.0,0.0,0.0,0.0,0.0
0.8448145389556885,8.819138323727133,-0.019848245130923477,-0.05687274826066096,-0.0016740121291781652,0.0,0.0,0.4,-0.1367965180417817,-0.046610288442068805,0.7943988335342667,-0.0022305016330952327,-0.016256658520095182,0.0,0.0,0.0,0.0,0.0,0.0,0.0
0.8501675128936768,8.823352792758609,-0.020348373435568785,-0.05741766096264155,-0.0016153282155858626,0.0,0.0,0.4,-0.13702264661806535,-0.045966705555938236,0.7926908891481986,-0.0024609173143847578,-0.01632334653584225,0.0,0.0,0.0,0.0,0.0,0.0,0.0
0.8555307388305664,8.827811397249516,-0.020974389883266262,-0.05806120861979635,-0.0016035400806588525,0.0,0.0,0.4,-0.1372564027686274,-0.045305278015224604,0.7909974601973487,-0.002694827603865812,-0.01639107295516684,0.0,0.0,0.0,0.0,0.0,0.0,0.0
0.8608622550964355,8.83247452231555,-0.021695412659307484,-0.058677325541309604,-0.0016325304444525896,0.0,0.0,0.4,-0.13750113387322438,-0.04463079671311639,0.7893189590637361,-0.002932368778324199,-0.016461134211597755,0.0,0.0,0.0,0.0,0.0,0.0,0.0
0.8661494255065918,8.837354898706291,-0.022496521122682203,-0.05915178278172456,-0.0017018052768534861,0.0,0.0,0.4,-0.13775482467564537,-0.043950081318692456,0.7876769692899266,-0.0031724039411393477,-0.016534888122401108,0.0,0.0,0.0,0.0,0.0,0.0,0.0
0.871535062789917,8.842485429581433,-0.023328458948133655,-0.05953744751222011,-0.0018141695445033912,0.0,0.0,0.4,-0.13801417609843558,-0.04326194180828224,0.78607587438543,-0.0034134099682368727,-0.016612887845037946,0.0,0.0,0.0,0.0,0.0,0.0,0.0
0.8768646717071533,8.84788063973808,-0.024145892657350187,-0.05993529994051576,-0.0019229716687756613,0.0,0.0,0.4,-0.13827381453174137,-0.04256003288794312,0.7845050174744305,-0.003654445611855052,-0.016694269861939445,0.0,0.0,0.0,0.0,0.0,0.0,0.0
0.8822228908538818,8.85355987555979,-0.02492498794758837,-0.06028640395434908,-0.001970216389387627,0.0,0.0,0.4,-0.13852906846846225,-0.04184406968527409,0.7829693648898255,-0.0038951632178906835,-0.016776907724536348,0.0,0.0,0.0,0.0,0.0,0.0,0.0
0.8875274658203125,8.859534631602665,-0.02568404829643434,-0.060550556425537284,-0.0019527582108648464,0.0,0.0,0.4,-0.13878148921498212,-0.04111448889347236,0.781472455593573,-0.004136087484839254,-0.016858554312983384,0.0,0.0,0.0,0.0,0.0,0.0,0.0
0.8928892612457275,8.865783334918737,-0.02648440405165601,-0.06078455687898637,-0.001895482385734171,0.0,0.0,0.4,-0.13903628240921023,-0.040368221965482586,0.780003957140226,-0.004378427758946664,-0.01693803386614309,0.0,0.0,0.0,0.0,0.0,0.0,0.0
0.898256778717041,8.872284003742894,-0.027298002373993057,-0.06095029834662098,-0.0018479378844032536,0.0,0.0,0.4,-0.13929686205939631,-0.039609484279868865,0.778565135094908,-0.0046228221827032505,-0.017015453021425483,0.0,0.0,0.0,0.0,0.0,0.0,0.0
0.9035968780517578,8.879050714206583,-0.02805789010617206,-0.061015837700138284,-0.0018408414691164217,0.0,0.0,0.4,-0.13956245653507646,-0.03884495255297521,0.7771714496459191,-0.00486846470618899,-0.01709144423765279,0.0,0.0,0.0,0.0,0.0,0.0,0.0
0.9089124202728271,8.88610415069681,-0.028703297808696758,-0.061045683230590474,-0.0018524652004604058,0.0,0.0,0.4,-0.13983119304464714,-0.038073055070262964,0.7758242025127807,-0.005113825164496041,-0.017166532277736304,0.0,0.0,0.0,0.0,0.0,0.0,0.0
0.9143154621124268,8.89342966365724,-0.029183536613704965,-0.0611053771746604,-0.0018480859346800915,0.0,0.0,0.4,-0.14010281101941063,-0.03728805280445757,0.7745095025709087,-0.00535816327417814,-0.017240987626170063,0.0,0.0,0.0,0.0,0.0,0.0,0.0
0.9196972846984863,8.901007375223825,-0.029564233029297813,-0.06125020748284961,-0.0017831634149810534,0.0,0.0,0.4,-0.14037548582447568,-0.03648957395969438,0.7732289717507086,-0.0056013813400924775,-0.01731462753736592,0.0,0.0,0.0,0.0,0.0,0.0,0.0
0.9250533580780029,8.908814924822192,-0.029918132913170848,-0.06149051613200613,-0.0016389907178493322,0.0,0.0,0.4,-0.1406482520150094,-0.03567898515905952,0.7719869447309861,-0.005843798131605638,-0.017386989662831843,0.0,0.0,0.0,0.0,0.0,0.0,0.0
0.9304325580596924,8.916815292505547,-0.030249709309427844,-0.06179209896334045,-0.0014498042687331254,0.0,0.0,0.4,-0.14092310020269022,-0.03485403293957837,0.7707773959408111,-0.006086432731205538,-0.01745775223751703,0.0,0.0,0.0,0.0,0.0,0.0,0.0
0.9359197616577148,8.924978142680422,-0.030504889868420707,-0.06207870948038889,-0.0012760795436943756,0.0,0.0,0.4,-0.14120222545112976,-0.03401690026411955,0.7696011141296477,-0.006330064498902586,-0.017527039995119897,0.0,0.0,0.0,0.0,0.0,0.0,0.0
0.9412703514099121,8.93328097694877,-0.030580362761202184,-0.062286152530362446,-0.0011892907599205986,0.0,0.0,0.4,-0.14148818770606422,-0.033174044944434565,0.7684618005509073,-0.006574414329066029,-0.017595643939686975,0.0,0.0,0.0,0.0,0.0,0.0,0.0
0.9467184543609619,8.94169979360018,-0.030498931280664457,-0.06245024527885612,-0.0012306214007624368,0.0,0.0,0.4,-0.14178363455554463,-0.032324963719760014,0.7673574448038427,-0.006818665102078106,-0.017665027134784593,0.0,0.0,0.0,0.0,0.0,0.0,0.0
0.9521162509918213,8.950212694328709,-0.030419802776780372,-0.06262435783880319,-0.0013704526615269956,0.0,0.0,0.4,-0.1420886123692751,-0.031463300760055775,0.7662870443882833,-0.007062358159850511,-0.017736911463790892,0.0,0.0,0.0,0.0,0.0,0.0,0.0
0.9575035572052002,8.958833282314018,-0.03049752757696615,-0.06284580300001417,-0.0015252400837648169,0.0,0.0,0.4,-0.142397888257211,-0.030587576277152334,0.7652621849141994,-0.007305384344643065,-0.017812139912735225,0.0,0.0,0.0,0.0,0.0,0.0,0.0
0.9627864360809326,8.967585088604121,-0.0307611308837415,-0.06316153373698374,-0.0016251082488107642,0.0,0.0,0.4,-0.14270703666789025,-0.029698096575263868,0.7642856323256136,-0.007548161633352581,-0.017890250321097912,0.0,0.0,0.0,0.0,0.0,0.0,0.0
0.9682056903839111,8.976459477146921,-0.031121928316494733,-0.06360219699965503,-0.0016585167119088809,0.0,0.0,0.4,-0.14301724392927107,-0.028793683047905614,0.763344639077933,-0.007791701152244031,-0.017970202236544133,0.0,0.0,0.0,0.0,0.0,0.0,0.0
0.9735746383666992,8.985459072901968,-0.03156140656728066,-0.0640842001220613,-0.0016333683972449323,0.0,0.0,0.4,-0.14332935276911388,-0.027877403124892144,0.7624446624488768,-0.008036497234574927,-0.018050967729207022,0.0,0.0,0.0,0.0,0.0,0.0,0.0
0.9788806438446045,8.994583645643452,-0.03209084294043553,-0.06451558773835166,-0.0015747628163290982,0.0,0.0,0.4,-0.14364470360449855,-0.026949294188194674,0.7615892096117677,-0.008282981608671825,-0.018132013966835153,0.0,0.0,0.0,0.0,0.0,0.0,0.0
0.9842660427093506,9.003801755843561,-0.03266452054106007,-0.06497918240180754,-0.0015170050680725256,0.0,0.0,0.4,-0.1439659860838574,-0.02600403985209307,0.7607663239492857,-0.008532307293772502,-0.018213471823598577,0.0,0.0,0.0,0.0,0.0,0.0,0.0
0.9896886348724365,9.013099387338071,-0.033272603415676,-0.06557941218085306,-0.0014529973175220485,0.0,0.0,0.4,-0.14429154572399294,-0.02504208592733998,0.7599813609730082,-0.0087853520053507,-0.018295576488221693,0.0,0.0,0.0,0.0,0.0,0.0,0.0
0.9949784278869629,9.022487699389265,-0.03390897429949148,-0.0663213855888863,-0.0013728727056416604,0.0,0.0,0.4,-0.1446187834789657,-0.024069801711188096,0.7592452155552545,-0.009041981823544255,-0.01837817240454165,0.0,0.0,0.0,0.0,0.0,0.0,0.0
1.0002732276916504,9.031977685785737,-0.03452574522548151,-0.0671577768559999,-0.0012889367077063387,0.0,0.0,0.4,-0.1449482519377063,-0.023090282176966806,0.7585549482325247,-0.009301194918324061,-0.018460848317827922,0.0,0.0,0.0,0.0,0.0,0.0,0.0
1.0056796073913574,9.041567226508185,-0.03508719662504225,-0.06805380317456264,-0.0012250795207071443,0.0,0.0,0.4,-0.1452815821229209,-0.02210218346682856,0.7579043217220902,-0.00956183258791301,-0.018543336729202078,0.0,0.0,0.0,0.0,0.0,0.0,0.0
1.011085033416748,9.051250274365382,-0.035577673895485815,-0.0689820767911754,-0.0012057527435956226,0.0,0.0,0.4,-0.14561903409162943,-0.02110682655814883,0.7572948400093941,-0.009822647608099094,-0.018625592364278746,0.0,0.0,0.0,0.0,0.0,0.0,0.0
1.016542673110962,9.068115979393545,-0.035618985264242176,-0.0698000966698338,-0.0012555329536662792,0.0,0.0,0.4,-0.14581633405356415,-0.020396705955694813,0.7590161417759395,-0.010031736424434756,-0.01868269967959335,0.0,0.0,0.0,0.0,0.0,0.0,0.0
1.0219056606292725,9.104697382760051,-0.03478770837216072,-0.07032374374785168,-0.001370107337735212,0.0,0.0,0.4,-0.14576400229139455,-0.020195057141302396,0.7648574870762459,-0.010089067717694584,-0.018666342787478796,0.0,0.0,0.0,0.0,0.0,0.0,0.0
1.0272986888885498,9.164334967759393,-0.033335506975145014,-0.07053114256671167,-0.0014725145268922489,0.0,0.0,0.4,-0.14566957441625017,-0.0200866235033555,0.7716012371311544,-0.009951765194895114,-0.01855717745308717,0.0,0.0,0.0,0.0,0.0,0.0,0.0
1.032625436782837,9.241119074418537,-0.031646598283333084,-0.07050972714674149,-0.0014952250082007907,0.0,0.0,0.4,-0.1456963684603091,-0.019740345547401394,0.7766454658493869,-0.009658808546611032,-0.01837598210462416,0.0,0.0,0.0,0.0,0.0,0.0,0.0
1.0380072593688965,9.325423988011833,-0.029873296698254184,-0.07034913131473244,-0.001452222349260636,0.0,0.0,0.4,-0.14582631423862896,-0.01918574836663082,0.7802161424213463,-0.00929393922781322,-0.018164150633479374,0.0,0.0,0.0,0.0,0.0,0.0,0.0
1.0433213710784912,9.407258255742557,-0.02816996843740083,-0.07014788284783188,-0.001382235447598495,0.0,0.0,0.4,-0.14604445932792415,-0.01844771582658072,0.782523284474236,-0.008944654969897622,-0.0179638463134603,0.0,0.0,0.0,0.0,0.0,0.0,0.0
1.0486805438995361,9.479671110190615,-0.026756119048540385,-0.07001660772495545,-0.0012923337873549604,0.0,0.0,0.4,-0.14633604644188988,-0.017553715973568678,0.7837717064881148,-0.008672237214838636,-0.017803986562123637,0.0,0.0,0.0,0.0,0.0,0.0,0.0
1.0540943145751953,9.538225493142642,-0.02582878040786925,-0.07004945467084822,-0.001177815631518753,0.0,0.0,0.4,-0.1466890314414783,-0.016527780430480442,0.7841476247985448,-0.008516426501553917,-0.01770286169512867,0.0,0.0,0.0,0.0,0.0,0.0,0.0
1.0594627857208252,9.580499536303769,-0.02544214209097432,-0.07028546939994199,-0.0010547051214728662,0.0,0.0,0.4,-0.14709674404639625,-0.015388633054082867,0.7838108920369744,-0.00849997460987746,-0.017670837584849268,0.0,0.0,0.0,0.0,0.0,0.0,0.0
1.0647878646850586,9.605672218387086,-0.025555933437887462,-0.07066241713442006,-0.0009417096897125298,0.0,0.0,0.4,-0.1475513008541077,-0.014160396598611506,0.7829110025662903,-0.008631044400721247,-0.01771209374392048,0.0,0.0,0.0,0.0,0.0,0.0,0.0
1.0700771808624268,9.614168417189243,-0.026110437599776538,-0.07105548377077271,-0.0008082064374831505,0.0,0.0,0.4,-0.14804076441083097,-0.012868731423616686,0.7815906852070713,-0.008905210369843155,-0.01782555969367721,0.0,0.0,0.0,0.0,0.0,0.0,0.0
1.075361967086792,9.60731936161673,-0.027054783957269023,-0.07143166489573635,-0.0006157589954065842,0.0,0.0,0.4,-0.14855299135901992,-0.011527344452791351,0.779970565117603,-0.00930986088425805,-0.018005438622689166,0.0,0.0,0.0,0.0,0.0,0.0,0.0
1.0807569026947021,9.587057615172554,-0.028343972896367614,-0.07187423527551885,-0.00037325782463795747,0.0,0.0,0.4,-0.14907805753536404,-0.01014149799161158,0.7781468744501675,-0.009828709076352393,-0.01824209283797453,0.0,0.0,0.0,0.0,0.0,0.0,0.0
1.0861279964447021,9.555690173870545,-0.02996829979162883,-0.07246269561207545,-9.223775311717457e-05,0.0,0.0,0.4,-0.14960776431301914,-0.00872271385804781,0.7762074130640776,-0.010442943083857705,-0.018523570577429906,0.0,0.0,0.0,0.0,0.0,0.0,0.0
1.0915184020996094,9.515705090333354,-0.03187613717126969,-0.07322072878858564,0.00019746036311626638,0.0,0.0,0.4,-0.15013770727834788,-0.007286884613567039,0.774228117461441,-0.01113169809459984,-0.01883716336661142,0.0,0.0,0.0,0.0,0.0,0.0,0.0
1.0968422889709473,9.469587647907302,-0.03390391474155481,-0.07404899750609455,0.0004414003949606443,0.0,0.0,0.4,-0.15067089059460584,-0.00584328914030853,0.7722600582914172,-0.01187337077375566,-0.019171419066571722,0.0,0.0,0.0,0.0,0.0,0.0,0.0
1.1022145748138428,9.419696569183893,-0.035909298483270416,-0.0747616735829123,0.0006140619084062291,0.0,0.0,0.4,-0.15121069744342075,-0.0043964748157013026,0.7703409362661475,-0.01264676850866066,-0.019517223009257203,0.0,0.0,0.0,0.0,0.0,0.0,0.0
1.1075248718261719,9.368213783533315,-0.037878546016717626,-0.07533234477110326,0.0007319094308499187,0.0,0.0,0.4,-0.15175149712144156,-0.0029539254394795366,0.7685123531267093,-0.01343164275657539,-0.019866667387466435,0.0,0.0,0.0,0.0,0.0,0.0,0.0
1.1128411293029785,9.317101931747546,-0.03983792461704484,-0.07583575111000897,0.0008480907055061355,0.0,0.0,0.4,-0.15228739463640883,-0.0015186827353627778,0.7668102187025523,-0.014209770149255466,-0.020212449772026613,0.0,0.0,0.0,0.0,0.0,0.0,0.0
1.1181979179382324,9.268056940582904,-0.041773017839764295,-0.07626803868986878,0.0010017028098480095,0.0,0.0,0.4,-0.15281831298097553,-8.622795231885038e-05,0.7652546456148305,-0.014966708869405545,-0.020548011458607438,0.0,0.0,0.0,0.0,0.0,0.0,0.0
1.1235272884368896,9.222482798478467,-0.0436530553843898,-0.07663178877451568,0.0011932221113592676,0.0,0.0,0.4,-0.15334324267881572,0.0013434043855189812,0.7638576948317719,-0.015691715647847954,-0.020867521345128932,0.0,0.0,0.0,0.0,0.0,0.0,0.0
1.128901720046997,9.181476462545367,-0.04543621825829823,-0.07696820383471717,0.0014301800674926047,0.0,0.0,0.4,-0.1538625215272772,0.0027691736305371956,0.7626250352214821,-0.016376949094465847,-0.02116671041977259,0.0,0.0,0.0,0.0,0.0,0.0,0.0
1.1342849731445312,9.145835059492363,-0.04710037577872594,-0.07731345388067758,0.0017282105410732368,0.0,0.0,0.4,-0.15437871047242835,0.004193790341245318,0.7615569000045781,-0.01701728691153148,-0.021443091084951595,0.0,0.0,0.0,0.0,0.0,0.0,0.0
1.1396617889404297,9.116079386811265,-0.048610915403828,-0.07764755271003985,0.0020776346444835577,0.0,0.0,0.4,-0.15489194344317808,0.005613364193161641,0.7606509054749625,-0.01760925703398029,-0.02169523676985327,0.0,0.0,0.0,0.0,0.0,0.0,0.0
1.145021915435791,9.092486362483248,-0.049891544278460674,-0.07792143670461146,0.0024496597309765136,0.0,0.0,0.4,-0.15540146572879915,0.007018937391998246,0.7599035769199196,-0.018149717561128337,-0.021922432957090048,0.0,0.0,0.0,0.0,0.0,0.0,0.0
1.1503040790557861,9.075117239262273,-0.050902736259157234,-0.07815539273793284,0.002806771155513653,0.0,0.0,0.4,-0.15591084202510863,0.008410191306041117,0.7593080163052061,-0.018636490754485664,-0.02212506435474326,0.0,0.0,0.0,0.0,0.0,0.0,0.0
1.1555917263031006,9.06384449439701,-0.051653855863518124,-0.07835917970703994,0.003125158578255838,0.0,0.0,0.4,-0.15642404779279334,0.009794585548635833,0.7588536870881254,-0.019069564878305856,-0.022304872750384116,0.0,0.0,0.0,0.0,0.0,0.0,0.0
1.1609582901000977,9.06483189348933,-0.05178126034040091,-0.07836206211707705,0.0033460234841957916,0.0,0.0,0.4,-0.1567361161583464,0.010694402041944316,0.7606082449390306,-0.01936791444245685,-0.022428221024466087,0.0,0.0,0.0,0.0,0.0,0.0,0.0
1.166341781616211,9.089090812074748,-0.050850171329439364,-0.07798675304610152,0.0034226237630720895,0.0,0.0,0.4,-0.15668766341662466,0.010738734612183757,0.7661950570034824,-0.019372380304401218,-0.02242745041770687,0.0,0.0,0.0,0.0,0.0,0.0,0.0
1.1717276573181152,9.139238454980312,-0.049138979444539405,-0.07728312664314986,0.003446268784745571,0.0,0.0,0.4,-0.15656563584991304,0.010615251029136047,0.7726957562215567,-0.019018079385960555,-0.02227539379726721,0.0,0.0,0.0,0.0,0.0,0.0,0.0
1.1771018505096436,9.209439660243216,-0.04709319979894994,-0.07640902390520207,0.00350124248054969,0.0,0.0,0.4,-0.15659885659766282,0.010869703435955546,0.7777385995247221,-0.018374515944912687,-0.022001208812266634,0.0,0.0,0.0,0.0,0.0,0.0,0.0
1.182488203048706,9.290428123282357,-0.04496090938728485,-0.07549444695044909,0.0035718891425490455,0.0,0.0,0.4,-0.15676651777482759,0.011442695105271216,0.7815125205972017,-0.0175828034851153,-0.02166380835392436,0.0,0.0,0.0,0.0,0.0,0.0,0.0
1.1877992153167725,9.372573449835922,-0.04304135479748716,-0.0745666261420922,0.003657167626792553,0.0,0.0,0.4,-0.15705216648194548,0.012288815640427247,0.7841985445285037,-0.01678820098671057,-0.02132487619576482,0.0,0.0,0.0,0.0,0.0,0.0,0.0
1.1931571960449219,9.448978193199459,-0.041599145034311384,-0.07370317363301486,0.0037991813189852588,0.0,0.0,0.4,-0.1574388388803462,0.013375731318441794,0.7859694680154135,-0.016094182098615187,-0.021028833499278136,0.0,0.0,0.0,0.0,0.0,0.0,0.0
1.1985101699829102,9.515030375966024,-0.04073806533494297,-0.0730844711332096,0.0040029255735635275,0.0,0.0,0.4,-0.15790722066006038,0.014665682421079997,0.7869836340878524,-0.015570081088735028,-0.020804565748309765,0.0,0.0,0.0,0.0,0.0,0.0,0.0
1.2039272785186768,9.567983796056252,-0.04043047311267494,-0.07277818303253834,0.004235535205965388,0.0,0.0,0.4,-0.15844187900661127,0.016119887859304724,0.787382920254742,-0.015256744084425417,-0.020668314099245248,0.0,0.0,0.0,0.0,0.0,0.0,0.0
1.2092931270599365,9.60657722880067,-0.04060204007663741,-0.07276151766812573,0.0044883385947558484,0.0,0.0,0.4,-0.15903301723280203,0.01770974639927758,0.7872943704442152,-0.01517196936683918,-0.02062728207458788,0.0,0.0,0.0,0.0,0.0,0.0,0.0
1.2146515846252441,9.630699868944776,-0.04117649671998949,-0.07298608258539281,0.004767849419750046,0.0,0.0,0.4,-0.15966818658586926,0.01940467477436616,0.7868317257469111,-0.015314977394204933,-0.020681397194660663,0.0,0.0,0.0,0.0,0.0,0.0,0.0
1.2200160026550293,9.64110328207845,-0.042116564024103964,-0.07341677180606812,0.005066385399168432,0.0,0.0,0.4,-0.16033590895312855,0.02117036047986445,0.7860963308444319,-0.01567031723614513,-0.020824925044886086,0.0,0.0,0.0,0.0,0.0,0.0,0.0
1.2253789901733398,9.639165574028409,-0.043389559311737005,-0.07404304831447178,0.005355289069483736,0.0,0.0,0.4,-0.1610305476883772,0.02298537604514,0.7851809662127428,-0.01621299367184245,-0.021048500394195223,0.0,0.0,0.0,0.0,0.0,0.0,0.0
1.2307453155517578,9.632022038417967,-0.044556151010568056,-0.07472831043780476,0.005533875327121247,0.0,0.0,0.4,-0.16152227283048312,0.02425856126322385,0.7858883252320866,-0.016813014519188277,-0.021300826570965648,0.0,0.0,0.0,0.0,0.0,0.0,0.0
1.2361690998077393,9.631135279033218,-0.044974204314282264,-0.07526033320949084,0.005534311854408098,0.0,0.0,0.4,-0.16162832219527892,0.024521527581744217,0.7896310212295001,-0.01724078262133364,-0.02149161696049504,0.0,0.0,0.0,0.0,0.0,0.0,0.0
1.2415156364440918,9.641121228451645,-0.04461306910483116,-0.07554560334826191,0.005448778747748485,0.0,0.0,0.4,-0.161658325910718,0.024582840262140464,0.7940383390189611,-0.01737778128816159,-0.021574811751626986,0.0,0.0,0.0,0.0,0.0,0.0,0.0
1.246873378753662,9.6595853489309,-0.04379890122531231,-0.0756250972830142,0.005369737504326919,0.0,0.0,0.4,-0.16186305916207877,0.025100345897970958,0.7971913256135468,-0.017269339723745628,-0.02156735688573881,0.0,0.0,0.0,0.0,0.0,0.0,0.0
1.2522385120391846,9.68121470620617,-0.0428185779069424,-0.0755429587252102,0.005315302491100197,0.0,0.0,0.4,-0.1622144069415627,0.026003575171374402,0.7992948752666099,-0.01705070235854078,-0.021520009362676732,0.0,0.0,0.0,0.0,0.0,0.0,0.0
1.2575974464416504,9.700239997988664,-0.04191084979618479,-0.07531274978795038,0.0053267055859827495,0.0,0.0,0.4,-0.16268633445979658,0.027223026781885054,0.8005335619246751,-0.016864885425879304,-0.021487038952975355,0.0,0.0,0.0,0.0,0.0,0.0,0.0
1.2629637718200684,9.712940270810531,-0.04123710971874772,-0.0750917545628733,0.005430338683851808,0.0,0.0,0.4,-0.1632589355904202,0.02870512463359271,0.8010730182307694,-0.01680724087226678,-0.02150444527911197,0.0,0.0,0.0,0.0,0.0,0.0,0.0
1.2683241367340088,9.71724218133437,-0.040946013834176585,-0.07509342492739737,0.005568725423738205,0.0,0.0,0.4,-0.16391594074590826,0.03040690167891039,0.8010648429586514,-0.016936478848960098,-0.021593392801513532,0.0,0.0,0.0,0.0,0.0,0.0,0.0
1.2736945152282715,9.712351023919775,-0.04112166513161427,-0.0753583147036537,0.005687426162750917,0.0,0.0,0.4,-0.1646403330509873,0.03227947955907655,0.8006414723066826,-0.01728067162954105,-0.02176382931120125,0.0,0.0,0.0,0.0,0.0,0.0,0.0
1.2790584564208984,9.698425287772707,-0.0417707532958969,-0.07580638789574647,0.0057698517828012495,0.0,0.0,0.4,-0.16541751511956043,0.03427947001542566,0.7999150279552012,-0.017843599454800862,-0.022017361319610025,0.0,0.0,0.0,0.0,0.0,0.0,0.0
1.2843434810638428,9.67631457698696,-0.04292940253080336,-0.07639383544654495,0.005823222117892145,0.0,0.0,0.4,-0.16623561302883536,0.036378540827758384,0.798985825135427,-0.018612077355034035,-0.022349337794491424,0.0,0.0,0.0,0.0,0.0,0.0,0.0
1.2897148132324219,9.647338495248874,-0.04461169563431491,-0.07713054555125651,0.005895758065762357,0.0,0.0,0.4,-0.16707959125903976,0.03854647997168096,0.7979424506048085,-0.01956038263912471,-0.022750244956494317,0.0,0.0,0.0,0.0,0.0,0.0,0.0
