T,Px,Py,Pz,Vx,Vy,Vz,Roll,Pitch,Yaw,R_rate,P_rate,Y_rate,T,M1,M2,M3,Wb1,Wb2,Wb3
0,0.0,0.0,0.0,0.0,0.0,0.0,-0.05356688035547239,0.004939331167475393,0.009717652909311113,0.0,0.0,0.0,0.0,0.0,0.0,0.0,0.0,0.0,0.0
0.0002384185791015625,0.066024050116539,-0.08655060082674026,0.0779864713549614,2.1046337267710294e-06,1.7996143460795758e-06,3.538224816020861e-05,-0.05356911026910935,0.004795183235326059,0.009667942169408797,0.0,0.0,0.0,0.0,0.0,0.0,0.0,0.0,0.0,0.0
0.010745763778686523,0.06600171327590942,-0.08656179159879684,0.07797969877719879,-3.888033336268476e-05,-1.671535838079526e-05,0.00011706798816526359,-0.05350053701155488,0.004986631524736747,0.009642805457606738,0.0,0.0,0.0,0.0,0.0,0.0,0.0,0.0,0.0,0.0
0.021318674087524414,0.06601481884717941,-0.08655722439289093,0.07797341048717499,-0.00012645682380321228,-6.295882147761347e-05,0.0001543161807493788,-0.05350142230808798,0.004951793479348291,0.009747796265728675,0.0,0.0,0.0,0.0,0.0,0.0,0.0,0.0,0.0,0.0
0.03171825408935547,0.06600817292928696,-0.086562380194664,0.07797733694314957,-0.00017097152432212853,-9.872179657684089e-05,0.0001270032010538621,-0.05356162481952257,0.00489167673041801,0.009785523940394206,0.0,0.0,0.0,0.0,0.0,0.0,0.0,0.0,0.0,0.0
0.04230666160583496,0.06602512300014496,-0.08655218780040741,0.07797470688819885,-0.00015745335656284495,-0.00010837050249115052,0.00010288292601134415,-0.05335750214433971,0.004778021867819404,0.009653610128865687,0.0,0.0,0.0,0.0,0.0,0.0,0.0,0.0,0.0,0.0
0.05270504951477051,0.06601188331842422,-0.08655375987291336,0.07798242568969727,-9.94183949415499e-05,-7.18987974001558e-05,8.703445703265657e-05,-0.05348275802322458,0.004941598986217466,0.009646077763137091,0.0,0.0,0.0,0.0,0.0,0.0,0.0,0.0,0.0,0.0
0.06311678886413574,0.06601756066083908,-0.08655530959367752,0.07798437774181366,-6.60558686831112e-05,-3.382082308495582e-05,0.00010247697048105771,-0.05352608656524626,0.004665046559836597,0.009732697445357333,0.0,0.0,0.0,0.0,0.0,0.0,0.0,0.0,0.0,0.0
0.07426810264587402,0.0660105049610138,-0.08655035495758057,0.07796856015920639,-6.436552805765516e-05,-7.836289528657802e-06,0.00010882077546849384,-0.05355751162022511,0.004798570350213585,0.009633383597701268,0.0,0.0,0.0,0.0,0.0,0.0,0.0,0.0,0.0,0.0
0.08475565910339355,0.06600482016801834,-0.08654820173978806,0.07797850668430328,-7.460449101628276e-05,3.1363474053424314e-05,4.678941678779994e-05,-0.05347285142315022,0.004844617467203847,0.009687941577503151,0.0,0.0,0.0,0.0,0.0,0.0,0.0,0.0,0.0,0.0
0.09536886215209961,0.06601347774267197,-0.08655662089586258,0.07797802984714508,-0.0001005516404000524,5.513513704660687e-05,2.0317530425915873e-05,-0.05359766109241184,0.004741742121367326,0.009736328055759977,0.0,0.0,0.0,0.0,0.0,0.0,0.0,0.0,0.0,0.0
0.1059274673461914,0.06600179523229599,-0.08655223250389099,0.07797271758317947,-0.00010618624475291314,4.267111662010012e-05,9.112343028079185e-06,-0.05357088840955979,0.0047879228416095035,0.009666521019756711,0.0,0.0,0.0,0.0,0.0,0.0,0.0,0.0,0.0,0.0
0.1163933277130127,0.06601294875144958,-0.08655374497175217,0.07798569649457932,-0.0001065591706452653,2.8572683259983277e-05,5.463081084192241e-06,-0.05349236189556777,0.004847536237268655,0.009694456765776644,0.0,0.0,0.0,0.0,0.0,0.0,0.0,0.0,0.0,0.0
0.12693309783935547,0.0660104900598526,-0.0865502879023552,0.07795976847410202,-8.234349281522924e-05,2.7932922113959106e-05,-7.908003664262649e-06,-0.0534048425342164,0.004943598726834885,0.009760174926066066,0.0,0.0,0.0,0.0,0.0,0.0,0.0,0.0,0.0,0.0
0.13739013671875,0.06600052118301392,-0.08655483275651932,0.07798632979393005,-6.600019404128596e-05,2.619348747738883e-05,-4.0386490364418514e-05,-0.053642538845409884,0.004851909951448434,0.009701771564121366,0.0,0.0,0.0,0.0,0.0,0.0,0.0,0.0,0.0,0.0
0.14785456657409668,0.06600864976644516,-0.08655175566673279,0.07796826958656311,-8.050150946387236e-05,1.771019186275648e-05,-3.800155672122556e-05,-0.05341695996524777,0.004825757622003839,0.009704388572395816,0.0,0.0,0.0,0.0,0.0,0.0,0.0,0.0,0.0,0.0
0.15837478637695312,0.06599966436624527,-0.08655687421560287,0.07799040526151657,-8.892242046537579e-05,3.585016947114985e-06,-7.202147029853081e-06,-0.053570223270404504,0.004794243864156074,0.009703991155175291,0.0,0.0,0.0,0.0,0.0,0.0,0.0,0.0,0.0,0.0
0.1688988208770752,0.06601199507713318,-0.0865456834435463,0.0779697373509407,-8.069435653560922e-05,2.7622611959316432e-06,2.443781725575906e-05,-0.053420914896615254,0.004905303020317629,0.009752404473240986,0.0,0.0,0.0,0.0,0.0,0.0,0.0,0.0,0.0,0.0
0.17927980422973633,0.06600706279277802,-0.08656098693609238,0.07797792553901672,-4.48679161530535e-05,5.612643140555038e-06,1.8757252898776306e-05,-0.0534415848356471,0.004964457129253946,0.009654819293557687,0.0,0.0,0.0,0.0,0.0,0.0,0.0,0.0,0.0,0.0
0.1903820037841797,0.06601334363222122,-0.08655895292758942,0.07797711342573166,-3.016275107787445e-06,-3.271915028485496e-05,4.284030412708622e-06,-0.05343881320323317,0.004925873567391606,0.009712254832233968,0.0,0.0,0.0,0.0,0.0,0.0,0.0,0.0,0.0,0.0
0.2008039951324463,0.06602461636066437,-0.08655904233455658,0.07796347141265869,6.186329574069e-05,-7.170384879798905e-05,-2.0601609309318537e-05,-0.05364345295464053,0.0048747783027173796,0.009601195561401543,0.0,0.0,0.0,0.0,0.0,0.0,0.0,0.0,0.0,0.0
0.2113633155822754,0.06599729508161545,-0.08656027168035507,0.07798454165458679,0.00010235522957595867,-9.275526280401395e-05,-5.0338776779931296e-05,-0.053414160400344815,0.0048489029004399374,0.009688417918345784,0.0,0.0,0.0,0.0,0.0,0.0,0.0,0.0,0.0,0.0
0.22186565399169922,0.06601407378911972,-0.08656952530145645,0.07797280699014664,6.181076413201312e-05,-0.00012042664318679491,-2.9170740055666397e-05,-0.05338949752929696,0.004836917483207514,0.009670118492148314,0.0,0.0,0.0,0.0,0.0,0.0,0.0,0.0,0.0,0.0
0.23223662376403809,0.0660172551870346,-0.08655031770467758,0.07797784358263016,5.045852222353988e-05,-0.00012560826116746134,-8.017466397948607e-06,-0.053418377072519015,0.004997655694120776,0.009639116741378323,0.0,0.0,0.0,0.0,0.0,0.0,0.0,0.0,0.0,0.0
0.24280786514282227,0.06601676344871521,-0.0865728035569191,0.07797566801309586,8.93060612759571e-05,-0.00010864025082606668,-2.162132769239158e-06,-0.053287545462152336,0.004791557308101401,0.009633952482261593,0.0,0.0,0.0,0.0,0.0,0.0,0.0,0.0,0.0,0.0
0.25316524505615234,0.06601563096046448,-0.08656671643257141,0.07796725630760193,0.00010320953366342729,-0.00012185436117287664,-1.4049137656304253e-05,-0.05338296066218234,0.0048939273542543205,0.009664720194580917,0.0,0.0,0.0,0.0,0.0,0.0,0.0,0.0,0.0,0.0
0.2635791301727295,0.06601588428020477,-0.08654892444610596,0.07796797901391983,0.00010086172708421106,-0.000107218435136677,-5.8650927173082155e-05,-0.05332326348822203,0.005000403963103441,0.009673496775483821,0.0,0.0,0.0,0.0,0.0,0.0,0.0,0.0,0.0,0.0
0.2745237350463867,0.06602077186107635,-0.08657671511173248,0.07797758281230927,0.0001074499604279912,-6.232899975779233e-05,-8.403084038208153e-05,-0.05333442862865641,0.004903709516013949,0.009669395744344842,0.0,0.0,0.0,0.0,0.0,0.0,0.0,0.0,0.0,0.0
0.2848820686340332,0.06602425128221512,-0.08657128363847733,0.07796482741832733,0.0001138628583294746,-8.244314501900463e-05,-6.751295295929667e-05,-0.053274259954600965,0.005049216993734444,0.009689262977215845,0.0,0.0,0.0,0.0,0.0,0.0,0.0,0.0,0.0,0.0
0.29535889625549316,0.06601729243993759,-0.08657069504261017,0.07796785235404968,0.00012661303881963894,-0.0001256437946295354,-8.5343675934364e-05,-0.05324272599843402,0.004965047324069078,0.009682566833047862,0.0,0.0,0.0,0.0,0.0,0.0,0.0,0.0,0.0,0.0
0.3059215545654297,0.06602338701486588,-0.08654125034809113,0.07798202335834503,0.00011473704183292773,-6.699626242751442e-05,-7.418810498844834e-05,-0.05321394668618027,0.004952555596943647,0.00971864608574206,0.0,0.0,0.0,0.0,0.0,0.0,0.0,0.0,0.0,0.0
0.31635332107543945,0.06602591276168823,-0.08656657487154007,0.07800491154193878,0.00010982354189273288,4.6998638433553365e-05,5.35259562803196e-05,-0.05324440540756227,0.00495294175764676,0.009708846455278253,0.0,0.0,0.0,0.0,0.0,0.0,0.0,0.0,0.0,0.0
0.3269331455230713,0.0660211443901062,-0.08656229823827744,0.07797183096408844,0.0001148357785243774,7.973987336364517e-05,0.000188994215143828,-0.05328944406563578,0.004980215605063846,0.009713166753407934,0.0,0.0,0.0,0.0,0.0,0.0,0.0,0.0,0.0,0.0
0.3375070095062256,0.06602990627288818,-0.08655589818954468,0.07795978337526321,0.00010971681225403437,7.008382664295359e-05,0.0001404002676166085,-0.053255357403623534,0.0049892578084400245,0.009714013272981345,0.0,0.0,0.0,0.0,0.0,0.0,0.0,0.0,0.0,0.0
0.34795689582824707,0.06602731347084045,-0.08657825738191605,0.07798091322183609,0.00011573639731744353,4.532238563259943e-05,2.1830454337624302e-05,-0.05332130602322671,0.004967893796936774,0.009673501611264287,0.0,0.0,0.0,0.0,0.0,0.0,0.0,0.0,0.0,0.0
0.35839390754699707,0.06601148843765259,-0.08656740188598633,0.07797890901565552,8.497025159242861e-05,-3.0504904973222097e-05,6.265526181901541e-06,-0.05322769885373471,0.004884122962940859,0.009634422232006884,0.0,0.0,0.0,0.0,0.0,0.0,0.0,0.0,0.0,0.0
0.36877942085266113,0.06601854413747787,-0.0865693911910057,0.07796671241521835,1.8814056156315647e-06,-8.024640405930708e-05,5.9980700123983616e-06,-0.05323751154314962,0.004995710759437999,0.009635832134355097,0.0,0.0,0.0,0.0,0.0,0.0,0.0,0.0,0.0,0.0
0.3792119026184082,0.06600839644670486,-0.08656615018844604,0.07798340171575546,-7.510242470720033e-05,-8.465786441480448e-05,-1.4992198622154822e-05,-0.05331753825168741,0.004979950078803126,0.009682390074995688,0.0,0.0,0.0,0.0,0.0,0.0,0.0,0.0,0.0,0.0
0.39000630378723145,0.06602386385202408,-0.08657125383615494,0.07797469198703766,-0.0001201622930383105,-8.570113756170558e-05,-8.020370249994995e-07,-0.05325474644484768,0.004837081080510913,0.009715292236290893,0.0,0.0,0.0,0.0,0.0,0.0,0.0,0.0,0.0,0.0
0.40036916732788086,0.06601656973361969,-0.08655911684036255,0.07797648757696152,-9.912187922981753e-05,-5.868199363142913e-05,1.1083297219627103e-05,-0.053416358169022723,0.004886163014892379,0.009626707734541924,0.0,0.0,0.0,0.0,0.0,0.0,0.0,0.0,0.0,0.0
0.4108591079711914,0.06602484732866287,-0.08656399697065353,0.07797103375196457,-6.612901016693736e-05,-1.0636120460217892e-05,-3.777834392275517e-06,-0.053412846492928726,0.004832517668229171,0.009586480995308243,0.0,0.0,0.0,0.0,0.0,0.0,0.0,0.0,0.0,0.0
0.42127394676208496,0.0660131648182869,-0.08656459301710129,0.07798013836145401,-4.3039441956511e-05,2.491842289921715e-05,-1.2644210008102352e-05,-0.05330347321000631,0.005120613144421334,0.009761930142392346,0.0,0.0,0.0,0.0,0.0,0.0,0.0,0.0,0.0,0.0
0.43164634704589844,0.0660208910703659,-0.0865713506937027,0.07797909528017044,-4.034988332629415e-05,1.827280637456623e-05,7.1752550042743595e-06,-0.05322726736466721,0.00496021074273078,0.00969553826505179,0.0,0.0,0.0,0.0,0.0,0.0,0.0,0.0,0.0,0.0
0.44214725494384766,0.06602835655212402,-0.08655787259340286,0.0779656171798706,-1.2556642712262444e-05,1.1279389379610433e-05,6.020368786917411e-06,-0.05357204681962099,0.004897245214261147,0.00968549739931525,0.0,0.0,0.0,0.0,0.0,0.0,0.0,0.0,0.0,0.0
0.45246100425720215,0.06602764129638672,-0.08654872328042984,0.07796920835971832,5.0961684279720386e-05,6.514281384981012e-05,-4.4860171872074116e-05,-0.053344868563837494,0.004917389066318419,0.009599694822493884,0.0,0.0,0.0,0.0,0.0,0.0,0.0,0.0,0.0,0.0
0.46283411979675293,0.06603267043828964,-0.0865451991558075,0.07796778529882431,0.00011006338118878985,0.00016778407225068718,-8.943514980491004e-05,-0.05344412511028329,0.004837355153868207,0.00957375913850679,0.0,0.0,0.0,0.0,0.0,0.0,0.0,0.0,0.0,0.0
0.4737997055053711,0.06602716445922852,-0.08655034750699997,0.07798682153224945,0.00016083868120729203,0.0002655868583180745,-7.786981350104146e-05,-0.053391793357711735,0.004922282742188394,0.009577763554743214,0.0,0.0,0.0,0.0,0.0,0.0,0.0,0.0,0.0,0.0
0.4841165542602539,0.06600329279899597,-0.08654564619064331,0.07799898833036423,9.249738494391792e-05,0.00025794353463279117,4.4724579324889216e-05,-0.053480275792323104,0.004949219682494632,0.009691810520097481,0.0,0.0,0.0,0.0,0.0,0.0,0.0,0.0,0.0,0.0
0.49457526206970215,0.06599904596805573,-0.08655334264039993,0.07795973867177963,-6.769276347148796e-05,0.0002472197548965007,0.00012366832381846413,-0.05351850960844813,0.0048430599181619755,0.00968041315090694,0.0,0.0,0.0,0.0,0.0,0.0,0.0,0.0,0.0,0.0
0.50508713722229,0.06602369248867035,-0.08653803914785385,0.07797566801309586,-0.0001824203025601781,0.0002266593118924521,5.780440813130372e-05,-0.05356766769233948,0.004915734244092682,0.009652190245211273,0.0,0.0,0.0,0.0,0.0,0.0,0.0,0.0,0.0,0.0
0.5154743194580078,0.0660218819975853,-0.08654960244894028,0.07797394692897797,-0.00014453237857264573,0.0002114030663501428,-8.50223520434016e-06,-0.053414230564360045,0.004970997854213167,0.009700472654689457,0.0,0.0,0.0,0.0,0.0,0.0,0.0,0.0,0.0,0.0
0.5261051654815674,0.06600335240364075,-0.08654659986495972,0.07797140628099442,-0.00010949511026395379,0.00018361506890511207,-2.942537078184295e-05,-0.05349737896050269,0.004856541545931504,0.009682276708929245,0.0,0.0,0.0,0.0,0.0,0.0,0.0,0.0,0.0,0.0
0.5365781784057617,0.06602329015731812,-0.08655862510204315,0.0779726505279541,-0.00011048931060814724,0.00010367531125598751,-5.010298625973956e-05,-0.05348791953069112,0.004867457893705388,0.009719108078912042,0.0,0.0,0.0,0.0,0.0,0.0,0.0,0.0,0.0,0.0
0.5470113754272461,0.06600607186555862,-0.08654648065567017,0.07797251641750336,-9.362255461785123e-05,2.8677264587513313e-05,-5.908173076143021e-05,-0.05340804659596204,0.004925189814047427,0.009567763773704907,0.0,0.0,0.0,0.0,0.0,0.0,0.0,0.0,0.0,0.0
0.5581283569335938,0.06601810455322266,-0.08654467761516571,0.07795179635286331,-9.138278951030881e-05,9.471632967663222e-06,-0.00010990801780239373,-0.053416815529115085,0.0048876020949273295,0.009674222784381568,0.0,0.0,0.0,0.0,0.0,0.0,0.0,0.0,0.0,0.0
0.56856369972229,0.06602256745100021,-0.08653498440980911,0.07796665281057358,-4.5214601140442266e-05,4.7235250258280784e-05,-0.00016406353720172954,-0.05342719284798627,0.005045995163448465,0.009682781569154506,0.0,0.0,0.0,0.0,0.0,0.0,0.0,0.0,0.0,0.0
0.5791158676147461,0.066017284989357,-0.08655893057584763,0.07797355949878693,1.3537642474707286e-05,6.315832122156671e-05,-0.0001587716614156417,-0.053528310849662405,0.004894790920169736,0.009665631196376017,0.0,0.0,0.0,0.0,0.0,0.0,0.0,0.0,0.0,0.0
0.5896751880645752,0.066017284989357,-0.08654850721359253,0.07799503952264786,3.70645396880988e-05,8.946012640134032e-06,-3.4099322667713925e-05,-0.05369158580726774,0.005033880579197824,0.00966889262398865,0.0,0.0,0.0,0.0,0.0,0.0,0.0,0.0,0.0,0.0
0.6001365184783936,0.06600544601678848,-0.08654462546110153,0.07796676456928253,1.213454790939248e-05,-2.3734401292982558e-05,9.050557931890497e-05,-0.053404015481308895,0.0050313498575963195,0.009749735058682766,0.0,0.0,0.0,0.0,0.0,0.0,0.0,0.0,0.0,0.0
0.6107635498046875,0.06602877378463745,-0.0865539088845253,0.0779799371957779,-5.705845808242101e-06,-2.4058203404737815e-05,0.0001174039102866935,-0.05358988030854972,0.004854541094412185,0.009618914555505278,0.0,0.0,0.0,0.0,0.0,0.0,0.0,0.0,0.0,0.0
0.621232271194458,0.0660180002450943,-0.08655668795108795,0.07797437906265259,3.2750913556316204e-05,-5.703518760817483e-05,0.00010282684009640098,-0.05354086794701037,0.0048578030622433615,0.009695747608960978,0.0,0.0,0.0,0.0,0.0,0.0,0.0,0.0,0.0,0.0
0.6316244602203369,0.06603389978408813,-0.08653843402862549,0.07795289158821106,8.92894702874521e-05,-6.47286586558716e-05,4.4902087011817075e-05,-0.05354433442984853,0.005089131476322398,0.009680289057879939,0.0,0.0,0.0,0.0,0.0,0.0,0.0,0.0,0.0,0.0
0.6424179077148438,0.06601957231760025,-0.08655435591936111,0.07794811576604843,0.00014127747617892014,-2.853469244196862e-05,-0.00011125403948556722,-0.053261004896620924,0.005057879530394455,0.009739213012741211,0.0,0.0,0.0,0.0,0.0,0.0,0.0,0.0,0.0,0.0
0.6528699398040771,0.06601989269256592,-0.08655659109354019,0.07796555012464523,0.00012400811899845705,-3.172502828011572e-05,-0.0002170384643446553,-0.053382603583212625,0.004983443387102671,0.009584041003409155,0.0,0.0,0.0,0.0,0.0,0.0,0.0,0.0,0.0,0.0
0.6633055210113525,0.0660124123096466,-0.08656280487775803,0.0779724270105362,6.352361151534636e-05,-8.6416336246585e-05,-0.00019012467958805625,-0.05348633657627614,0.004917828606642305,0.009675697866139603,0.0,0.0,0.0,0.0,0.0,0.0,0.0,0.0,0.0,0.0
0.6740560531616211,0.06602903455495834,-0.08656509965658188,0.07796065509319305,2.4816555090096834e-05,-0.0001562747855267944,-0.0001225836872985127,-0.05343151218882516,0.0050731244779668875,0.009731443615428773,0.0,0.0,0.0,0.0,0.0,0.0,0.0,0.0,0.0,0.0
0.6845026016235352,0.06601941585540771,-0.08655958622694016,0.0779680460691452,2.8387259826445137e-05,-0.0001844674004389187,-7.793000551714973e-05,-0.05346280552545393,0.004941695434414576,0.009603393240879938,0.0,0.0,0.0,0.0,0.0,0.0,0.0,0.0,0.0,0.0
0.6950938701629639,0.06601476669311523,-0.0865677148103714,0.07796879857778549,1.357669838527914e-05,-0.00019383215751088545,-3.962880701230821e-05,-0.05328993542583732,0.005002162086025395,0.009661920916101938,0.0,0.0,0.0,0.0,0.0,0.0,0.0,0.0,0.0,0.0
0.7055709362030029,0.06601756066083908,-0.08655571192502975,0.07796826213598251,-3.0813587034481536e-05,-0.00017329708036426601,6.68478213066737e-06,-0.05329877201507442,0.004967342527867524,0.009672658246765668,0.0,0.0,0.0,0.0,0.0,0.0,0.0,0.0,0.0,0.0
0.7160446643829346,0.06600858271121979,-0.08656052500009537,0.07796705514192581,-7.243300555458158e-05,-0.00012423975440735468,3.144702852023869e-05,-0.0534606013314337,0.004878440098489058,0.009619345070383206,0.0,0.0,0.0,0.0,0.0,0.0,0.0,0.0,0.0,0.0
0.7265217304229736,0.06600525975227356,-0.08655466139316559,0.07797232270240784,-0.00013086042102198242,-6.550983500529425e-05,4.910768630897559e-05,-0.05336488811696706,0.004912304340185099,0.009703473093546031,0.0,0.0,0.0,0.0,0.0,0.0,0.0,0.0,0.0,0.0
0.7372109889984131,0.06602780520915985,-0.08656507730484009,0.07797569781541824,-0.00014757167027677824,-3.0942248458790586e-05,8.513722923339211e-05,-0.0533502514253026,0.00492523635343098,0.009668819358924236,0.0,0.0,0.0,0.0,0.0,0.0,0.0,0.0,0.0,0.0
0.7476305961608887,0.06600113213062286,-0.08656393736600876,0.07796403020620346,-0.00010617664008535163,-3.2718116913628986e-05,9.48334569554758e-05,-0.053354266620788376,0.004855078640919006,0.009642793993234016,0.0,0.0,0.0,0.0,0.0,0.0,0.0,0.0,0.0,0.0
0.7581408023834229,0.0660206601023674,-0.0865580290555954,0.07797292619943619,-0.00010116142934078734,-3.674891470665219e-05,7.283965897490703e-05,-0.05328485945055515,0.0050115666193867895,0.009694371624453498,0.0,0.0,0.0,0.0,0.0,0.0,0.0,0.0,0.0,0.0
0.768463134765625,0.06599641591310501,-0.08657244592905045,0.07799401879310608,-0.00011044451875708182,-3.802654286639862e-05,0.00010584784747034358,-0.05347513712534842,0.004918747207399237,0.009653892968922722,0.0,0.0,0.0,0.0,0.0,0.0,0.0,0.0,0.0,0.0
0.778980016708374,0.06602291017770767,-0.08656876534223557,0.0779733881354332,-0.00011914769071952539,-7.872132158352428e-05,0.0001882662761470654,-0.05341812810132034,0.004944012787579596,0.009718944098858668,0.0,0.0,0.0,0.0,0.0,0.0,0.0,0.0,0.0,0.0
0.7900457382202148,0.06601781398057938,-0.08656595647335052,0.0779644027352333,-6.914887356964412e-05,-0.00011598997531516879,0.00017737527792209524,-0.05329204957251608,0.004947602878958675,0.009666545741494408,0.0,0.0,0.0,0.0,0.0,0.0,0.0,0.0,0.0,0.0
0.8004288673400879,0.06601591408252716,-0.08655460923910141,0.07797663658857346,7.604092676394406e-06,-6.843764718175698e-05,7.609114252628282e-05,-0.05339976237083605,0.004972552402200666,0.009672786155802861,0.0,0.0,0.0,0.0,0.0,0.0,0.0,0.0,0.0,0.0
0.8109087944030762,0.06601327657699585,-0.08654733747243881,0.0779678225517273,2.727969734557457e-05,2.7623828623896284e-05,3.3342210400801674e-05,-0.05347859847121175,0.004918363360811618,0.009703257935064274,0.0,0.0,0.0,0.0,0.0,0.0,0.0,0.0,0.0,0.0
0.8215227127075195,0.06601826846599579,-0.08656040579080582,0.07797671854496002,3.324410447614446e-05,0.00011595611642573913,1.0317387395673442e-05,-0.05363649796245151,0.004999971074737528,0.009716663880709374,0.0,0.0,0.0,0.0,0.0,0.0,0.0,0.0,0.0,0.0
0.8319299221038818,0.06601336598396301,-0.08655020594596863,0.07796697318553925,3.7249269458557526e-05,0.00013786483817666986,-7.35378755008971e-06,-0.053533206326533626,0.004788658580016809,0.0096801047854132,0.0,0.0,0.0,0.0,0.0,0.0,0.0,0.0,0.0,0.0
0.842393159866333,0.06600658595561981,-0.0865723267197609,0.07799507677555084,1.3249445329543012e-05,0.00011313126575180661,1.8341208869836438e-05,-0.05350833243182652,0.004817108689019346,0.009648187825347114,0.0,0.0,0.0,0.0,0.0,0.0,0.0,0.0,0.0,0.0
0.8527994155883789,0.06600992381572723,-0.08654395490884781,0.07797713577747345,-3.4411972255337884e-05,7.471637691356998e-05,9.125133395636407e-05,-0.05357838406972406,0.004809907049153534,0.009617792130480116,0.0,0.0,0.0,0.0,0.0,0.0,0.0,0.0,0.0,0.0
0.8631837368011475,0.06601355224847794,-0.08654580265283585,0.07795752584934235,-5.3777464876745135e-05,0.00011252835513765948,7.197200070679444e-05,-0.05348256751808523,0.004783933291447974,0.009692001913379005,0.0,0.0,0.0,0.0,0.0,0.0,0.0,0.0,0.0,0.0
0.8741090297698975,0.06601500511169434,-0.08654802292585373,0.07799665629863739,-4.017933808300255e-05,0.00018944841872121736,1.4731930072631028e-05,-0.05352372701832444,0.0048098700200159515,0.00959764573631729,0.0,0.0,0.0,9.0,9.0,10066.0,19629.0,0.0,0.0,0.0
0.8845200538635254,0.06602045893669128,-0.08654946088790894,0.07796533405780792,1.7273488590869181e-06,0.0001801887589463309,2.5995588054600224e-05,-0.05367649390944507,0.004805177196902486,0.009748044847630963,0.0,0.0,0.0,9.0,9.0,10068.0,19629.0,0.0,0.0,0.0
0.8950104713439941,0.06601321697235107,-0.08655230700969696,0.07798536121845245,3.688683843192009e-05,0.00015398585157336273,2.1492090481852893e-05,-0.05350346967723131,0.004879901342016064,0.009706420762836019,0.0,0.0,0.0,9.0,9.0,10067.0,19629.0,0.0,0.0,0.0
0.9055345058441162,0.06602945178747177,-0.08655775338411331,0.07797182351350784,7.114839565007251e-05,9.686927979866186e-05,6.275399198190993e-06,-0.053544231991749305,0.004774925578266733,0.009605692904978227,0.0,0.0,0.0,9.0,9.0,10068.0,19629.0,0.0,0.0,0.0
0.9158928394317627,0.06602253019809723,-0.08654553443193436,0.07797234505414963,0.00012098729166180388,4.772990896994516e-05,-1.7036668032419673e-05,-0.053593507765177864,0.0049762699996039605,0.009669808247159153,0.0,0.0,0.0,9.0,9.0,10066.0,19629.0,0.0,0.0,0.0
0.926342248916626,0.0660175085067749,-0.08656153082847595,0.07797890901565552,0.00013962453930917336,2.1288998722624658e-05,-4.2855363467707045e-05,-0.05348751525167292,0.0049534825712978505,0.009717627970340028,0.0,0.0,0.0,9.0,9.0,10067.0,19629.0,0.0,0.0,0.0
0.9366946220397949,0.06600628793239594,-0.08655009418725967,0.07797541469335556,7.779746082099173e-05,-1.4463773305713638e-05,-3.358197990409575e-05,-0.053581291731433486,0.004882109887199887,0.009664391860869063,0.0,0.0,0.0,9.0,9.0,10065.0,19629.0,0.0,0.0,0.0
0.9470880031585693,0.06599515676498413,-0.08656231313943863,0.07798003405332565,-4.628410805849892e-05,-4.6591893105556356e-05,-1.6875513184517796e-05,-0.05353139292046667,0.004859105403348274,0.009738070779877744,0.0,0.0,0.0,9.0,9.0,10067.0,19629.0,0.0,0.0,0.0
0.9575562477111816,0.06601565331220627,-0.08655165880918503,0.07798410207033157,-0.0001499310013929022,-6.853929122729239e-05,1.568549691605863e-05,-0.053635826477628816,0.004852587722158668,0.009625682116391079,0.0,0.0,0.0,9.0,9.0,10065.0,19629.0,0.0,0.0,0.0
0.9679124355316162,0.06626451015472412,-0.08605252951383591,0.0770140141248703,0.0003772012887692971,0.0009750659445380722,-0.0019436615185398163,-0.024932034200674986,-0.00823303563619683,0.005638205569006569,0.0,0.0,0.0,9.0,9.0,10066.0,19629.0,0.0,0.0,0.0
0.9786369800567627,0.06600543111562729,-0.08656351268291473,0.07796614617109299,0.0013005682792352586,0.0027669256661415173,-0.005413469091537762,-0.053465496792199425,0.004933828646848721,0.00972506299169169,0.0,0.0,0.0,9.0,9.0,10064.0,19628.0,0.0,0.0,0.0
0.9895763397216797,0.06598948687314987,-0.08656410872936249,0.07798296213150024,0.0011961508021874107,0.0026061638797811966,-0.005234404942017738,-0.05347324543955754,0.004951535756218393,0.009778361900449721,0.0,0.0,0.0,9.0,9.0,10066.0,19629.0,0.0,0.0,0.0
1.000030517578125,0.06599962711334229,-0.08657355606555939,0.07797782868146896,0.0003468863274529123,0.0009747557620614763,-0.0021807132993652764,-0.0534500870089384,0.004797758153665117,0.009791900423610009,0.0,0.0,0.0,9.0,9.0,10066.0,19629.0,0.0,0.0,0.0
1.0106887817382812,0.06601343303918839,-0.0865582600235939,0.07796163111925125,-0.00012168288311223017,-1.314086491960607e-05,-0.0003682441022710777,-0.053582650026921086,0.004986969862803669,0.009696688164343659,0.0,0.0,0.0,9.0,9.0,10065.0,19629.0,0.0,0.0,0.0
1.0211591720581055,0.066010981798172,-0.0865604430437088,0.0779869481921196,-0.00032610971163205986,-0.0005924150243032688,0.0007954402488396497,-0.05341758625126849,0.004874113220110128,0.009673330642413406,0.0,0.0,0.0,9.0,9.0,10066.0,19629.0,0.0,0.0,0.0
1.0316193103790283,0.06600223481655121,-0.0865698978304863,0.07797073572874069,-0.0004271986763854134,-0.0008993344767838481,0.0014834181604043183,-0.05333841775075433,0.005045159763159549,0.009660146597677879,0.0,0.0,0.0,9.0,9.0,10066.0,19629.0,0.0,0.0,0.0
1.0421438217163086,0.06601019948720932,-0.08656150102615356,0.0779789388179779,-0.00048404110878367016,-0.0010522025640846001,0.0018087363358299706,-0.05343769087502376,0.0049333568927397865,0.00963986627199041,0.0,0.0,0.0,9.0,9.0,10066.0,19629.0,0.0,0.0,0.0
1.0525624752044678,0.06601686775684357,-0.08656641840934753,0.07798317819833755,-0.00043726409407306567,-0.001026036919361628,0.0018200989917335252,-0.05342565890629894,0.004850926552261057,0.009605276289494504,0.0,0.0,0.0,9.0,9.0,10066.0,19629.0,0.0,0.0,0.0
1.063131332397461,0.06602495163679123,-0.08657460659742355,0.07797575742006302,-0.0003227981670070872,-0.000976542725466542,0.0017525030914973328,-0.05335495082077659,0.004961982483413237,0.009649441453136936,0.0,0.0,0.0,9.0,9.0,10066.0,19629.0,0.0,0.0,0.0
1.0737988948822021,0.06600809842348099,-0.0865735411643982,0.07798030227422714,-0.00020600994792232315,-0.0008999629878441574,0.0015385086062182423,-0.05342176920223169,0.004791666786089098,0.009667095868781348,0.0,0.0,0.0,9.0,9.0,10066.0,19629.0,0.0,0.0,0.0
1.0842149257659912,0.06600277870893478,-0.08658043295145035,0.07799582928419113,-0.00016964638505029622,-0.000756275409917613,0.0012321763767028464,-0.05346845487145308,0.004837308207316625,0.009618161895627931,0.0,0.0,0.0,9.0,9.0,10066.0,19629.0,0.0,0.0,0.0
1.0948047637939453,0.06600283831357956,-0.08655522763729095,0.07799017429351807,-0.00019950219906090467,-0.0006163255556923425,0.0010655185259885766,-0.05329853455199334,0.0049889476995457725,0.009632131548933713,0.0,0.0,0.0,9.0,9.0,10066.0,19629.0,0.0,0.0,0.0
1.105278491973877,0.0660211443901062,-0.08655476570129395,0.07798581570386887,-0.00016625835805678845,-0.00036039589573084736,0.000827357636343727,-0.05326978027166162,0.004936137078244833,0.009659788443294405,0.0,0.0,0.0,9.0,9.0,10067.0,19629.0,0.0,0.0,0.0
1.115654706954956,0.06622094660997391,-0.08605201542377472,0.07729262113571167,0.0003577037139394813,0.0009207089540099571,-0.0008555928177960356,-0.024932034200674986,-0.00823303563619683,0.005638205569006569,0.0,0.0,0.0,9.0,9.0,10068.0,19629.0,0.0,0.0,0.0
1.1262211799621582,0.06600043922662735,-0.08657390624284744,0.07798290252685547,0.0011041184367056411,0.0027465846837860133,-0.0034081020989839097,-0.05328434830645355,0.0048722929167905535,0.009745861308009515,0.0,0.0,0.0,9.0,9.0,10068.0,19629.0,0.0,0.0,0.0
1.1367685794830322,0.0660049095749855,-0.0865822434425354,0.07799532264471054,0.0009731643512239844,0.0024836264760325372,-0.0032310026227709947,-0.05330949672891816,0.004946242406672912,0.009668274018765933,0.0,0.0,0.0,9.0,9.0,10066.0,19629.0,0.0,0.0,0.0
1.1471693515777588,0.06601085513830185,-0.08658040314912796,0.07798874378204346,0.00036711937432854674,0.0009553441257518939,-0.0013223701798043353,-0.05335036517921524,0.004884299088492977,0.009698703858858574,0.0,0.0,0.0,9.0,9.0,10068.0,19629.0,0.0,0.0,0.0
1.1577532291412354,0.06599932909011841,-0.08657761663198471,0.07796988636255264,-2.0600170567209593e-05,-5.430672046812402e-05,-0.00010234826511270432,-0.05335235943518478,0.004892236647925193,0.009665442653626583,0.0,0.0,0.0,9.0,9.0,10068.0,19629.0,0.0,0.0,0.0
1.1681456565856934,0.06602337211370468,-0.08656983822584152,0.07797805964946747,-0.0002456469500286826,-0.0006482384496558377,0.0006025384518754015,-0.05343271618106493,0.004963180168072393,0.009725113461698876,0.0,0.0,0.0,9.0,9.0,10068.0,19629.0,0.0,0.0,0.0
1.1787221431732178,0.06600236892700195,-0.08658456057310104,0.07798053324222565,-0.00034340927182197577,-0.0009883202057951372,0.0010223414159018299,-0.05345916121822144,0.00485812760942331,0.009639410948371957,0.0,0.0,0.0,9.0,9.0,10068.0,19629.0,0.0,0.0,0.0
1.189467191696167,0.06600555777549744,-0.08657602220773697,0.07798127084970474,-0.0004110642649899714,-0.0011604870832766696,0.0012464175644945788,-0.053406258042931545,0.004848530090837422,0.009685220865010507,0.0,0.0,0.0,9.0,9.0,10068.0,19629.0,0.0,0.0,0.0
1.1999685764312744,0.06601051241159439,-0.08657629787921906,0.07798071205615997,-0.0004135043777904431,-0.0010953112648011422,0.0012117263135154395,-0.053333740668198855,0.004881920363583489,0.009718028814597848,0.0,0.0,0.0,9.0,9.0,10069.0,19630.0,0.0,0.0,0.0
1.210505485534668,0.06600175052881241,-0.08655805140733719,0.07798740267753601,-0.000381895923238221,-0.0009376777672816516,0.0011336764145990796,-0.053435309772120056,0.004827999790218612,0.00963883770007514,0.0,0.0,0.0,9.0,9.0,10068.0,19629.0,0.0,0.0,0.0
1.2210988998413086,0.06600064039230347,-0.0865667536854744,0.07797890901565552,-0.0003588365868636765,-0.000701092399907098,0.0009988016612269236,-0.05335711204651637,0.004888153796049226,0.00968190083773466,0.0,0.0,0.0,9.0,9.0,10067.0,19629.0,0.0,0.0,0.0
1.2314691543579102,0.06599739193916321,-0.08658425509929657,0.07798775285482407,-0.0003277875819742742,-0.0005014102868371234,0.0007858258900879039,-0.05335306107002984,0.0046782258176011155,0.009660514320895947,0.0,0.0,0.0,9.0,9.0,10068.0,19629.0,0.0,0.0,0.0
1.241980791091919,0.06599251180887222,-0.08657903224229813,0.07800468057394028,-0.0003215647663722536,-0.0004387295943022262,0.0006771716988639775,-0.05348530028415712,0.004810957483473433,0.009548934030567698,0.0,0.0,0.0,9.0,9.0,10068.0,19629.0,0.0,0.0,0.0
1.252333402633667,0.06599382311105728,-0.08658859878778458,0.07795333862304688,-0.0003007831531996179,-0.0003782901104319053,0.0005043823126801412,-0.05351913004468052,0.004699752787160018,0.009846719416874464,0.0,0.0,0.0,9.0,9.0,10067.0,19629.0,0.0,0.0,0.0
1.262744426727295,0.06599648296833038,-0.08654715865850449,0.07798761129379272,-0.00026899627381867316,-0.00026138395128417243,0.000259041179025837,-0.05343890794982457,0.005040579464964825,0.009695757075700657,0.0,0.0,0.0,9.0,9.0,10067.0,19629.0,0.0,0.0,0.0
1.2735929489135742,0.06601288914680481,-0.08655411005020142,0.07797302305698395,-0.00019093706397690618,-2.781440238891558e-05,9.154432389222756e-05,-0.053408099179842135,0.004929541663919828,0.009685172268074693,0.0,0.0,0.0,9.0,9.0,10067.0,19629.0,0.0,0.0,0.0
1.2840609550476074,0.06601913273334503,-0.08654113113880157,0.07797697186470032,-2.0500985211791893e-05,0.00020938367507599686,-1.0998828122679214e-05,-0.053661884036875454,0.004877974373353888,0.009702923346070327,0.0,0.0,0.0,9.0,9.0,10067.0,19629.0,0.0,0.0,0.0
1.2945294380187988,0.06599792093038559,-0.08656536042690277,0.0779738575220108,9.582367337463603e-05,0.00032763766633590137,-9.032570722975062e-05,-0.05344687396293224,0.005002624851100917,0.009673681725260324,0.0,0.0,0.0,9.0,9.0,10067.0,19629.0,0.0,0.0,0.0
1.304992914199829,0.0660194531083107,-0.08654002845287323,0.07797028124332428,0.0001299184209329461,0.0003518983890404014,-0.00014436046935262643,-0.05354214507502093,0.004943577957383304,0.009700429666311215,0.0,0.0,0.0,9.0,9.0,10067.0,19629.0,0.0,0.0,0.0
1.3154208660125732,0.06600253283977509,-0.08655469119548798,0.07801046222448349,0.00014936959538383915,0.0003589415435004588,-0.00010257581945711844,-0.05351870834194527,0.004928040089910754,0.009726457206108634,0.0,0.0,0.0,9.0,9.0,10067.0,19629.0,0.0,0.0,0.0
1.3260753154754639,0.06599421799182892,-0.08656077086925507,0.07799571007490158,0.00011078262573962202,0.0003249725216673177,6.343055955546046e-05,-0.053661346223532316,0.004831988968737761,0.009718623224326808,0.0,0.0,0.0,9.0,9.0,10069.0,19630.0,0.0,0.0,0.0
1.336599349975586,0.06599610298871994,-0.08656299114227295,0.0779956504702568,5.564910473464928e-06,0.00019965025824538956,0.00018372813030458356,-0.05347313039786381,0.004783859248682738,0.009705028894518384,0.0,0.0,0.0,9.0,9.0,10068.0,19629.0,0.0,0.0,0.0
1.3470232486724854,0.0660066306591034,-0.08654864132404327,0.07799416035413742,-4.5653501929061436e-05,0.00011433145537523118,0.00020606477323504815,-0.053689115155119475,0.005010392947403293,0.009726346424697411,0.0,0.0,0.0,9.0,9.0,10066.0,19629.0,0.0,0.0,0.0
1.3575997352600098,0.06600558757781982,-0.08654207736253738,0.0779542401432991,-2.9111121592841047e-05,0.00012447885468716557,0.00011909693625964841,-0.05355780001546109,0.004874399333042658,0.009615560935057927,0.0,0.0,0.0,9.0,9.0,10069.0,19630.0,0.0,0.0,0.0
1.3679931163787842,0.06601537764072418,-0.08654458075761795,0.07797345519065857,2.2764185240475466e-05,0.0001655234361782299,-7.707468456432675e-05,-0.05354755240141517,0.0048946458585997586,0.009707601681011644,0.0,0.0,0.0,9.0,9.0,10068.0,19629.0,0.0,0.0,0.0
1.3784701824188232,0.06599221378564835,-0.08655935525894165,0.07797457277774811,4.4257629092983266e-05,0.00015421520506456637,-0.00019391589907906919,-0.0535574514180354,0.004939152604625991,0.00969334154829293,0.0,0.0,0.0,9.0,9.0,10069.0,19629.0,0.0,0.0,0.0
1.3892135620117188,0.06600438803434372,-0.08656170964241028,0.07798478752374649,2.8474481615031254e-06,6.355905241735176e-05,-0.00019234476238494727,-0.05342669932488197,0.004844493719963438,0.009696499660434673,0.0,0.0,0.0,9.0,9.0,10068.0,19629.0,0.0,0.0,0.0
1.3995997905731201,0.06601645797491074,-0.08656181395053864,0.07798082381486893,3.5397201141723594e-06,-4.286708427806214e-05,-0.00012349749883850233,-0.053692658795540825,0.004836725148379933,0.009667724175211669,0.0,0.0,0.0,9.0,9.0,10069.0,19630.0,0.0,0.0,0.0
1.4101459980010986,0.06601742655038834,-0.08655037730932236,0.07797444611787796,8.256665444888142e-05,-8.77142945466464e-05,-8.770015785176157e-05,-0.053459511769809884,0.004864650220391814,0.009731040661286801,0.0,0.0,0.0,9.0,9.0,10068.0,19629.0,0.0,0.0,0.0
1.4208767414093018,0.06600581109523773,-0.08657378703355789,0.07798611372709274,0.00013442653106907128,-0.0001114106294239746,-6.847866201146558e-05,-0.053501445074187005,0.004856514900404088,0.009656467429906373,0.0,0.0,0.0,9.0,9.0,10068.0,19629.0,0.0,0.0,0.0
1.431250810623169,0.06602296233177185,-0.08655323088169098,0.07795868813991547,0.00013487722052309435,-0.00013610287522480144,-6.853216064645953e-05,-0.05344981091360587,0.004794663932238577,0.009753836353410513,0.0,0.0,0.0,9.0,9.0,10068.0,19629.0,0.0,0.0,0.0
1.4418044090270996,0.06600487977266312,-0.08656972646713257,0.0779847651720047,0.00014328664261946544,-0.0001439855162461126,-0.00010503371900975491,-0.05351953234327564,0.004745959395954696,0.009672121877099706,0.0,0.0,0.0,9.0,9.0,10069.0,19630.0,0.0,0.0,0.0
1.4522678852081299,0.06601546704769135,-0.08655424416065216,0.07796932011842728,0.00011451044780874613,-0.00012455626832330718,-9.734529401985565e-05,-0.05332721049517424,0.00488094113206168,0.009683082703996454,0.0,0.0,0.0,9.0,9.0,10068.0,19629.0,0.0,0.0,0.0
1.4626553058624268,0.06601276993751526,-0.0865681916475296,0.0779777318239212,8.76802460689887e-05,-0.00010037207520422896,-7.674757311228628e-05,-0.053530427201869506,0.004801812303875464,0.009646698607491917,0.0,0.0,0.0,9.0,9.0,10069.0,19630.0,0.0,0.0,0.0
1.4736328125,0.06600259244441986,-0.08656515926122665,0.07798177003860474,6.049789004974331e-05,-0.00010713338203258633,-5.201648969197214e-05,-0.05344651546351342,0.004882829026064065,0.009680013902828953,0.0,0.0,0.0,9.0,9.0,10069.0,19630.0,0.0,0.0,0.0
1.4841160774230957,0.06602200120687485,-0.08656580746173859,0.07795793563127518,2.3983993454449866e-05,-0.00010567638824501888,-4.089815900189095e-05,-0.05342124135313114,0.004916813271617042,0.00972121614507513,0.0,0.0,0.0,9.0,9.0,10071.0,19630.0,0.0,0.0,0.0
1.4945518970489502,0.06600974500179291,-0.08657317608594894,0.07797940820455551,3.66838814148882e-05,-0.0001116965405006866,-7.884118048314189e-05,-0.053483291855357336,0.004865174795938978,0.009673068301908783,0.0,0.0,0.0,9.0,9.0,10070.0,19630.0,0.0,0.0,0.0
1.5049962997436523,0.06600063294172287,-0.08658517152070999,0.07799363881349564,1.1954031780534948e-05,-0.00016343968184308696,-2.6641830012128084e-05,-0.05346392867363471,0.004860714198204119,0.009721531982061625,0.0,0.0,0.0,9.0,9.0,10070.0,19630.0,0.0,0.0,0.0
1.5153794288635254,0.06602179259061813,-0.08656034618616104,0.07796741276979446,-2.3622088530095227e-05,-0.00019302357346425252,5.708368048912433e-05,-0.05339159762189812,0.00497219982895376,0.009769805491026991,0.0,0.0,0.0,9.0,9.0,10069.0,19630.0,0.0,0.0,0.0
1.526031732559204,0.0660107359290123,-0.08655395358800888,0.07797829806804657,2.4740506947586567e-06,-0.00011026770017612749,4.987755520731571e-05,-0.0535254875447875,0.004874769941155727,0.009635692168951474,0.0,0.0,0.0,9.0,9.0,10070.0,19630.0,0.0,0.0,0.0
1.5364627838134766,0.06601304560899734,-0.08656954020261765,0.07796990126371384,2.216827279996634e-05,3.7495979224863277e-06,1.0384607115465906e-05,-0.05352159844955438,0.004839172889792791,0.009577359656884846,0.0,0.0,0.0,9.0,9.0,10069.0,19629.0,0.0,0.0,0.0
1.5468673706054688,0.06601593643426895,-0.08655420690774918,0.07797093689441681,2.549566646627874e-05,5.2368980867867584e-05,-2.4525416232024114e-05,-0.053378128374206656,0.004939800401468002,0.00972922596474572,0.0,0.0,0.0,9.0,9.0,10068.0,19629.0,0.0,0.0,0.0
1.5575182437896729,0.06601662933826447,-0.08657386153936386,0.07798083126544952,4.5417003002218797e-05,7.270057245722086e-05,-3.890634023882598e-05,-0.053449115062111384,0.004902395116789863,0.00964150256638074,0.0,0.0,0.0,9.0,9.0,10069.0,19630.0,0.0,0.0,0.0
1.5679678916931152,0.06621159613132477,-0.08603814244270325,0.0770142450928688,0.0004659353632168049,0.0011411803262564846,-0.002011041691518524,-0.024932034200674986,-0.00823303563619683,0.005638205569006569,0.0,0.0,0.0,9.0,9.0,10069.0,19629.0,0.0,0.0,0.0
1.5783946514129639,0.06600795686244965,-0.08656265586614609,0.07798168063163757,0.0010749609555083686,0.002800502374563236,-0.005043647337820086,-0.05351808650367076,0.00483698286682785,0.00966272739554586,0.0,0.0,0.0,9.0,9.0,10068.0,19629.0,0.0,0.0,0.0
1.5889296531677246,0.06602159142494202,-0.08656877279281616,0.07795856893062592,0.0009705477408541924,0.0025716736928008354,-0.0046386002583053525,-0.05345383852058778,0.005116049571856719,0.009689589688280103,0.0,0.0,0.0,9.0,9.0,10069.0,19630.0,0.0,0.0,0.0
1.5993211269378662,0.06600082665681839,-0.0865468755364418,0.0779709666967392,0.0003810451975711908,0.0010569666067517037,-0.0018995706935589654,-0.05345899238070403,0.005053048557084342,0.009654442545836419,0.0,0.0,0.0,9.0,9.0,10068.0,19629.0,0.0,0.0,0.0
1.609966516494751,0.06599630415439606,-0.08656582981348038,0.07797231525182724,-7.766438352178698e-05,9.695825772702561e-05,-8.235170627204002e-05,-0.05347228891043558,0.004940758182042036,0.009687282582122429,0.0,0.0,0.0,9.0,9.0,10069.0,19630.0,0.0,0.0,0.0
1.6206095218658447,0.06598791480064392,-0.08658158034086227,0.07800214737653732,-0.0004491962635873078,-0.0006069758874827723,0.0012082262828677674,-0.05350563308967236,0.004873693266640762,0.00960012293901652,0.0,0.0,0.0,9.0,9.0,10069.0,19630.0,0.0,0.0,0.0
1.631023645401001,0.06599746644496918,-0.0865773856639862,0.07799658179283142,-0.0006402175988222914,-0.0010485727756092973,0.001946328891078257,-0.05351772893503071,0.004813439609926767,0.009584022550073018,0.0,0.0,0.0,9.0,9.0,10069.0,19630.0,0.0,0.0,0.0
1.641491174697876,0.06601481139659882,-0.08655109256505966,0.07796916365623474,-0.000662602045774347,-0.0012202039487425908,0.002270303675385908,-0.053520142008462515,0.004881349642048157,0.00958629977769885,0.0,0.0,0.0,9.0,9.0,10069.0,19630.0,0.0,0.0,0.0
1.651864767074585,0.06600740551948547,-0.0865652859210968,0.0779697448015213,-0.000530004320298156,-0.001109414874435353,0.002106527819902312,-0.05352933678396292,0.005044437526821151,0.009722603605343685,0.0,0.0,0.0,9.0,9.0,10068.0,19629.0,0.0,0.0,0.0
1.6624305248260498,0.06600229442119598,-0.08657501637935638,0.07796408981084824,-0.0004265494914077573,-0.001013141909216113,0.001838136855744531,-0.053634420334871334,0.004807420907671964,0.0096519612314999,0.0,0.0,0.0,9.0,9.0,10069.0,19630.0,0.0,0.0,0.0
1.6732287406921387,0.06599690765142441,-0.086553193628788,0.07799232751131058,-0.0003755230079201863,-0.000900467519226537,0.0015588931790968118,-0.05345915136948817,0.004910698909492183,0.009673038958872235,0.0,0.0,0.0,9.0,9.0,10068.0,19629.0,0.0,0.0,0.0
1.6835927963256836,0.06599916517734528,-0.0865582749247551,0.07797512412071228,-0.0003051517681182514,-0.0006154793414077687,0.0011791076118395508,-0.053468340933713145,0.004990569011760365,0.009684824687495592,0.0,0.0,0.0,9.0,9.0,10068.0,19629.0,0.0,0.0,0.0
1.6941452026367188,0.06600017100572586,-0.0865551009774208,0.07798583060503006,-0.0002585750620820183,-0.00040637283613917147,0.000944074979110785,-0.05358469604392409,0.004904247240672184,0.009715347257747657,0.0,0.0,0.0,9.0,9.0,10069.0,19629.0,0.0,0.0,0.0
1.704620599746704,0.066009521484375,-0.08656704425811768,0.07797878980636597,-0.0001693986302302849,-0.00024629753245371396,0.000674165009448277,-0.05340819999067116,0.004835128850703437,0.009719919140242294,0.0,0.0,0.0,9.0,9.0,10069.0,19630.0,0.0,0.0,0.0
1.7150094509124756,0.06622312217950821,-0.08604812622070312,0.07700161635875702,0.0003837329077111835,0.0009064205738679843,-0.0015842183849767355,-0.024932034200674986,-0.00823303563619683,0.005638205569006569,0.0,0.0,0.0,9.0,9.0,10069.0,19630.0,0.0,0.0,0.0
1.7255191802978516,0.06599968671798706,-0.08655791729688644,0.07797136902809143,0.0011660574129643182,0.002683827002843633,-0.00503547467365847,-0.05353762189149364,0.004888028200729847,0.009685552404021504,0.0,0.0,0.0,9.0,9.0,10069.0,19630.0,0.0,0.0,0.0
1.7358717918395996,0.06602133065462112,-0.08653657883405685,0.07797908037900925,0.0010824849709022656,0.002492422729365211,-0.004603737129770356,-0.053576756410830595,0.00501363450302966,0.009612476457882673,0.0,0.0,0.0,9.0,9.0,10070.0,19630.0,0.0,0.0,0.0
1.7462797164916992,0.06600306183099747,-0.08655720949172974,0.07798660546541214,0.0005564572692813277,0.0012171245412251567,-0.002008601077801304,-0.05375704772530994,0.004844309845969709,0.009699265696017492,0.0,0.0,0.0,9.0,9.0,10070.0,19630.0,0.0,0.0,0.0
1.7570171356201172,0.06601286679506302,-0.08656155318021774,0.07798942178487778,0.00016965845997605114,0.0002598753215384761,-0.0001306950402291347,-0.053500251778970054,0.005005934080268411,0.00982371910125734,0.0,0.0,0.0,9.0,9.0,10069.0,19630.0,0.0,0.0,0.0
1.767408847808838,0.06600745767354965,-0.08656027913093567,0.07797742635011673,-0.00011044076366712017,-0.00043963461623668446,0.0010649527653356938,-0.05352856837964346,0.004912171428714211,0.009589395397291615,0.0,0.0,0.0,9.0,9.0,10070.0,19630.0,0.0,0.0,0.0
1.7778778076171875,0.0659950003027916,-0.08655176311731339,0.07797422260046005,-0.00030256816118799076,-0.0008275282998423184,0.0016885794670829656,-0.05364438752587346,0.004799573970394609,0.009716902762907192,0.0,0.0,0.0,9.0,9.0,10071.0,19630.0,0.0,0.0,0.0
1.7883071899414062,0.0660058930516243,-0.08656278997659683,0.07797592878341675,-0.00043371460648695037,-0.0009741669945842715,0.0018774562170457935,-0.053604039393417235,0.004837981587490794,0.009652550302248094,0.0,0.0,0.0,9.0,9.0,10070.0,19630.0,0.0,0.0,0.0
1.7987143993377686,0.06600633263587952,-0.08656991273164749,0.0779782235622406,-0.00045773323324878513,-0.0010244919659381992,0.0018387133698688164,-0.05363246239808272,0.004799052885276109,0.009711216771226975,0.0,0.0,0.0,9.0,9.0,10070.0,19630.0,0.0,0.0,0.0
1.8091986179351807,0.06599226593971252,-0.08656340092420578,0.07796686142683029,-0.00044469297994770036,-0.0010221432217558369,0.0016712322415197095,-0.05353460522583399,0.004921866074073222,0.009651263312256063,0.0,0.0,0.0,9.0,9.0,10072.0,19630.0,0.0,0.0,0.0
1.8195157051086426,0.06601186841726303,-0.08653602749109268,0.07798371464014053,-0.00039871343055066834,-0.0008287600516410345,0.0013585648603111182,-0.05363435465822804,0.004835860716006973,0.009652945020367475,0.0,0.0,0.0,9.0,9.0,10072.0,19630.0,0.0,0.0,0.0
1.8299577236175537,0.06600703299045563,-0.08654609322547913,0.0779762864112854,-0.0003078222349728895,-0.0005605135726017701,0.0011299117157503365,-0.053674283373377894,0.004699142588392878,0.009719190736049972,0.0,0.0,0.0,9.0,9.0,10070.0,19630.0,0.0,0.0,0.0
1.840590476989746,0.0660071149468422,-0.0865514799952507,0.07799504697322845,-0.00020388812852184898,-0.00033814863351103804,0.0009424146172760054,-0.05355119515920739,0.004977333208432607,0.00970104128832624,0.0,0.0,0.0,9.0,9.0,10071.0,19630.0,0.0,0.0,0.0
1.8509538173675537,0.06600962579250336,-0.0865597128868103,0.07797762751579285,-0.00011359062512123695,-0.00020962261190713165,0.0007106057962924643,-0.05348965378108956,0.005005791881754569,0.009649924502500901,0.0,0.0,0.0,9.0,9.0,10072.0,19630.0,0.0,0.0,0.0
1.8613595962524414,0.06599711626768112,-0.08656847476959229,0.0779784694314003,-6.839708400712433e-05,-0.00018454127007716878,0.0005011712451626236,-0.05353287880965847,0.004738863344654501,0.009693950180467866,0.0,0.0,0.0,9.0,9.0,10071.0,19630.0,0.0,0.0,0.0
1.8717875480651855,0.065999835729599,-0.08655533939599991,0.07797472178936005,-7.479225179566061e-05,-0.0001787941840352187,0.0002833214347785454,-0.05353859905016077,0.004880717972798254,0.00979166993831165,0.0,0.0,0.0,9.0,9.0,10071.0,19630.0,0.0,0.0,0.0
1.882176399230957,0.06600558757781982,-0.08655911684036255,0.07798800617456436,-7.441846887367943e-05,-0.00012989867949570355,0.00013340352293580922,-0.05353055316090164,0.004904671276917877,0.00968849214088632,0.0,0.0,0.0,9.0,9.0,10070.0,19630.0,0.0,0.0,0.0
1.8926937580108643,0.06601009517908096,-0.08655600249767303,0.07799765467643738,-3.01028326905594e-05,-7.237256848896945e-05,9.779265098875763e-05,-0.053512844123070655,0.004944494796868612,0.009656850380042445,0.0,0.0,0.0,9.0,9.0,10072.0,19630.0,0.0,0.0,0.0
1.9030802249908447,0.06600213795900345,-0.08655737340450287,0.07799533754587173,1.5246647733608962e-05,-2.533974968143778e-05,0.0001257113096934028,-0.053448783844245375,0.004959682555556723,0.00969007961773189,0.0,0.0,0.0,9.0,9.0,10070.0,19630.0,0.0,0.0,0.0
1.9134893417358398,0.06600813567638397,-0.08655809611082077,0.0779740959405899,3.084836776764926e-05,4.684535176458086e-06,0.00010047418738924797,-0.05343657614835392,0.004856006376582795,0.009695770472736696,0.0,0.0,0.0,9.0,9.0,10070.0,19630.0,0.0,0.0,0.0
1.9240245819091797,0.06600210070610046,-0.08656610548496246,0.0779903456568718,3.464974255885346e-05,1.0001369908774856e-06,1.650526085737015e-05,-0.05357329241760804,0.004811321558966194,0.009683024030105984,0.0,0.0,0.0,9.0,9.0,10070.0,19630.0,0.0,0.0,0.0
1.9343819618225098,0.06600748002529144,-0.0865371897816658,0.07797913998365402,3.1421112901732115e-05,2.4227316630961952e-05,-3.845910280692658e-05,-0.053447800609207036,0.004873069751588059,0.009726321308481368,0.0,0.0,0.0,9.0,9.0,10069.0,19630.0,0.0,0.0,0.0
1.9447875022888184,0.06600368022918701,-0.08656100928783417,0.07798629999160767,2.966776553608124e-05,9.170740088640694e-05,-6.839991918364944e-05,-0.05346864416983213,0.004891731484121535,0.009697368821609738,0.0,0.0,0.0,9.0,9.0,10069.0,19630.0,0.0,0.0,0.0
1.9557085037231445,0.06598971039056778,-0.08654613792896271,0.07801026105880737,-6.864658268340916e-06,0.00012775506653211474,-2.9856788594522413e-05,-0.05344523723024916,0.004975999132015201,0.009714229133139548,0.0,0.0,0.0,9.0,9.0,10071.0,19630.0,0.0,0.0,0.0
1.9661953449249268,0.06601204723119736,-0.08655501157045364,0.07798449695110321,-4.599287284784167e-05,0.00011591359688047461,5.818326513735737e-05,-0.05357852218080437,0.004925281719425726,0.009734123021504303,0.0,0.0,0.0,9.0,9.0,10070.0,19630.0,0.0,0.0,0.0
1.976710557937622,0.06600140035152435,-0.08655797690153122,0.07799002528190613,-2.386501687413467e-05,9.112533791569771e-05,5.9394156228778396e-05,-0.053782132119144496,0.004726786258958094,0.00965226369678311,0.0,0.0,0.0,9.0,9.0,10071.0,19630.0,0.0,0.0,0.0
1.987415075302124,0.0659933090209961,-0.08656985312700272,0.078003890812397,-2.279904272159324e-05,1.2284465519289959e-05,5.4103974623724127e-05,-0.05358253078195199,0.004707422030853892,0.009702516610643015,0.0,0.0,0.0,9.0,9.0,10069.0,19630.0,0.0,0.0,0.0
1.9980003833770752,0.06600763648748398,-0.08655442297458649,0.07797688245773315,-4.5186373252064846e-05,-6.227819547386015e-05,5.641852759391521e-05,-0.05338253803048956,0.004969629183792266,0.009715403266338232,0.0,0.0,0.0,9.0,9.0,10071.0,19630.0,0.0,0.0,0.0
2.0085794925689697,0.06601729243993759,-0.08656427264213562,0.07801279425621033,8.311689826983417e-06,-8.357672091518336e-05,4.427174658569982e-05,-0.053562432480538526,0.004760538786656497,0.009650284480830244,0.0,0.0,0.0,9.0,9.0,10071.0,19630.0,0.0,0.0,0.0
2.01910400390625,0.06601373851299286,-0.08655998855829239,0.07801873981952667,0.00010326640481067535,-8.863992234099765e-05,0.0001383544412458179,-0.05345495317931624,0.004807068772150822,0.009652117222171006,0.0,0.0,0.0,9.0,9.0,10070.0,19630.0,0.0,0.0,0.0
2.0295674800872803,0.06600913405418396,-0.08656081557273865,0.07797924429178238,0.00014772085254909138,-8.789903654272724e-05,0.00019999609454916974,-0.05362030652264718,0.004840316570562939,0.009698623395783436,0.0,0.0,0.0,9.0,9.0,10070.0,19630.0,0.0,0.0,0.0
2.040423631668091,0.06600484251976013,-0.08653785288333893,0.07799138128757477,0.00013685589384451294,-3.066271683345402e-05,0.0001013434379646372,-0.05364372219419038,0.0047737317792617565,0.009728409453780498,0.0,0.0,0.0,9.0,9.0,10071.0,19630.0,0.0,0.0,0.0
2.050809860229492,0.06600423902273178,-0.08654400706291199,0.07799717783927917,7.51891943185012e-05,8.770027038469923e-05,3.3800311107248817e-07,-0.05358366071516362,0.004885566160803071,0.009779525103076635,0.0,0.0,0.0,9.0,9.0,10071.0,19630.0,0.0,0.0,0.0
2.0613651275634766,0.06600360572338104,-0.08657409995794296,0.07800763100385666,2.4762010056389885e-05,0.00011519847647495281,1.1949734308267868e-05,-0.053629841466681115,0.004915707129031416,0.009590181097075389,0.0,0.0,0.0,9.0,9.0,10070.0,19630.0,0.0,0.0,0.0
2.072004795074463,0.06599818915128708,-0.08657032251358032,0.07799480110406876,-2.5960816281275977e-05,-1.0617752905856533e-05,4.817802065996204e-05,-0.05342876009885494,0.004828197082113664,0.00966562808241004,0.0,0.0,0.0,9.0,9.0,10071.0,19630.0,0.0,0.0,0.0
2.0824637413024902,0.0660058856010437,-0.08654811978340149,0.07798334956169128,-6.140793307124091e-05,-8.695730930785121e-05,9.461537589011572e-06,-0.05360683668660026,0.004943204889951986,0.0097047230917015,0.0,0.0,0.0,9.0,9.0,10072.0,19630.0,0.0,0.0,0.0
2.093014717102051,0.06531286239624023,-0.08602874726057053,0.07752203196287155,-0.001512017960561787,0.0010615865560580577,-0.001057594672037722,-0.024932034200674986,-0.00823303563619683,0.005638205569006569,0.0,0.0,0.0,9.0,9.0,10072.0,19630.0,0.0,0.0,0.0
2.103738307952881,0.06601741164922714,-0.0865684375166893,0.07800274342298508,-0.003821447810672668,0.002873458408340161,-0.002668594460608824,-0.05350158776918513,0.004950387083568624,0.00971252066736294,0.0,0.0,0.0,9.0,9.0,10072.0,19630.0,0.0,0.0,0.0
2.1142044067382812,0.06600027531385422,-0.08655956387519836,0.0780085027217865,-0.003271549536088933,0.0024539070972074088,-0.002246025424997996,-0.05342611575893144,0.004972164744074064,0.009718832567025253,0.0,0.0,0.0,9.0,9.0,10072.0,19630.0,0.0,0.0,0.0
2.124782085418701,0.0659971833229065,-0.0865432545542717,0.07799174636602402,-0.0014002497320051502,0.0010350235110516228,-0.0008963954505810615,-0.05361606640198526,0.004987497226982594,0.009604869354875803,0.0,0.0,0.0,9.0,9.0,10072.0,19630.0,0.0,0.0,0.0
2.135124683380127,0.0659961998462677,-0.08655188977718353,0.07798604667186737,-0.00011055401645010166,8.954264937189533e-05,-1.3830278597302747e-05,-0.053673789286050044,0.004811037105133294,0.009591043966062906,0.0,0.0,0.0,9.0,9.0,10071.0,19630.0,0.0,0.0,0.0
2.145528554916382,0.06600935757160187,-0.08654890954494476,0.07799489796161652,0.0007001831666906362,-0.0004892646487838185,0.00048641361394626177,-0.05363083982990249,0.004865688301377903,0.009736530624260133,0.0,0.0,0.0,9.0,9.0,10072.0,19630.0,0.0,0.0,0.0
2.156261444091797,0.06599411368370056,-0.086554154753685,0.07798190414905548,0.0012383957597976892,-0.0008747584649270514,0.0008006478755089466,-0.05355027851282428,0.00482798606718566,0.009747034924167695,0.0,0.0,0.0,9.0,9.0,10071.0,19630.0,0.0,0.0,0.0
2.1666812896728516,0.06567487865686417,-0.08602730929851532,0.07699360698461533,0.0006675915750295463,0.00011129443200182809,-0.0012248276143831877,-0.024932034200674986,-0.00823303563619683,0.005638205569006569,0.0,0.0,0.0,9.0,9.0,10073.0,19630.0,0.0,0.0,0.0
2.177171468734741,0.06601200997829437,-0.08654462546110153,0.07798553258180618,-0.00037555078105069444,0.0018246623072251844,-0.004501931189322096,-0.05355595522524106,0.004926692111758943,0.009676692253881802,0.0,0.0,0.0,9.0,9.0,10071.0,19630.0,0.0,0.0,0.0
2.187584161758423,0.0660041943192482,-0.08655625581741333,0.07797561585903168,-0.0002775176325145635,0.0016393131888792216,-0.004055828285776677,-0.053551449226479836,0.004829995202365367,0.00965231305462142,0.0,0.0,0.0,9.0,9.0,10071.0,19630.0,0.0,0.0,0.0
2.198061466217041,0.06600351631641388,-0.08655823022127151,0.07798692584037781,0.00047223909801835125,0.00027870720676380746,-0.0014471430457962263,-0.053577422454976584,0.004826192665734117,0.009668792161838684,0.0,0.0,0.0,9.0,9.0,10071.0,19630.0,0.0,0.0,0.0
2.2085793018341064,0.06600233912467957,-0.08655267208814621,0.07797832787036896,0.0008884460612723888,-0.0006371327160063233,0.0003570301719515149,-0.05364790241261278,0.004766093656377068,0.009605453653690884,0.0,0.0,0.0,9.0,9.0,10073.0,19631.0,0.0,0.0,0.0
2.2189602851867676,0.06602118164300919,-0.0865509957075119,0.07796660810709,0.001077890838674816,-0.001108593066254568,0.0013947095462497302,-0.05359874288573561,0.004815348181699496,0.009670482660456564,0.0,0.0,0.0,9.0,9.0,10071.0,19630.0,0.0,0.0,0.0
2.2293598651885986,0.06600533425807953,-0.08655599504709244,0.0779808908700943,0.0011634434584931993,-0.0013149266245642741,0.0019018423957168381,-0.053446195799892106,0.004881249216219484,0.009645415600725701,0.0,0.0,0.0,9.0,9.0,10072.0,19630.0,0.0,0.0,0.0
2.239948272705078,0.06600223481655121,-0.0865657776594162,0.07797355204820633,0.001117095057299469,-0.0014105890507955853,0.0021412509795591776,-0.053516720150269606,0.004840627082900604,0.009692231608977803,0.0,0.0,0.0,9.0,9.0,10071.0,19630.0,0.0,0.0,0.0
2.250309705734253,0.06600819528102875,-0.08654863387346268,0.07798324525356293,0.0008963713584152354,-0.001283871055040819,0.002005179491993642,-0.05342105514165593,0.00496350657724098,0.009704579815608662,0.0,0.0,0.0,9.0,9.0,10071.0,19630.0,0.0,0.0,0.0
2.260850429534912,0.06599760055541992,-0.08654789626598358,0.07797836512327194,0.0007252204157835882,-0.0011075875914032475,0.001868357067253978,-0.05346123486307456,0.005036232720984094,0.009709452016555665,0.0,0.0,0.0,9.0,9.0,10070.0,19630.0,0.0,0.0,0.0
2.271540403366089,0.06600404530763626,-0.08654851466417313,0.07798032462596893,0.0005315909177332701,-0.0008579097249932908,0.001623695753248495,-0.053426935697293586,0.0049793083194977555,0.009700355500321304,0.0,0.0,0.0,9.0,9.0,10073.0,19630.0,0.0,0.0,0.0
2.281935214996338,0.06599569320678711,-0.08657442778348923,0.07798916101455688,0.0003214609986151137,-0.0006324882281624018,0.0012487270014329506,-0.053532663659652244,0.004750473681955867,0.009724328562228768,0.0,0.0,0.0,9.0,9.0,10073.0,19630.0,0.0,0.0,0.0
2.2924458980560303,0.0660138875246048,-0.08655871450901031,0.07796990126371384,0.00019745512356356793,-0.0005492246611679054,0.0009742198222013935,-0.05339847421682164,0.005022736973055712,0.009601853411494238,0.0,0.0,0.0,9.0,9.0,10073.0,19630.0,0.0,0.0,0.0
2.302851438522339,0.0660146176815033,-0.08656804263591766,0.07799344509840012,0.0001555003983643453,-0.00044153538774062754,0.0006764018562943057,-0.05358341757829029,0.0047031406280277485,0.009704809312848575,0.0,0.0,0.0,9.0,9.0,10072.0,19630.0,0.0,0.0,0.0
2.313256025314331,0.0662299171090126,-0.0860244557261467,0.07705632597208023,0.0006047820117480851,0.0007792786539582604,-0.0014440147423717851,-0.024932034200674986,-0.00823303563619683,0.005638205569006569,0.0,0.0,0.0,9.0,9.0,10072.0,19630.0,0.0,0.0,0.0
2.32373046875,0.06601343303918839,-0.08655456453561783,0.0779767856001854,0.0012983333272760266,0.0026526464306394146,-0.004646739068561974,-0.053624434498350665,0.0048001174307640195,0.009672043878768084,0.0,0.0,0.0,9.0,9.0,10074.0,19631.0,0.0,0.0,0.0
2.3340911865234375,0.06602081656455994,-0.08654863387346268,0.07797570526599884,0.0011574601702364685,0.002484542490187207,-0.004286075458870805,-0.053454444581936884,0.004971749164534006,0.009697709150704774,0.0,0.0,0.0,9.0,9.0,10073.0,19631.0,0.0,0.0,0.0
2.344700336456299,0.06601056456565857,-0.08656405657529831,0.07797246426343918,0.0005749770393893678,0.0011521256080227107,-0.0019528427726440635,-0.0535588829536154,0.004843141734741647,0.00963486921329458,0.0,0.0,0.0,9.0,9.0,10072.0,19630.0,0.0,0.0,0.0
2.355221748352051,0.06599944084882736,-0.08656501770019531,0.07798533141613007,7.568321679861048e-05,9.238862688173849e-05,-0.00018792531150281427,-0.05348042965824346,0.004787740637753111,0.009613746984915367,0.0,0.0,0.0,9.0,9.0,10072.0,19630.0,0.0,0.0,0.0
2.3656094074249268,0.06600093096494675,-0.08656352013349533,0.07797875255346298,-0.00029666028702377695,-0.0005887627307859892,0.0009287069113622038,-0.053424536313291346,0.004953113508782941,0.009629676270778252,0.0,0.0,0.0,9.0,9.0,10071.0,19630.0,0.0,0.0,0.0
2.3761539459228516,0.06599375605583191,-0.08656147122383118,0.0779825747013092,-0.0005496659669786082,-0.0009819891642860426,0.001596384611547379,-0.05353779685429363,0.004900325063580206,0.00962240926443938,0.0,0.0,0.0,9.0,9.0,10074.0,19631.0,0.0,0.0,0.0
2.3868868350982666,0.06601344048976898,-0.0865447148680687,0.07796555012464523,-0.0006614555466593572,-0.0011202873394610116,0.001883590605130519,-0.053487629782039116,0.005007773233823572,0.00982679958288474,0.0,0.0,0.0,9.0,9.0,10073.0,19631.0,0.0,0.0,0.0
2.397298574447632,0.06600572168827057,-0.08654110878705978,0.07797499001026154,-0.0005768494531194588,-0.000949273959336797,0.0017215014309658202,-0.053372617305691615,0.004977962516708736,0.009686303147594477,0.0,0.0,0.0,9.0,9.0,10071.0,19630.0,0.0,0.0,0.0
2.407780647277832,0.06600713729858398,-0.08655031770467758,0.07798613607883453,-0.0004900572931426762,-0.0007750494362747819,0.0015775941918787853,-0.05349426457735648,0.0050698611650800045,0.009742686684260893,0.0,0.0,0.0,9.0,9.0,10073.0,19631.0,0.0,0.0,0.0
2.4181454181671143,0.06601133942604065,-0.0865321159362793,0.07796617597341537,-0.00038206776350168645,-0.0005716754545991216,0.00133382012721445,-0.05360224969395436,0.005017203848673404,0.009753755911129992,0.0,0.0,0.0,9.0,9.0,10073.0,19631.0,0.0,0.0,0.0
2.428853750228882,0.06601006537675858,-0.0865524485707283,0.07799312472343445,-0.0002857901843024729,-0.0004120307522739556,0.001144192542777046,-0.05360154707184938,0.004984257475847026,0.009706306113920975,0.0,0.0,0.0,9.0,9.0,10074.0,19631.0,0.0,0.0,0.0
2.4398019313812256,0.06600663810968399,-0.08655042201280594,0.07797633856534958,-0.00019689011847494713,-0.0003083918707439311,0.000945700259393366,-0.05354237541596088,0.004984288502824627,0.009679908855419667,0.0,0.0,0.0,9.0,9.0,10072.0,19630.0,0.0,0.0,0.0
