T,Px,Py,Pz,Vx,Vy,Vz,Roll,Pitch,Yaw,R_rate,P_rate,Y_rate,T,M1,M2,M3,Wb1,Wb2,Wb3
0,0.0,0.0,0.0,0.0,0.0,0.0,0.006604816504834736,0.012064628550524183,0.029374126965016744,0.0,0.0,0.0,0.0,0.0,0.0,0.0,0.0,0.0,0.0
0.0007762908935546875,0.06246958673000336,-0.06135530024766922,0.2157772034406662,-0.0005289924859426129,0.010323997870965145,0.29723545921379446,-0.0059575921219088635,0.04027322811399952,0.043019328995224364,0.0,0.0,0.0,0.0,0.0,0.0,0.0,0.0,0.0,0.0
0.012100696563720703,0.06251393258571625,-0.06138075143098831,0.21722833812236786,-0.0019278916752876046,0.03948893005444587,1.14176007482913,-0.004079180161052798,0.04051241518931145,0.0435001344684248,0.0,0.0,0.0,0.0,0.0,0.0,0.0,0.0,0.0,0.0
0.02336287498474121,0.06261306256055832,-0.06135522574186325,0.21874167025089264,-0.002685186884448999,0.06320584381151022,1.8382857387728735,-0.0025618105076371284,0.040817592262583045,0.045204513109393996,0.0,0.0,0.0,0.0,0.0,0.0,0.0,0.0,0.0,0.0
0.03451943397521973,0.06290727853775024,-0.06137548014521599,0.22163008153438568,-0.001667920020295536,0.07035461046208369,2.0659113512992513,0.00016956391799671333,0.0411399388073104,0.047227617794692776,0.0,0.0,0.0,0.0,0.0,0.0,0.0,0.0,0.0,0.0
0.045897722244262695,0.06299728155136108,-0.06143244728446007,0.22317953407764435,0.0008107544624771933,0.07066232187404989,2.1105645947101657,0.0012932569443614586,0.04265340516339011,0.04800572371088594,0.0,0.0,0.0,0.0,0.0,0.0,0.0,0.0,0.0,0.0
0.05704545974731445,0.06279411911964417,-0.06153770536184311,0.22444301843643188,0.0027705092534759186,0.05952197273286344,1.8305494386665457,0.002966640920179871,0.043092911053904726,0.048733954440707924,0.0,0.0,0.0,0.0,0.0,0.0,0.0,0.0,0.0,0.0
0.0686643123626709,0.06321289390325546,-0.06168314442038536,0.22731149196624756,0.004184121923206358,0.05111633363735413,1.656720578602511,0.005689282488355599,0.04631883714069159,0.050724600805547505,0.0,0.0,0.0,0.0,0.0,0.0,0.0,0.0,0.0,0.0
0.07986640930175781,0.06343265622854233,-0.06170234456658363,0.22878141701221466,0.006022108126801382,0.034799172977295574,1.2349206937725736,0.006383028713023466,0.04717146206591588,0.05187986199588774,0.0,0.0,0.0,0.0,0.0,0.0,0.0,0.0,0.0,0.0
0.09105181694030762,0.06328123807907104,-0.06180641055107117,0.23022273182868958,0.008203707887974122,0.022685790857839862,0.9319783892145135,0.009087080660855942,0.05177501534921545,0.05194029694641313,0.0,0.0,0.0,0.0,0.0,0.0,0.0,0.0,0.0,0.0
0.10225152969360352,0.06362923234701157,-0.06197981536388397,0.23304449021816254,0.009335100843798199,0.01228936639410264,0.6752735042319302,0.007936922931771891,0.05115108213381929,0.05435497994938554,0.0,0.0,0.0,0.0,0.0,0.0,0.0,0.0,0.0,0.0
0.11264252662658691,0.06359758228063583,-0.06211014837026596,0.23439282178878784,0.008966121587227585,0.0029566557798461784,0.4111485664059439,0.007654695440748575,0.05156538105962911,0.05526455703255418,0.0,0.0,0.0,0.0,0.0,0.0,0.0,0.0,0.0,0.0
0.1238870620727539,0.06347772479057312,-0.062273818999528885,0.23587042093276978,0.01032409178905142,-0.003830321955568046,0.3182635599046998,0.009751360930595431,0.05684510723301404,0.05463301836203815,0.0,0.0,0.0,0.0,0.0,0.0,0.0,0.0,0.0,0.0
0.13540124893188477,0.06363807618618011,-0.06260829418897629,0.23804818093776703,0.009470089198050017,-0.010036746476044139,0.2159843311496517,0.008987970345935641,0.050032978444201674,0.056486996209716235,0.0,0.0,0.0,0.0,0.0,0.0,0.0,0.0,0.0,0.0
0.14674639701843262,0.063698910176754,-0.0627688318490982,0.23929893970489502,0.008093270060596394,-0.0145126894679344,0.13647510132286883,0.008650389222995597,0.051019863969295406,0.05677723642873891,0.0,0.0,0.0,0.0,0.0,0.0,0.0,0.0,0.0,0.0
0.1579587459564209,0.06374995410442352,-0.06293921917676926,0.2405555248260498,0.007177505414242477,-0.017370042629963424,0.08932696857374875,0.0080792266650732,0.05280565715159438,0.057051064491701456,0.0,0.0,0.0,0.0,0.0,0.0,0.0,0.0,0.0,0.0
0.16951417922973633,0.06372542679309845,-0.06319740414619446,0.24272379279136658,0.006658463605237405,-0.020247064277201136,0.0701106241866171,0.006806971315206463,0.052789620687441405,0.05697460482767343,0.0,0.0,0.0,0.0,0.0,0.0,0.0,0.0,0.0,0.0
0.1808915138244629,0.06379546225070953,-0.06335733830928802,0.24378018081188202,0.00544196420594872,-0.020677166839262538,0.06177436470639891,0.006498675564630162,0.0533582615618093,0.05706301913465633,0.0,0.0,0.0,0.0,0.0,0.0,0.0,0.0,0.0,0.0
0.19213056564331055,0.06419704109430313,-0.06383670121431351,0.2454449087381363,0.005310297574834169,-0.02106398833902915,0.06346924159925876,0.006990055494280364,0.051768754011459195,0.05872818556957237,0.0,0.0,0.0,0.0,0.0,0.0,0.0,0.0,0.0,0.0
0.2037348747253418,0.06430456787347794,-0.0640224888920784,0.24636675417423248,0.007316985248568662,-0.023602928721662274,0.07461887118902898,0.006578122477592923,0.052762903270963384,0.05908369925504817,0.0,0.0,0.0,0.0,0.0,0.0,0.0,0.0,0.0,0.0
0.21504616737365723,0.06440498679876328,-0.06415760517120361,0.24723315238952637,0.008824784690864767,-0.023152873869701347,0.07784902605578027,0.005902100378717115,0.05323050186512783,0.05940713093652484,0.0,0.0,0.0,0.0,0.0,0.0,0.0,0.0,0.0,0.0
0.2262113094329834,0.06460456550121307,-0.06443923711776733,0.24893513321876526,0.009934674486405426,-0.022285528106303253,0.08169041361488263,0.004285363413376429,0.054355587871501326,0.059960073313345054,0.0,0.0,0.0,0.0,0.0,0.0,0.0,0.0,0.0,0.0
0.2374744415283203,0.06471342593431473,-0.06450483202934265,0.2497912496328354,0.011253572365106709,-0.0218872367863695,0.08962420899844897,0.0032096917001436984,0.05573671265827916,0.059784854491116035,0.0,0.0,0.0,0.0,0.0,0.0,0.0,0.0,0.0,0.0
0.24884247779846191,0.06467162072658539,-0.06431081891059875,0.25008490681648254,0.011866840330456454,-0.02007830261252973,0.09449841429060327,0.008019466063161422,0.061770467746664455,0.06034310187293354,0.0,0.0,0.0,0.0,0.0,0.0,0.0,0.0,0.0,0.0
0.26009392738342285,0.06486430764198303,-0.06449493765830994,0.2512173652648926,0.01121550902896403,-0.016143806128795145,0.09113632069971829,0.007141237633838246,0.06406763422549315,0.06021969973779489,0.0,0.0,0.0,0.0,0.0,0.0,0.0,0.0,0.0,0.0
0.2718381881713867,0.06500305980443954,-0.0646279975771904,0.2516232430934906,0.011728148215443955,-0.014058799537787197,0.09432999457860203,0.006759275831750491,0.06492407253899159,0.0605517254410104,0.0,0.0,0.0,0.0,0.0,0.0,0.0,0.0,0.0,0.0
0.28327012062072754,0.06512414664030075,-0.0647696778178215,0.25200310349464417,0.011107380435461126,-0.011393866254981148,0.0834043769205493,0.006536533740751159,0.06632356985741776,0.060870290960148794,0.0,0.0,0.0,0.0,0.0,0.0,0.0,0.0,0.0,0.0
0.2944364547729492,0.06534305214881897,-0.06491278856992722,0.2526678144931793,0.01080743475646483,-0.009848257939313852,0.0719327041268984,0.005868549854806136,0.06952752346241689,0.06125555971601522,0.0,0.0,0.0,0.0,0.0,0.0,0.0,0.0,0.0,0.0
0.30579066276550293,0.06541189551353455,-0.0649581104516983,0.2529103755950928,0.011531760975891878,-0.009523101055033385,0.0660777443071214,0.00550776075264952,0.07115176250727498,0.06111807818995241,0.0,0.0,0.0,0.0,0.0,0.0,0.0,0.0,0.0,0.0
0.3171572685241699,0.06551174074411392,-0.06500785797834396,0.2530910074710846,0.01165977288906127,-0.008843246532632588,0.057687680965501115,0.005411679301616297,0.07228318328967501,0.061251993249049945,0.0,0.0,0.0,0.0,0.0,0.0,0.0,0.0,0.0,0.0
0.32853150367736816,0.06567255407571793,-0.06504342705011368,0.2533317506313324,0.011513267995024166,-0.007938222154131955,0.04864891495551409,0.004861558791226995,0.07391141291085468,0.06126988242081036,0.0,0.0,0.0,0.0,0.0,0.0,0.0,0.0,0.0,0.0
0.3397402763366699,0.06572110950946808,-0.06505310535430908,0.2534117102622986,0.011013638065461231,-0.006698303312383557,0.03886537843814399,0.004711341878953208,0.07449506556308988,0.060963681591369834,0.0,0.0,0.0,0.0,0.0,0.0,0.0,0.0,0.0,0.0
0.3510935306549072,0.0658048763871193,-0.06509005278348923,0.253380686044693,0.01078096062333397,-0.005732519667041271,0.031336203992131786,0.004463173219085981,0.07463767830860621,0.06037745193811105,0.0,0.0,0.0,0.0,0.0,0.0,0.0,0.0,0.0,0.0
0.3622133731842041,0.06581425666809082,-0.06510070711374283,0.25330623984336853,0.009553452028277109,-0.0045212281367448615,0.022137093009185288,0.0042783936747341975,0.07463770697611685,0.059707792009659845,0.0,0.0,0.0,0.0,0.0,0.0,0.0,0.0,0.0,0.0
0.37380003929138184,0.06560438871383667,-0.06490618735551834,0.25458794832229614,0.008476575368931531,-0.0034234463771072293,0.01867356916156832,0.0007547833680902842,0.08869252172663095,0.05750265693056455,0.0,0.0,0.0,0.0,0.0,0.0,0.0,0.0,0.0,0.0
0.3850727081298828,0.06555739790201187,-0.06496033072471619,0.25430217385292053,0.005227110208905099,-0.001405166284016138,0.01774816759061603,0.0011770683600927998,0.08917711342615248,0.05649559818795293,0.0,0.0,0.0,0.0,0.0,0.0,0.0,0.0,0.0,0.0
0.39633941650390625,0.06556637585163116,-0.0649428516626358,0.2540402412414551,0.002333244850104188,7.901259341580244e-05,0.016857364390732953,0.0013521899416129443,0.08847633626367474,0.05585864219319495,0.0,0.0,0.0,0.0,0.0,0.0,0.0,0.0,0.0,0.0
0.4077262878417969,0.06553123891353607,-0.0649491548538208,0.25379228591918945,0.000214004088588397,0.0009303181033213666,0.01255162250366187,0.0015704003276398005,0.08823044210766183,0.055414336961980025,0.0,0.0,0.0,0.0,0.0,0.0,0.0,0.0,0.0,0.0
0.4190635681152344,0.06544910371303558,-0.06508085131645203,0.2533036768436432,-0.0014240643418677187,0.0010581501621059184,0.005660004399745954,0.0029320306654415543,0.08858979875385257,0.05529164212618669,0.0,0.0,0.0,0.0,0.0,0.0,0.0,0.0,0.0,0.0
0.4303567409515381,0.0654117614030838,-0.06511445343494415,0.2529979348182678,-0.0027762879301258124,0.00035629114355215465,-0.002403014896959452,0.003723437459217147,0.08896982429969355,0.05530606625300664,0.0,0.0,0.0,0.0,0.0,0.0,0.0,0.0,0.0,0.0
0.4415748119354248,0.0631079152226448,-0.0680185854434967,0.0769123062491417,-0.008700330676682808,-0.0069285232518064375,-0.39708180364259194,0.016297757988838542,0.025112588579055177,-0.024706650621185003,0.0,0.0,0.0,0.0,0.0,0.0,0.0,0.0,0.0,0.0
0.4529757499694824,0.06544139236211777,-0.06524024158716202,0.25186365842819214,-0.01707486045289661,-0.01797198459350261,-1.0208332751931137,0.006572444229136096,0.08862687920562201,0.05621051425806334,0.0,0.0,0.0,0.0,0.0,0.0,0.0,0.0,0.0,0.0
0.46430420875549316,0.06547907739877701,-0.06527131050825119,0.251488596200943,-0.014793682939188316,-0.016745561939750936,-0.8951270315362305,0.007553103465347401,0.08867148283942317,0.05649600710541418,0.0,0.0,0.0,0.0,0.0,0.0,0.0,0.0,0.0,0.0
0.47569823265075684,0.06560974568128586,-0.06565215438604355,0.25105905532836914,-0.006494574133125453,-0.009372479499937612,-0.3555420057554533,0.0037283539137696847,0.08217291154773446,0.05604785840089954,0.0,0.0,0.0,0.0,0.0,0.0,0.0,0.0,0.0,0.0
0.48682236671447754,0.0656096339225769,-0.06566258519887924,0.2506355941295624,-5.5599858780665864e-05,-0.005424616219961697,0.008213953071648947,0.004282624756499932,0.08146855993054901,0.05632617711744283,0.0,0.0,0.0,0.0,0.0,0.0,0.0,0.0,0.0,0.0
0.4981346130371094,0.06563524901866913,-0.06564272940158844,0.25021499395370483,0.00415235980577008,-0.003658502488615596,0.2220873597721031,0.005100171632318708,0.08048510527979515,0.05651734290916165,0.0,0.0,0.0,0.0,0.0,0.0,0.0,0.0,0.0,0.0
0.5095679759979248,0.06570643186569214,-0.06562305986881256,0.24948729574680328,0.0066824494091447355,-0.0020554764367188972,0.3311391327085378,0.006235715162902735,0.07881176967243642,0.056659404689462324,0.0,0.0,0.0,0.0,0.0,0.0,0.0,0.0,0.0,0.0
0.520925760269165,0.06565471738576889,-0.06565269827842712,0.24917538464069366,0.007651088218900658,-0.0007627266735568713,0.3516584689400027,0.006431717915687648,0.07886359558348499,0.05675810706679336,0.0,0.0,0.0,0.0,0.0,0.0,0.0,0.0,0.0,0.0
0.5321180820465088,0.06560388207435608,-0.06580539047718048,0.24814441800117493,0.007134490235115453,-0.0003429618596241717,0.317149959554598,0.008310262720917169,0.07209444637751927,0.05751100425452226,0.0,0.0,0.0,0.0,0.0,0.0,0.0,0.0,0.0,0.0
0.5435559749603271,0.06556762009859085,-0.06545431166887283,0.24608628451824188,0.006045943521383126,-4.663195975262271e-05,0.27076853859047945,0.015801961727362465,0.06929464356096468,0.058667459427579075,0.0,0.0,0.0,0.0,0.0,0.0,0.0,0.0,0.0,0.0
0.5552213191986084,0.06571952253580093,-0.065708689391613,0.24605080485343933,0.004829564647777373,0.0008324054875202506,0.20321527749293772,0.009513143636169433,0.06327523989482361,0.057912364820928694,0.0,0.0,0.0,0.0,0.0,0.0,0.0,0.0,0.0,0.0
0.5664291381835938,0.0657021775841713,-0.06566553562879562,0.2456652969121933,0.0037606024914604358,0.0009542684227743049,0.12102917398333696,0.008896245396654592,0.06286136669480188,0.05755598481678601,0.0,0.0,0.0,0.0,0.0,0.0,0.0,0.0,0.0,0.0
0.5778834819793701,0.06564575433731079,-0.0655188113451004,0.2449568808078766,0.003183407900786554,0.0009630029184985579,0.06685228635416962,0.00843509120676876,0.06282354613694424,0.05731013802474912,0.0,0.0,0.0,0.0,0.0,0.0,0.0,0.0,0.0,0.0
0.5892598628997803,0.06538943946361542,-0.06546159088611603,0.24442575871944427,0.0015347606256904188,0.0017108121966336728,0.019029627905915416,0.010948049744322418,0.06558629817221082,0.056436368074124214,0.0,0.0,0.0,0.0,0.0,0.0,0.0,0.0,0.0,0.0
0.6007676124572754,0.06555899232625961,-0.0653243213891983,0.2439500093460083,-0.0004922844604168347,0.002934337288184431,-0.016526894911439254,0.00668341308548638,0.06153536129555466,0.0575071490300365,0.0,0.0,0.0,0.0,0.0,0.0,0.0,0.0,0.0,0.0
0.6120433807373047,0.06552637368440628,-0.06524604558944702,0.24360808730125427,-0.0015175601480666842,0.004125222205401801,-0.039170066793368215,0.006048410027547091,0.06095277532044691,0.057596092817128144,0.0,0.0,0.0,0.0,0.0,0.0,0.0,0.0,0.0,0.0
0.6240184307098389,0.06549461930990219,-0.06516769528388977,0.24327224493026733,-0.0020358439973127986,0.0058799373805143475,-0.058234745238156374,0.005458703080219469,0.06050805318017822,0.05772169263085909,0.0,0.0,0.0,0.0,0.0,0.0,0.0,0.0,0.0,0.0
0.6355581283569336,0.06535324454307556,-0.06500381976366043,0.24264301359653473,-0.002426528298998484,0.00652350926826553,-0.06052008087265399,0.004423429951756457,0.05935018123571686,0.05752288574501509,0.0,0.0,0.0,0.0,0.0,0.0,0.0,0.0,0.0,0.0
0.6468498706817627,0.06524917483329773,-0.06488905102014542,0.24236148595809937,-0.0033014856464982276,0.0073338953742111655,-0.059604591374514085,0.003941355124217266,0.058837877281614825,0.05712714616136538,0.0,0.0,0.0,0.0,0.0,0.0,0.0,0.0,0.0,0.0
0.657963752746582,0.06515765935182571,-0.06479883193969727,0.24205903708934784,-0.00440516389812812,0.00807471934788117,-0.056130249008328144,0.003536512523041343,0.05791665894356244,0.05669516478894851,0.0,0.0,0.0,0.0,0.0,0.0,0.0,0.0,0.0,0.0
0.6695313453674316,0.06496277451515198,-0.06463633477687836,0.2415376454591751,-0.006148306330508328,0.009481437768469105,-0.05636842468229966,0.0031640851448906247,0.05604785779164669,0.05580748516029383,0.0,0.0,0.0,0.0,0.0,0.0,0.0,0.0,0.0,0.0
0.6811108589172363,0.06487776339054108,-0.06455244868993759,0.24135056138038635,-0.0076658047586631774,0.01014597516445841,-0.05181364965663071,0.002898282847980409,0.05516300880128511,0.05532057886920075,0.0,0.0,0.0,0.0,0.0,0.0,0.0,0.0,0.0,0.0
0.6915302276611328,0.0647752583026886,-0.06449408829212189,0.24119460582733154,-0.0073599692579814175,0.008616381659569452,-0.03821448926391124,0.0031096796942766624,0.05478978271763768,0.0546660515800286,0.0,0.0,0.0,0.0,0.0,0.0,0.0,0.0,0.0,0.0
0.7020313739776611,0.06460139155387878,-0.06438092142343521,0.24103283882141113,-0.008378908651629945,0.008717833491868329,-0.03360061869550495,0.003451065908310713,0.05401143356594645,0.05348981377052741,0.0,0.0,0.0,0.0,0.0,0.0,0.0,0.0,0.0,0.0
0.7123470306396484,0.06453079730272293,-0.06434473395347595,0.24097876250743866,-0.009025761298136937,0.008348661670101194,-0.027656094838350645,0.0037276643970605206,0.053908150903819466,0.05301109263262003,0.0,0.0,0.0,0.0,0.0,0.0,0.0,0.0,0.0,0.0
0.7226691246032715,0.06447251886129379,-0.06427282840013504,0.24093304574489594,-0.009601969060839573,0.008109480715323119,-0.022872327606168943,0.004110554257851323,0.054087747436657584,0.05272097013536149,0.0,0.0,0.0,0.0,0.0,0.0,0.0,0.0,0.0,0.0
0.7330210208892822,0.06442838162183762,-0.06424020230770111,0.24091088771820068,-0.009668748697759232,0.007739958795467871,-0.018322211756156156,0.0044895498461773415,0.05486257953765576,0.0525477107120146,0.0,0.0,0.0,0.0,0.0,0.0,0.0,0.0,0.0,0.0
0.7450571060180664,0.06435985118150711,-0.06417808681726456,0.24093493819236755,-0.01208208254643978,0.00939632795941893,-0.018222921663542085,0.005631045207777177,0.05661752945033999,0.05290204939037297,0.0,0.0,0.0,0.0,0.0,0.0,0.0,0.0,0.0,0.0
0.7563114166259766,0.06436043232679367,-0.06417863816022873,0.2409319281578064,-0.009701399247965219,0.007423110791511731,-0.01139694774424646,0.006355190714114532,0.05745152171004883,0.0535975855345434,0.0,0.0,0.0,0.0,0.0,0.0,0.0,0.0,0.0,0.0
0.7676563262939453,0.06436964869499207,-0.06414695084095001,0.24106700718402863,-0.008324966258395053,0.006394283758121034,-0.007116369856371188,0.007298398723487631,0.05920729988766498,0.0548276559449142,0.0,0.0,0.0,0.0,0.0,0.0,0.0,0.0,0.0,0.0
0.7790341377258301,0.06436759233474731,-0.06412500143051147,0.24119241535663605,-0.006568082967872417,0.0052804311103866915,-0.002858151556786781,0.0074649050819764395,0.05981702642384467,0.05534451249991289,0.0,0.0,0.0,0.0,0.0,0.0,0.0,0.0,0.0,0.0
0.7904078960418701,0.061121731996536255,-0.06403518468141556,0.1870197057723999,-0.012028235843355144,0.004419605930287984,-0.11971011096385731,0.0083018523714715,-0.00011488926548750629,0.027676057618210556,0.0,0.0,0.0,0.0,0.0,0.0,0.0,0.0,0.0,0.0
0.8016846179962158,0.06432186812162399,-0.06399526447057724,0.24173907935619354,-0.02108238871026978,0.003933474207120513,-0.2921317531908938,0.007882534991952267,0.059914700619326224,0.056263409817373766,0.0,0.0,0.0,0.0,0.0,0.0,0.0,0.0,0.0,0.0
0.8131077289581299,0.06429491192102432,-0.06398660689592361,0.24190779030323029,-0.018016470488315603,0.0037625368086891455,-0.25084073749434105,0.008089167737120775,0.05957812468109093,0.056115000837043155,0.0,0.0,0.0,0.0,0.0,0.0,0.0,0.0,0.0,0.0
0.824777364730835,0.06425289064645767,-0.06392176449298859,0.2421252429485321,-0.007338792225583665,0.0036262086865135002,-0.07502274376995245,0.007893986795027974,0.0597147226601332,0.05568842065568365,0.0,0.0,0.0,0.0,0.0,0.0,0.0,0.0,0.0,0.0
0.8362960815429688,0.06418078392744064,-0.06386953592300415,0.24259088933467865,-0.00018286056074591755,0.0034332223938999444,0.04517994253647597,0.008236950756936407,0.06029435145471768,0.054445195863798077,0.0,0.0,0.0,0.0,0.0,0.0,0.0,0.0,0.0,0.0
0.8474397659301758,0.06412932276725769,-0.06383740901947021,0.2427769899368286,0.003294583645206127,0.0032694684128589386,0.10815424649456547,0.008295832809634196,0.06086333255709884,0.05386443194741985,0.0,0.0,0.0,0.0,0.0,0.0,0.0,0.0,0.0,0.0
0.8588199615478516,0.06409944593906403,-0.0637299045920372,0.24324187636375427,0.004797743269500275,0.0035770557466627217,0.14519493027318428,0.008059495674162278,0.062102899696359,0.05285687202476583,0.0,0.0,0.0,0.0,0.0,0.0,0.0,0.0,0.0,0.0
0.8705816268920898,0.06410607695579529,-0.06373952329158783,0.24343492090702057,0.005205276923306457,0.004084712310439546,0.16247950007189002,0.00810835906991953,0.06229434905164356,0.05296425457368857,0.0,0.0,0.0,0.0,0.0,0.0,0.0,0.0,0.0,0.0
0.8818018436431885,0.06329068541526794,-0.06363475322723389,0.24474363029003143,0.0025192119439048973,0.003946141192066975,0.14319027611976434,0.0017695867098646149,0.06564902998415276,0.04768912665219588,0.0,0.0,0.0,22312.0,16965.0,16920.0,21793.0,0.0,0.0,0.0
0.8935320377349854,0.06337322294712067,-0.06361700594425201,0.24520915746688843,-0.0026916333929539902,0.004471562650269185,0.14274562658422463,0.001532964988743086,0.06685653648339311,0.04885265337110264,0.0,0.0,0.0,22317.0,16936.0,16906.0,21825.0,0.0,0.0,0.0
0.9049715995788574,0.06343908607959747,-0.06345242261886597,0.24552911520004272,-0.0067364467698833915,0.00462806634678203,0.12101174182745256,0.0010238220073997583,0.06769363889371785,0.04911740900812082,0.0,0.0,0.0,22313.0,16948.0,16909.0,21816.0,0.0,0.0,0.0
0.9164984226226807,0.062183696776628494,-0.06078590452671051,0.22307926416397095,-0.010987928170389322,0.01120170120216759,0.05247849213695861,0.01700412661204797,0.021837651177091265,0.036169098685124135,0.0,0.0,0.0,22310.0,16953.0,16912.0,21812.0,0.0,0.0,0.0
0.9279055595397949,0.06373324245214462,-0.0636221170425415,0.24629710614681244,-0.014075562137663061,0.019531927397595624,-0.04194923142996973,0.0011030084163710081,0.07110778734605298,0.05217585482937601,0.0,0.0,0.0,22302.0,16950.0,16921.0,21814.0,0.0,0.0,0.0
0.939122200012207,0.06386445462703705,-0.0636221393942833,0.24656707048416138,-0.009873534970943346,0.015436427612661934,-0.03812116191385986,0.0015055720781258003,0.07289432052469862,0.05295778339745252,0.0,0.0,0.0,22306.0,16940.0,16916.0,21825.0,0.0,0.0,0.0
0.9504415988922119,0.06439868360757828,-0.06377846747636795,0.24778451025485992,-0.0015020837778339459,0.005334484183070363,0.02199226377315756,0.00059220296433879,0.0842551444776966,0.05541918049065007,0.0,0.0,0.0,22305.0,16934.0,16916.0,21829.0,0.0,0.0,0.0
0.9623672962188721,0.06456327438354492,-0.06388215720653534,0.2480284422636032,0.007426288836419233,-0.002570568737978207,0.06887506905859365,0.0016747111455355215,0.08778731001734587,0.05609535864557017,0.0,0.0,0.0,22309.0,16927.0,16912.0,21835.0,0.0,0.0,0.0
0.9736063480377197,0.06470142304897308,-0.06394725292921066,0.248301163315773,0.013000447441271032,-0.007510152609866818,0.08372199230713703,0.0025536285989613363,0.09117580537928036,0.05651332972310307,0.0,0.0,0.0,22306.0,16920.0,16914.0,21842.0,0.0,0.0,0.0
0.9850599765777588,0.06537559628486633,-0.06400759518146515,0.24861618876457214,0.018490145189086753,-0.010858585460569494,0.09367723537984712,0.009452693537426107,0.1041708960465578,0.05898415120300037,0.0,0.0,0.0,22303.0,16921.0,16919.0,21841.0,0.0,0.0,0.0
0.9965212345123291,0.06315993517637253,-0.06190904229879379,0.23938213288784027,0.01804445822903323,-0.0073503930625032484,0.06988717041249545,0.020125438545206542,0.0355681595306427,0.04188273337252549,0.0,0.0,0.0,22302.0,16919.0,16920.0,21842.0,0.0,0.0,0.0
1.007638931274414,0.06578470766544342,-0.06413094699382782,0.24802279472351074,0.01280622068431763,-0.0002755350703864275,0.025968177751071735,0.013867315142685434,0.10430821112613425,0.05917225511330471,0.0,0.0,0.0,22300.0,16919.0,16921.0,21843.0,0.0,0.0,0.0
1.0190918445587158,0.06634962558746338,-0.0644020065665245,0.24928469955921173,0.017749917645578317,-0.002074770906621091,0.0206624876476847,0.015721741969271508,0.12692136913553048,0.06007022175849358,0.0,0.0,0.0,22302.0,16915.0,16920.0,21846.0,0.0,0.0,0.0
1.030419111251831,0.06660646945238113,-0.06427939981222153,0.24846269190311432,0.02709393178559471,-0.008778093651884986,0.03729549137951502,0.018830091934422786,0.12452099498990254,0.05950075606321104,0.0,0.0,0.0,22301.0,16910.0,16919.0,21852.0,0.0,0.0,0.0
1.0418002605438232,0.06685106456279755,-0.0641971006989479,0.24857287108898163,0.03340354533081493,-0.011930847305964078,0.043541987562450105,0.020023962456644326,0.13114757208110553,0.058966428676452826,0.0,0.0,0.0,22305.0,16899.0,16914.0,21862.0,0.0,0.0,0.0
1.053067684173584,0.06710582226514816,-0.06318165361881256,0.2484913170337677,0.035308655778342045,-0.009490420162227356,0.04047171209146681,0.0215659970647771,0.14915594209046754,0.05264928032490755,0.0,0.0,0.0,22304.0,16899.0,16914.0,21862.0,0.0,0.0,0.0
1.064286708831787,0.06765897572040558,-0.06386911123991013,0.24878813326358795,0.035906014280567985,-0.004010876397907993,0.03529960076620173,0.02667520993958312,0.15808371692183393,0.05386702827003037,0.0,0.0,0.0,22302.0,16902.0,16916.0,21860.0,0.0,0.0,0.0
1.0755195617675781,0.06820566207170486,-0.06336691230535507,0.24840399622917175,0.03715484397719332,-2.4028615169445597e-05,0.029197095816820534,0.021617692053581453,0.16954261456712671,0.053616624419641906,0.0,0.0,0.0,22302.0,16902.0,16916.0,21860.0,0.0,0.0,0.0
1.0872583389282227,0.06875171512365341,-0.06516207754611969,0.24853427708148956,0.042069419879294925,-0.000765719484038801,0.023562402511973647,0.03199719341737489,0.17924551388706364,0.06119260746560602,0.0,0.0,0.0,22308.0,16906.0,16908.0,21857.0,0.0,0.0,0.0
1.098461389541626,0.0690850168466568,-0.0640425831079483,0.24754786491394043,0.03997113611616833,-0.005071037685269361,0.012556029173181733,0.02593444059957374,0.19043658519063986,0.05194118114446063,0.0,0.0,0.0,22310.0,16908.0,16905.0,21856.0,0.0,0.0,0.0
1.1102118492126465,0.06970877945423126,-0.06482894718647003,0.24795615673065186,0.04415580041077473,-0.008430880281811364,0.0028340483388682343,0.041501954430989314,0.20977363943658323,0.05523235500819529,0.0,0.0,0.0,22320.0,16897.0,16893.0,21866.0,0.0,0.0,0.0
1.121598720550537,0.06984974443912506,-0.06441810727119446,0.24736860394477844,0.041539820796077515,-0.00878517577585642,-0.005481293079377343,0.041166238105371386,0.21684337067919385,0.05452739610681463,0.0,0.0,0.0,22323.0,16891.0,16889.0,21871.0,0.0,0.0,0.0
1.1331830024719238,0.07019346952438354,-0.06481076776981354,0.2470470815896988,0.041081943164705204,-0.00939092187543176,-0.012614216668657929,0.045604573744153436,0.22506909058556188,0.0554548885009311,0.0,0.0,0.0,22330.0,16882.0,16881.0,21879.0,0.0,0.0,0.0
1.1446714401245117,0.07090035825967789,-0.06629152595996857,0.24646113812923431,0.03869081118989745,-0.012638173315335177,-0.019326265971842935,0.06009144767085044,0.24487852856732303,0.06030176757343268,0.0,0.0,0.0,22340.0,16873.0,16871.0,21885.0,0.0,0.0,0.0
1.1558847427368164,0.06521732360124588,-0.0647907555103302,0.252944678068161,0.02349061541421659,-0.016741458933996138,-0.009524829669372795,0.006829659282907455,0.057989294372818995,0.04450124083628314,0.0,0.0,0.0,22344.0,16872.0,16867.0,21886.0,0.0,0.0,0.0
1.1671555042266846,0.07186687737703323,-0.0670211985707283,0.24529364705085754,0.00401957512471544,-0.01953264269803696,0.007473512433797515,0.07867946077370874,0.2696730327766152,0.060462138787908674,0.0,0.0,0.0,22345.0,16871.0,16866.0,21886.0,0.0,0.0,0.0
1.178771734237671,0.07208681851625443,-0.06729642301797867,0.24469485878944397,0.009344418062646282,-0.027696269084960236,-0.0037254925367318052,0.08864718236013468,0.28109929205964607,0.061530396749734144,0.0,0.0,0.0,22348.0,16872.0,16863.0,21885.0,0.0,0.0,0.0
1.190039873123169,0.07195501029491425,-0.06726934760808945,0.2434992492198944,0.026079514478278096,-0.033590311409210094,-0.031770567513551555,0.09171280374502583,0.29694904102585,0.06563964684438288,0.0,0.0,0.0,22361.0,16857.0,16847.0,21898.0,0.0,0.0,0.0
1.2015399932861328,0.07252907007932663,-0.06852155923843384,0.2425777018070221,0.036233597100533636,-0.03918667766540622,-0.056118658200173394,0.10927483579862557,0.3256667037520669,0.07410794227963838,0.0,0.0,0.0,22365.0,16865.0,16840.0,21893.0,0.0,0.0,0.0
1.2129273414611816,0.0727633610367775,-0.06898234039545059,0.2419915646314621,0.04017469591955159,-0.04365184866375864,-0.07128563058655217,0.11894071598414872,0.3352451271777453,0.075768307890148,0.0,0.0,0.0,22367.0,16873.0,16836.0,21888.0,0.0,0.0,0.0
1.2241780757904053,0.07295318692922592,-0.06934861093759537,0.24133998155593872,0.04070832853465971,-0.046957088689899236,-0.07820320696040428,0.13101196083088007,0.3460811750953555,0.0784913010301538,0.0,0.0,0.0,22367.0,16873.0,16836.0,21888.0,0.0,0.0,0.0
1.2356674671173096,0.07345119118690491,-0.07008320838212967,0.24017837643623352,0.04139912673237361,-0.050869964298369354,-0.08522747482535106,0.15290515572653998,0.3635453255684034,0.08245190439592981,0.0,0.0,0.0,22368.0,16875.0,16834.0,21887.0,0.0,0.0,0.0
1.2468597888946533,0.07368377596139908,-0.07050112634897232,0.23959289491176605,0.038076185651100596,-0.04972678751130062,-0.08312585378244654,0.16272845786933796,0.37147091977321817,0.08456816318989949,0.0,0.0,0.0,22357.0,16928.0,16889.0,21806.0,0.0,0.0,0.0
1.2582697868347168,0.07393985986709595,-0.07094002515077591,0.2389518916606903,0.03729536550441254,-0.05155674013841791,-0.08520210892985175,0.1746139229821615,0.3809005061054121,0.08771779484188062,0.0,0.0,0.0,22374.0,16861.0,16826.0,21899.0,0.0,0.0,0.0
1.2699458599090576,0.07436766475439072,-0.07164257764816284,0.23768429458141327,0.03629204795015946,-0.05293056451417597,-0.08646234816645731,0.193009191727777,0.39682812107753823,0.093271770414158,0.0,0.0,0.0,22374.0,16852.0,16826.0,21906.0,0.0,0.0,0.0
1.2812180519104004,0.07440470159053802,-0.07176513969898224,0.23675043880939484,0.031573972507023464,-0.048345198969059235,-0.08036603638976562,0.20219326602318644,0.40254564418334743,0.09549119613445156,0.0,0.0,0.0,22373.0,16849.0,16828.0,21909.0,0.0,0.0,0.0
1.292431116104126,0.07502128183841705,-0.07261370867490768,0.23589715361595154,0.0290388851200626,-0.04612710656001617,-0.07973129928159636,0.21858566559130266,0.42236683066973535,0.10182873747731319,0.0,0.0,0.0,22366.0,16850.0,16838.0,21907.0,0.0,0.0,0.0
1.3038198947906494,0.07527138292789459,-0.07297056168317795,0.23540811240673065,0.028915431655500146,-0.046510562183324736,-0.08094070057228263,0.22579578408328027,0.4300572113383371,0.10484174975033225,0.0,0.0,0.0,22357.0,16861.0,16847.0,21899.0,0.0,0.0,0.0
1.315080165863037,0.06519202142953873,-0.06477443128824234,0.2460966855287552,0.005128741047944906,-0.025794281865945567,-0.05116102372574176,0.02048175546961418,0.05217286040982358,0.04206684497547715,0.0,0.0,0.0,22356.0,16860.0,16848.0,21900.0,0.0,0.0,0.0
1.3265469074249268,0.07551057636737823,-0.07376903295516968,0.23378752171993256,-0.03190692316662445,0.00472615368029544,-0.00999576906537896,0.24856617059681455,0.4561155958408072,0.11242351491782208,0.0,0.0,0.0,22359.0,16866.0,16842.0,21896.0,0.0,0.0,0.0
1.3378937244415283,0.07587292045354843,-0.07375995069742203,0.23297260701656342,-0.026380864347193535,0.0014176693586466149,-0.015638803585710907,0.2545944549084835,0.4646927083520999,0.11329572650891834,0.0,0.0,0.0,22351.0,16861.0,16851.0,21901.0,0.0,0.0,0.0
1.3491530418395996,0.07597141712903976,-0.07403067499399185,0.23235608637332916,0.0038495692980471475,-0.02082169850435203,-0.04910096749832164,0.2605204772806737,0.47184044682728365,0.11441695566575259,0.0,0.0,0.0,22352.0,16859.0,16850.0,21903.0,0.0,0.0,0.0
1.3606340885162354,0.07597299665212631,-0.07453308999538422,0.23115850985050201,0.02355616689119361,-0.03564194595710087,-0.0741590217431473,0.27351743849549176,0.48599939270139547,0.11513183218906457,0.0,0.0,0.0,22352.0,16856.0,16850.0,21905.0,0.0,0.0,0.0
1.3719806671142578,0.07594559341669083,-0.07476286590099335,0.23058979213237762,0.03244185851080324,-0.04299121613150834,-0.08690763990761288,0.27912959377927016,0.4918044130812694,0.11511271586521377,0.0,0.0,0.0,22353.0,16855.0,16850.0,21905.0,0.0,0.0,0.0
1.383263111114502,0.07588639110326767,-0.07489662617444992,0.22997207939624786,0.034215184372624635,-0.045486594879189726,-0.09234357964656309,0.2856012712043569,0.4978469968457178,0.11546909219291547,0.0,0.0,0.0,22354.0,16854.0,16850.0,21905.0,0.0,0.0,0.0
1.3949670791625977,0.07575061172246933,-0.07520784437656403,0.22891131043434143,0.03353031711224681,-0.04740410348008809,-0.09931254643837871,0.29609583593933286,0.5074169729900536,0.11509140144902448,0.0,0.0,0.0,22354.0,16854.0,16850.0,21905.0,0.0,0.0,0.0
1.4063518047332764,0.07563333958387375,-0.0753292441368103,0.228316068649292,0.025914754957601253,-0.04170582471637007,-0.0924592757449118,0.3027054538649004,0.5130194250752431,0.11512986374282135,0.0,0.0,0.0,22359.0,16854.0,16845.0,21904.0,0.0,0.0,0.0
1.4178438186645508,0.07546719908714294,-0.07555525749921799,0.22734405100345612,0.018758000487280744,-0.037690452641917185,-0.09027588350140822,0.3126143836187575,0.5215343004426571,0.11486487560656942,0.0,0.0,0.0,22359.0,16864.0,16845.0,21895.0,0.0,0.0,0.0
1.4292149543762207,0.07538803666830063,-0.07566070556640625,0.2268666923046112,0.010870481535464015,-0.03191555698063729,-0.08398301973815428,0.31721658358070587,0.5254370165040139,0.11458148191453932,0.0,0.0,0.0,22355.0,16874.0,16849.0,21888.0,0.0,0.0,0.0
1.4405739307403564,0.0753064677119255,-0.07570452988147736,0.22632016241550446,0.004310491783763449,-0.026626404138475,-0.07800214164485315,0.32286893007076106,0.5303527633123923,0.11501607990446328,0.0,0.0,0.0,22349.0,16884.0,16854.0,21881.0,0.0,0.0,0.0
1.45198392868042,0.07510679960250854,-0.07575564086437225,0.22541898488998413,-0.0010606739197586944,-0.021489453009134914,-0.07265673799052895,0.3297736973124691,0.5378135147683263,0.11509791170085881,0.0,0.0,0.0,22346.0,16891.0,16856.0,21876.0,0.0,0.0,0.0
1.4635519981384277,0.07501128315925598,-0.07574158161878586,0.22493846714496613,-0.005623082643479258,-0.016778282725778526,-0.06962819701689821,0.3331218573207663,0.5417239643909373,0.11500508497934316,0.0,0.0,0.0,22342.0,16898.0,16859.0,21872.0,0.0,0.0,0.0
1.47477126121521,0.06408030539751053,-0.06377246975898743,0.24005550146102905,-0.032273880947806095,0.015040455473957534,-0.02712206374884858,0.017473089095213157,0.04395242484633352,0.039142903737666976,0.0,0.0,0.0,22343.0,16896.0,16856.0,21876.0,0.0,0.0,0.0
1.4862525463104248,0.07469777762889862,-0.07586830109357834,0.22364982962608337,-0.0736389513711297,0.061255212227881634,0.030359932214476557,0.33970901376045376,0.5495759834557292,0.11382215261283979,0.0,0.0,0.0,22351.0,16878.0,16846.0,21891.0,0.0,0.0,0.0
1.4974815845489502,0.07463790476322174,-0.0758751779794693,0.22326527535915375,-0.0650464246859799,0.053321777754908886,0.021638887426268995,0.34101710909012195,0.5512969308988089,0.11321055609943706,0.0,0.0,0.0,22361.0,16864.0,16835.0,21902.0,0.0,0.0,0.0
1.5090746879577637,0.0744812861084938,-0.07588277012109756,0.22251681983470917,-0.034526561539662534,0.01941408108127459,-0.025310149058767883,0.34346760793168174,0.5542325520453512,0.11206111005506658,0.0,0.0,0.0,22361.0,16864.0,16835.0,21902.0,0.0,0.0,0.0
1.5203227996826172,0.07437878847122192,-0.07588318735361099,0.2220713049173355,-0.010816686007800124,-0.004660473644709339,-0.054085436291963364,0.3450517061634794,0.5555802264639463,0.11172972619137041,0.0,0.0,0.0,22362.0,16866.0,16836.0,21899.0,0.0,0.0,0.0
1.5315327644348145,0.07431207597255707,-0.07589268684387207,0.22169305384159088,0.0025622185373276067,-0.01806350837956658,-0.07083397766966587,0.34659792407074086,0.5570572148318217,0.11169456314999769,0.0,0.0,0.0,22357.0,16872.0,16843.0,21892.0,0.0,0.0,0.0
1.5426816940307617,0.07411560416221619,-0.07592088729143143,0.22083395719528198,0.00935779701210385,-0.024313012059548313,-0.07800530642864659,0.3491412901191178,0.5603500948287488,0.11151945234971766,0.0,0.0,0.0,22358.0,16871.0,16842.0,21893.0,0.0,0.0,0.0
1.5540859699249268,0.07401859760284424,-0.0759567841887474,0.22040781378746033,0.011835879750946422,-0.0271124829636937,-0.0838962951311854,0.3503422248592493,0.5622487900941151,0.11155891669818854,0.0,0.0,0.0,22356.0,16870.0,16843.0,21895.0,0.0,0.0,0.0
1.5654959678649902,0.0739317387342453,-0.07597263902425766,0.22002887725830078,0.010849393202590301,-0.025753914951212667,-0.0818353579934879,0.35101992913870683,0.5636022045369967,0.11140409448665294,0.0,0.0,0.0,22355.0,16869.0,16842.0,21898.0,0.0,0.0,0.0
1.576871633529663,0.07380392402410507,-0.07588455080986023,0.2193884402513504,0.008209747120979492,-0.022134724541724955,-0.07589032128303369,0.352151412837579,0.5659568948639963,0.1116706100679734,0.0,0.0,0.0,22352.0,16868.0,16842.0,21902.0,0.0,0.0,0.0
1.5883817672729492,0.07376508414745331,-0.0758974701166153,0.21902422606945038,0.00507813278881793,-0.0178262506830506,-0.07080395719838753,0.35219098223889367,0.5669195979197351,0.1114001836092603,0.0,0.0,0.0,22347.0,16864.0,16849.0,21905.0,0.0,0.0,0.0
1.5996689796447754,0.07368163764476776,-0.07589571177959442,0.21861882507801056,0.001846972642245029,-0.012536617380822724,-0.06137881917118171,0.351402156458123,0.5676639014732349,0.11068048626576499,0.0,0.0,0.0,22327.0,16934.0,16879.0,21840.0,0.0,0.0,0.0
1.6110868453979492,0.07355571538209915,-0.07593909651041031,0.21793216466903687,-0.0009331715934084062,-0.008736076861532303,-0.05616880597848639,0.3511189782686629,0.5694907482435739,0.10968071191598754,0.0,0.0,0.0,22338.0,16892.0,16858.0,21881.0,0.0,0.0,0.0
1.6224415302276611,0.06365086138248444,-0.06286805123090744,0.24685850739479065,-0.025277416152006286,0.02352249308879404,0.014253187090284147,0.017831106385523446,0.05776674654168756,0.042050255764768306,0.0,0.0,0.0,22338.0,16892.0,16858.0,21881.0,0.0,0.0,0.0
1.6338531970977783,0.07345323264598846,-0.07616005837917328,0.21716023981571198,-0.06055145178468363,0.0697481166484272,0.11732012852686886,0.35026480520132464,0.5710343686876959,0.10728135154602357,0.0,0.0,0.0,22336.0,16900.0,16862.0,21874.0,0.0,0.0,0.0
1.6453971862792969,0.07340983301401138,-0.07624030113220215,0.2165304273366928,-0.055190813908766574,0.06144630668555176,0.10040900321069138,0.3498644725844308,0.5717570811367462,0.10601890745161685,0.0,0.0,0.0,22336.0,16910.0,16861.0,21866.0,0.0,0.0,0.0
1.6567542552947998,0.07339412719011307,-0.07625240832567215,0.21617968380451202,-0.02281609823117902,0.01813148501700789,0.007101743458714574,0.3494024671723687,0.5719055848898701,0.105482536156371,0.0,0.0,0.0,22342.0,16921.0,16852.0,21857.0,0.0,0.0,0.0
1.6680433750152588,0.073373943567276,-0.07627001404762268,0.21547125279903412,-0.0021124104040145136,-0.008946840610610749,-0.05212987316942482,0.34754145915710966,0.5722903261561214,0.10501325487342233,0.0,0.0,0.0,22292.0,17016.0,16920.0,21769.0,0.0,0.0,0.0
1.6792805194854736,0.07341406494379044,-0.07614035159349442,0.2152145653963089,0.010369094276428702,-0.023950549615266672,-0.08650203374455692,0.34717852904419977,0.5719088222388486,0.10533208527892854,0.0,0.0,0.0,22325.0,16950.0,16872.0,21833.0,0.0,0.0,0.0
1.6906664371490479,0.07344528287649155,-0.07615473121404648,0.21486255526542664,0.017492045369467878,-0.030912583100393083,-0.10484112392317745,0.3460989425708376,0.5716759343093045,0.1049614819035138,0.0,0.0,0.0,22322.0,16953.0,16876.0,21831.0,0.0,0.0,0.0
1.7021598815917969,0.07354681938886642,-0.07615785300731659,0.2141580432653427,0.02067091821342969,-0.0319585591584086,-0.10959315940124563,0.3433975798233567,0.5709367941591796,0.10425918429453732,0.0,0.0,0.0,22339.0,16940.0,16856.0,21841.0,0.0,0.0,0.0
1.7136197090148926,0.07357808947563171,-0.07628291845321655,0.2137429267168045,0.020771736662865154,-0.029170323533653994,-0.104487522097564,0.34147092620302716,0.5707976861909994,0.10314275263766784,0.0,0.0,0.0,22361.0,16930.0,16834.0,21846.0,0.0,0.0,0.0
1.7249476909637451,0.07364653795957565,-0.07627314329147339,0.2133638560771942,0.018896893729951923,-0.024635482830179085,-0.09340100373315069,0.34059865018821917,0.5702554792794603,0.10272028900077915,0.0,0.0,0.0,22367.0,16949.0,16826.0,21831.0,0.0,0.0,0.0
1.7363958358764648,0.07376684248447418,-0.0762498676776886,0.21263447403907776,0.017058818270100466,-0.020319566219107802,-0.08429046581328416,0.3394371341718044,0.5690974096243933,0.102079997985537,0.0,0.0,0.0,22386.0,16942.0,16802.0,21838.0,0.0,0.0,0.0
1.7476165294647217,0.07366634160280228,-0.07622295618057251,0.21207073330879211,0.013960162873689418,-0.014650655829643497,-0.07197129306101856,0.33828826710412085,0.5662725789529204,0.10065508898893166,0.0,0.0,0.0,22389.0,16951.0,16798.0,21831.0,0.0,0.0,0.0
1.7588694095611572,0.07394111156463623,-0.07624924927949905,0.2113506942987442,0.011530815446659938,-0.010123892345497737,-0.06508940874447847,0.3390873712962603,0.5666676507540019,0.10033234855190687,0.0,0.0,0.0,22442.0,16943.0,16739.0,21835.0,0.0,0.0,0.0
1.7704172134399414,0.07391522079706192,-0.07631496340036392,0.2108399122953415,0.01025762503488214,-0.006833533494262259,-0.06252124985041839,0.33963664749886147,0.5646991111621166,0.09962037847624389,0.0,0.0,0.0,22484.0,16950.0,16689.0,21828.0,0.0,0.0,0.0
1.7817039489746094,0.07025498151779175,-0.06548017263412476,0.246237114071846,0.0001866812779261159,0.0199182702902203,0.02388005296202706,0.0637693384663909,0.22612968361931554,0.04625998325823509,0.0,0.0,0.0,22519.0,16961.0,16646.0,21819.0,0.0,0.0,0.0
1.7929515838623047,0.07422275096178055,-0.07654889672994614,0.2094906121492386,-0.013068090087236894,0.05688228729633903,0.1455372883417742,0.3433876234231448,0.5641912801056036,0.09932549867137058,0.0,0.0,0.0,22350.0,17165.0,16847.0,21644.0,0.0,0.0,0.0
1.8041090965270996,0.07444688677787781,-0.07659650593996048,0.20910905301570892,-0.009705938693721624,0.04790356960658934,0.11806005592448582,0.3445714192691211,0.5652857922588315,0.09980114121703482,0.0,0.0,0.0,22564.0,17024.0,16592.0,21766.0,0.0,0.0,0.0
1.815720796585083,0.07454843074083328,-0.07668335735797882,0.20868001878261566,0.003208399193796624,0.01478578696428241,0.009216297519427437,0.34562856375995615,0.5652964959512914,0.10038823177378312,0.0,0.0,0.0,22569.0,17026.0,16584.0,21765.0,0.0,0.0,0.0
1.8268985748291016,0.07469642907381058,-0.07685355097055435,0.20782864093780518,0.01161334358845427,-0.009081051680831108,-0.06299587367544429,0.34639782343708503,0.5642486140698302,0.10073532137176464,0.0,0.0,0.0,22662.0,16965.0,16470.0,21819.0,0.0,0.0,0.0
1.8380498886108398,0.07473421096801758,-0.07692304998636246,0.2074057012796402,0.01655291731316169,-0.02303668215407534,-0.10522939293326378,0.3460665881420759,0.5633880803600472,0.10055138983724671,0.0,0.0,0.0,22686.0,16941.0,16441.0,21839.0,0.0,0.0,0.0
1.849318265914917,0.0731462836265564,-0.06990179419517517,0.23936276137828827,0.015290792253153815,-0.015015453659535317,-0.056197353197267604,0.17381600780860004,0.3438465313570717,0.06126809356700897,0.0,0.0,0.0,22732.0,16924.0,16387.0,21851.0,0.0,0.0,0.0
1.8606126308441162,0.07491356134414673,-0.0771343782544136,0.206255704164505,0.009830677661839492,0.006527287307063688,0.0476767442271225,0.3435538006807758,0.5602415471305798,0.09907994634920715,0.0,0.0,0.0,22743.0,16917.0,16374.0,21857.0,0.0,0.0,0.0
1.8720743656158447,0.07494018226861954,-0.07718846201896667,0.20590180158615112,0.010113150423562457,0.0024899293678882634,0.030417849856268206,0.34182590588922596,0.5590046176552428,0.09801955185807606,0.0,0.0,0.0,22736.0,16908.0,16382.0,21864.0,0.0,0.0,0.0
1.8828082084655762,0.07491525262594223,-0.07717334479093552,0.2054574191570282,0.011737458779180561,-0.015111829105821059,-0.055069351055164625,0.33966025484779766,0.5574120824769696,0.09662050618909873,0.0,0.0,0.0,22781.0,16881.0,16332.0,21883.0,0.0,0.0,0.0
1.8936083316802979,0.07482296228408813,-0.07721339166164398,0.20459656417369843,0.012198925722698277,-0.02474291829044048,-0.10598296193396796,0.3351851954761341,0.5539573546148445,0.0938774910373955,0.0,0.0,0.0,22800.0,16856.0,16314.0,21901.0,0.0,0.0,0.0
1.9049193859100342,0.07476547360420227,-0.07718586921691895,0.20421570539474487,0.011626422670531274,-0.03079062114019179,-0.14388132667487602,0.332596261971419,0.5529684729892107,0.09256890374972318,0.0,0.0,0.0,22824.0,16832.0,16291.0,21915.0,0.0,0.0,0.0
1.9161362648010254,0.07471593469381332,-0.07714129239320755,0.2038293331861496,0.008793617900620816,-0.029593530057220395,-0.1496169208091317,0.32964386560641423,0.5517030925972668,0.09099346319977007,0.0,0.0,0.0,22824.0,16832.0,16291.0,21915.0,0.0,0.0,0.0
1.9275825023651123,0.07457096129655838,-0.07702714949846268,0.20310576260089874,0.005856644353634722,-0.02663389868416339,-0.14881707345678136,0.3231678638429451,0.5513643240274567,0.08830836989763319,0.0,0.0,0.0,22882.0,16803.0,16226.0,21934.0,0.0,0.0,0.0
1.9389894008636475,0.07441376149654388,-0.07695169746875763,0.20274735987186432,0.002170110242520005,-0.020588148754742294,-0.13404061929752442,0.3195777878295365,0.5500461507255132,0.08621425256832585,0.0,0.0,0.0,22920.0,16782.0,16183.0,21948.0,0.0,0.0,0.0
1.9501574039459229,0.0741429328918457,-0.07681593298912048,0.20222723484039307,-0.001828897405060759,-0.013525193379344453,-0.1121619311191166,0.31534886084362074,0.5467528122137786,0.08273242778711061,0.0,0.0,0.0,22964.0,16751.0,16134.0,21970.0,0.0,0.0,0.0
1.9615085124969482,0.07385343313217163,-0.07649096101522446,0.2015247642993927,-0.006355500579876366,-0.007102605600143527,-0.09811598004077955,0.3069535680745922,0.543734414355613,0.07645009064480945,0.0,0.0,0.0,22986.0,16731.0,16107.0,21986.0,0.0,0.0,0.0
1.9728882312774658,0.07359622418880463,-0.07636334747076035,0.20113638043403625,-0.010937646862625324,-0.00023532366589919165,-0.08331491113051889,0.30225962473213414,0.541336791971962,0.07290969907401008,0.0,0.0,0.0,23018.0,16716.0,16073.0,21994.0,0.0,0.0,0.0
1.9842488765716553,0.07230851799249649,-0.07653915137052536,0.20166416466236115,-0.017191995855258893,0.004839575482729265,-0.06760172860083222,0.27947118668236665,0.5337318324600983,0.059664212248430985,0.0,0.0,0.0,23029.0,16696.0,16060.0,22010.0,0.0,0.0,0.0
1.995856523513794,0.07224469631910324,-0.07601353526115417,0.2001090794801712,-0.026644283553930937,0.008364889976670736,-0.05540136785252826,0.2853879600866196,0.5311889305325126,0.05926364172189025,0.0,0.0,0.0,23042.0,16682.0,16045.0,22020.0,0.0,0.0,0.0
2.0071704387664795,0.07482553273439407,-0.07493862509727478,0.22493921220302582,-0.025252460105899897,0.013357986609932678,0.010506144322452551,0.3232930346961999,0.5056715053584179,0.08421292226245637,0.0,0.0,0.0,23052.0,16667.0,16036.0,22031.0,0.0,0.0,0.0
2.0184378623962402,0.07129226624965668,-0.07580791413784027,0.19950442016124725,-0.018957364448724146,0.019087566394115355,0.09734143863705827,0.2682878884294867,0.5207765853377753,0.04976597158886791,0.0,0.0,0.0,23090.0,16623.0,15993.0,22063.0,0.0,0.0,0.0
2.0296213626861572,0.07077011466026306,-0.07525883615016937,0.1982380896806717,-0.024147559951260736,0.02019488905803927,0.07867073222522006,0.2685689971505456,0.5126150044237977,0.046368261608031563,0.0,0.0,0.0,22533.0,16892.0,16632.0,21876.0,0.0,0.0,0.0
2.0411436557769775,0.069521464407444,-0.07428579032421112,0.19542157649993896,-0.03974532019454153,0.02277149387449373,-0.0070059839223517925,0.30677601401403143,0.5374862307917142,0.05559219750694268,0.0,0.0,0.0,22533.0,16892.0,16632.0,21876.0,0.0,0.0,0.0
2.0525240898132324,0.0692969411611557,-0.07501393556594849,0.19622907042503357,-0.05050765148346968,0.024770445253738973,-0.07263314070534453,0.2623323262301258,0.5026003196560618,0.035732453322816486,0.0,0.0,0.0,23126.0,16576.0,15950.0,22101.0,0.0,0.0,0.0
2.063720941543579,0.06869791448116302,-0.07468927651643753,0.195600226521492,-0.05587228300046861,0.022724147051530495,-0.10587964399029037,0.2592892970765611,0.4990247475718534,0.032834024552965795,0.0,0.0,0.0,23144.0,16570.0,15930.0,22103.0,0.0,0.0,0.0
2.074946880340576,0.06820332258939743,-0.07453681528568268,0.19513137638568878,-0.05893031751176374,0.01992356232646198,-0.11937637415117591,0.25625910849986633,0.49524726058221324,0.030058956179304385,0.0,0.0,0.0,23152.0,16560.0,15920.0,22111.0,0.0,0.0,0.0
2.086113214492798,0.06719858944416046,-0.07431286573410034,0.19433307647705078,-0.05997451205718355,0.017905428956690055,-0.11958843551042721,0.24883333151048187,0.48698483385944336,0.02486219078139014,0.0,0.0,0.0,23163.0,16545.0,15908.0,22121.0,0.0,0.0,0.0
2.0976953506469727,0.06676315516233444,-0.07405466586351395,0.1938360333442688,-0.0655030783830597,0.018010162029970026,-0.12176534033998375,0.24404409823707063,0.48092413950603496,0.021024575094375688,0.0,0.0,0.0,23166.0,16538.0,15904.0,22128.0,0.0,0.0,0.0
2.108954668045044,0.06659951061010361,-0.07423767447471619,0.19410482048988342,-0.06124442565110127,0.015951138175818075,-0.10392725219040123,0.24286145176294477,0.4641537820780461,0.010570704270435298,0.0,0.0,0.0,23175.0,16529.0,15894.0,22134.0,0.0,0.0,0.0
2.1205077171325684,0.0656769871711731,-0.07375416904687881,0.19327452778816223,-0.060761886430369366,0.015091524882645382,-0.09201885592518115,0.22853080711830456,0.4653606347041815,0.012197171386615193,0.0,0.0,0.0,23192.0,16526.0,15874.0,22135.0,0.0,0.0,0.0
2.1316592693328857,0.06541089713573456,-0.07363884150981903,0.19324339926242828,-0.05419797646952771,0.013729450094785456,-0.07111168279115151,0.22321447061196437,0.46256102453387976,0.010344701598798751,0.0,0.0,0.0,23203.0,16526.0,15862.0,22134.0,0.0,0.0,0.0
2.1429316997528076,0.06513321399688721,-0.07297290861606598,0.19259651005268097,-0.05178414147411595,0.015368507705072657,-0.059186885674708936,0.21147403039112914,0.4537294443933125,0.00506965284107496,0.0,0.0,0.0,23210.0,16515.0,15852.0,22143.0,0.0,0.0,0.0
2.1542131900787354,0.06518968939781189,-0.0728040486574173,0.1928245574235916,-0.04630743629596522,0.018275288228640812,-0.04773576895265192,0.20362297673319885,0.4505788118583259,0.005836669174301016,0.0,0.0,0.0,23211.0,16510.0,15852.0,22147.0,0.0,0.0,0.0
2.165796995162964,0.06497427821159363,-0.07265110313892365,0.19281484186649323,-0.04101644886785661,0.021723014425331623,-0.03817090416298649,0.19488128396632995,0.44745123219744704,0.0018832874074343022,0.0,0.0,0.0,23211.0,16510.0,15852.0,22147.0,0.0,0.0,0.0
2.1772563457489014,0.06494125723838806,-0.07191315293312073,0.19210627675056458,-0.032562919273349325,0.023339533680071863,-0.027714388094711807,0.18740697090942296,0.44556141986490616,-0.0018531912551761234,0.0,0.0,0.0,23214.0,16498.0,15848.0,22156.0,0.0,0.0,0.0
2.1887247562408447,0.06498091667890549,-0.07170619815587997,0.19214864075183868,-0.025168481510221427,0.026295073040924814,-0.022145119241901885,0.18040570891579596,0.44280623432982863,-0.003716279459540026,0.0,0.0,0.0,23221.0,16491.0,15838.0,22163.0,0.0,0.0,0.0
2.199885368347168,0.06508492678403854,-0.07143566012382507,0.19222763180732727,-0.016929531912823245,0.027234609743754908,-0.01688591373976859,0.17357072653660613,0.43940013503888403,-0.005819868747720031,0.0,0.0,0.0,23235.0,16490.0,15820.0,22165.0,0.0,0.0,0.0
2.2113637924194336,0.06538178771734238,-0.07054087519645691,0.19200444221496582,-0.010300327900423784,0.03087346942645611,-0.01333854761746884,0.1550191952172655,0.4278847659667691,-0.013139245660380218,0.0,0.0,0.0,23246.0,16498.0,15806.0,22157.0,0.0,0.0,0.0
2.2230992317199707,0.0655442401766777,-0.07034717500209808,0.1922723948955536,-0.0029383617789340392,0.035468615195617594,-0.009934600168791502,0.14867592008151254,0.4244578224618765,-0.015484404979642256,0.0,0.0,0.0,23254.0,16503.0,15796.0,22153.0,0.0,0.0,0.0
2.2342588901519775,0.06583700329065323,-0.07025043666362762,0.19308343529701233,0.003809596922106403,0.03380620674275078,-0.003545374912448863,0.14255632601992504,0.42434389148235135,-0.017229137107232957,0.0,0.0,0.0,23259.0,16511.0,15790.0,22146.0,0.0,0.0,0.0
2.2457644939422607,0.06605499982833862,-0.07003749161958694,0.19328396022319794,0.009957895420772656,0.034310643490144635,0.0049609269212102566,0.138116283719781,0.4233618757514654,-0.018563249271641703,0.0,0.0,0.0,23266.0,16519.0,15781.0,22139.0,0.0,0.0,0.0
2.25716233253479,0.06677963584661484,-0.07034489512443542,0.19428466260433197,0.015555849980504329,0.02996702751908776,0.014488966860195176,0.14169862836829822,0.4167054919965051,-0.024774575447616822,0.0,0.0,0.0,23274.0,16536.0,15772.0,22125.0,0.0,0.0,0.0
2.268599033355713,0.0667712613940239,-0.06975722312927246,0.19392064213752747,0.02125819303585365,0.02519066354105054,0.023028478516502453,0.12766038106377206,0.42117754827576104,-0.02263485903770059,0.0,0.0,0.0,22837.0,16711.0,16257.0,22033.0,0.0,0.0,0.0
2.2797555923461914,0.06699765473604202,-0.06975995749235153,0.19413504004478455,0.023532488953196776,0.02064959974975889,0.02573611368618995,0.12582568837972377,0.42085460882109693,-0.02349443427537376,0.0,0.0,0.0,23276.0,16546.0,15767.0,22118.0,0.0,0.0,0.0
2.2910025119781494,0.06718910485506058,-0.06977896392345428,0.1943427324295044,0.024878852232338634,0.01797443542098022,0.026410379873052878,0.12454667536497148,0.4204554982624595,-0.024477256003239,0.0,0.0,0.0,23276.0,16540.0,15767.0,22123.0,0.0,0.0,0.0
2.302539348602295,0.06759794801473618,-0.0698992908000946,0.19476917386054993,0.026402759395513044,0.014686813800398182,0.027486140041866162,0.12400727052783216,0.41924656245509545,-0.025619135762245854,0.0,0.0,0.0,23290.0,16520.0,15753.0,22136.0,0.0,0.0,0.0
2.3139452934265137,0.06781826913356781,-0.07003426551818848,0.19513419270515442,0.02617130155561881,0.009615160887563102,0.02725515423707786,0.12407845620706992,0.41823818082755065,-0.026048638614921515,0.0,0.0,0.0,23292.0,16510.0,15751.0,22144.0,0.0,0.0,0.0
2.325191020965576,0.06815565377473831,-0.07037918269634247,0.1956952065229416,0.025682107307029696,0.004001370195752226,0.027807327590339746,0.12395705482683217,0.4139121431939376,-0.026792624901409587,0.0,0.0,0.0,23027.0,16613.0,16041.0,22097.0,0.0,0.0,0.0
2.3369743824005127,0.06875231117010117,-0.0710562989115715,0.1968006044626236,0.028679657276763987,-0.0031205832268893343,0.03402508431350976,0.13153031170728424,0.40644233719455436,-0.030492967121139546,0.0,0.0,0.0,23295.0,16488.0,15751.0,22160.0,0.0,0.0,0.0
2.348532199859619,0.06883259117603302,-0.0712708905339241,0.1971493810415268,0.028844306185366736,-0.011278372995894874,0.038587689165870624,0.1321386245483517,0.4036779655986298,-0.030309666856598975,0.0,0.0,0.0,23292.0,16485.0,15755.0,22162.0,0.0,0.0,0.0
2.359740734100342,0.06852728873491287,-0.07126818597316742,0.19709298014640808,0.026033959401200672,-0.01659974578871871,0.03967084278260795,0.12615988995022703,0.4039331906829103,-0.02477808509639215,0.0,0.0,0.0,23288.0,16482.0,15761.0,22163.0,0.0,0.0,0.0
2.371121883392334,0.06864549219608307,-0.07135991752147675,0.19722247123718262,0.02232752281052227,-0.019685673845692274,0.03941479319765329,0.12566867842276297,0.40038111613627836,-0.02475497898764009,0.0,0.0,0.0,23293.0,16473.0,15758.0,22168.0,0.0,0.0,0.0
2.382413387298584,0.06867653131484985,-0.0717296302318573,0.197758287191391,0.017076076275141235,-0.020244450297653066,0.03578563976618862,0.12796259528838738,0.3997801730099733,-0.02289548879338596,0.0,0.0,0.0,23305.0,16449.0,15745.0,22185.0,0.0,0.0,0.0
2.393885850906372,0.06893102079629898,-0.0723009705543518,0.1985664814710617,0.013706088098401934,-0.02241254067834644,0.03572910045584921,0.12979555095134293,0.39537249362826016,-0.02153382336903499,0.0,0.0,0.0,23313.0,16439.0,15737.0,22192.0,0.0,0.0,0.0
2.4051685333251953,0.06907462328672409,-0.07262026518583298,0.19906817376613617,0.011188586627893838,-0.024486786657983393,0.03633835414715402,0.1301083093826408,0.39303795289203264,-0.020623023811084447,0.0,0.0,0.0,23313.0,16439.0,15737.0,22192.0,0.0,0.0,0.0
2.416435718536377,0.06972425431013107,-0.07341587543487549,0.20027808845043182,0.011386705614923394,-0.028031230673292735,0.04025364953903359,0.13826787582632177,0.3867133688013748,-0.023614976676141496,0.0,0.0,0.0,23326.0,16429.0,15723.0,22199.0,0.0,0.0,0.0
2.4278929233551025,0.07017365097999573,-0.07395043969154358,0.20117521286010742,0.014978596907698587,-0.033768444246674106,0.04845592344375672,0.13982985499517445,0.3848205498120879,-0.02120960198601011,0.0,0.0,0.0,23342.0,16428.0,15700.0,22200.0,0.0,0.0,0.0
2.439180850982666,0.0699077919125557,-0.07366053014993668,0.20067833364009857,0.017825408484004386,-0.03587536809109843,0.05200059112553467,0.1303904008784981,0.3881567279063814,-0.01779644237475051,0.0,0.0,0.0,23345.0,16491.0,15690.0,22154.0,0.0,0.0,0.0
2.450303792953491,0.07029945403337479,-0.07432617992162704,0.20179305970668793,0.018199380033550927,-0.03454809038490133,0.05061640039257709,0.13149175926278564,0.3909409839703117,-0.015748839740752564,0.0,0.0,0.0,23332.0,16468.0,15709.0,22172.0,0.0,0.0,0.0
2.462094783782959,0.0705222561955452,-0.0745764821767807,0.20226836204528809,0.02049764691541759,-0.03732261811434878,0.055794447851940814,0.1302731065898772,0.39136903317115995,-0.015504975773554981,0.0,0.0,0.0,23329.0,16481.0,15713.0,22160.0,0.0,0.0,0.0
2.4735429286956787,0.07079436630010605,-0.07485148310661316,0.20276100933551788,0.020064600191940698,-0.03436793370597512,0.052920056698504095,0.12885293901967662,0.3916333259194951,-0.015545276141583962,0.0,0.0,0.0,23329.0,16481.0,15713.0,22160.0,0.0,0.0,0.0
2.4846243858337402,0.07190556079149246,-0.07591690868139267,0.20471230149269104,0.02137061770661962,-0.032499479913779834,0.05210435546190644,0.13349520568969261,0.38501229483959465,-0.020859673978311725,0.0,0.0,0.0,23326.0,16480.0,15720.0,22158.0,0.0,0.0,0.0
2.4956960678100586,0.07225322723388672,-0.076183021068573,0.20516549050807953,0.02690802426059887,-0.03511566029265196,0.058778717190023796,0.13075598939694044,0.3840910890135435,-0.02171181157067542,0.0,0.0,0.0,23329.0,16459.0,15717.0,22176.0,0.0,0.0,0.0
2.506821870803833,0.07220527529716492,-0.07588181644678116,0.20470227301120758,0.03181623868472434,-0.03649229183563284,0.06298820361578594,0.11958972486028056,0.3878892348995509,-0.0184071485882493,0.0,0.0,0.0,23319.0,16446.0,15729.0,22187.0,0.0,0.0,0.0
2.5180726051330566,0.07293134927749634,-0.07649378478527069,0.20561929047107697,0.03436813821535528,-0.03487065411697311,0.06127067102814707,0.11765313474325977,0.39051711148512525,-0.018547333326378417,0.0,0.0,0.0,23303.0,16455.0,15749.0,22179.0,0.0,0.0,0.0
2.529244899749756,0.07324828952550888,-0.07670822739601135,0.20595243573188782,0.03550151708684897,-0.03210706351128439,0.056467125374393516,0.1158544950997192,0.3917727596382422,-0.018510136542906796,0.0,0.0,0.0,23273.0,16470.0,15787.0,22168.0,0.0,0.0,0.0
2.540433645248413,0.07354556769132614,-0.07690562307834625,0.2062164545059204,0.036679319562036024,-0.030317846130375553,0.05262934868933306,0.11439623419486526,0.39256491820534367,-0.018380549870698138,0.0,0.0,0.0,23238.0,16489.0,15830.0,22154.0,0.0,0.0,0.0
2.551974296569824,0.07411142438650131,-0.07723449915647507,0.2066327929496765,0.038995205448538614,-0.029811422317457637,0.050478336110897574,0.11192599157849473,0.39219412582553337,-0.018660264925546587,0.0,0.0,0.0,23217.0,16489.0,15855.0,22155.0,0.0,0.0,0.0
2.56333589553833,0.07431503385305405,-0.07740169018507004,0.2068605124950409,0.037796886401376364,-0.026989790053654667,0.04400347482565073,0.11075204977210974,0.39175494215584317,-0.018291464781417147,0.0,0.0,0.0,23217.0,16482.0,15857.0,22160.0,0.0,0.0,0.0
2.5745110511779785,0.07450070977210999,-0.07748415321111679,0.20699290931224823,0.03540076007101055,-0.023981419101126913,0.037574188758284915,0.11015731550597874,0.39105288413011635,-0.01777817627113696,0.0,0.0,0.0,23215.0,16464.0,15858.0,22175.0,0.0,0.0,0.0
2.58598256111145,0.07480497658252716,-0.07768963277339935,0.2070712149143219,0.03456564991603235,-0.022428667906436404,0.033475078777849825,0.10819894501702806,0.3889919843797264,-0.0179612096321208,0.0,0.0,0.0,23219.0,16436.0,15855.0,22197.0,0.0,0.0,0.0
2.597210645675659,0.07536347210407257,-0.07825613021850586,0.20787015557289124,0.03139805981365074,-0.020158245809074805,0.027931108128267483,0.1147724866050633,0.3828980049873051,-0.02232994142054556,0.0,0.0,0.0,23216.0,16457.0,15859.0,22179.0,0.0,0.0,0.0
2.6083710193634033,0.0750938430428505,-0.07779310643672943,0.20687220990657806,0.029338416840842617,-0.01899407338255659,0.023769349969724428,0.10443897552573439,0.3849570838225616,-0.019339691449281524,0.0,0.0,0.0,23193.0,16510.0,15886.0,22138.0,0.0,0.0,0.0
2.6199424266815186,0.07529289275407791,-0.07804478704929352,0.2068343609571457,0.02756607793279295,-0.01736641817412021,0.017469618484099843,0.10196566926690445,0.38130683593403925,-0.020530053272064176,0.0,0.0,0.0,23187.0,16534.0,15892.0,22119.0,0.0,0.0,0.0
2.6310958862304688,0.07536487281322479,-0.07817251235246658,0.2067909687757492,0.021507279679965446,-0.013321738184709043,0.007823207802075668,0.10134257668406366,0.3797557885603989,-0.020475180199494385,0.0,0.0,0.0,23187.0,16534.0,15892.0,22119.0,0.0,0.0,0.0
2.6423704624176025,0.07549988478422165,-0.07833059132099152,0.20655740797519684,0.018124948381751174,-0.011874370807174739,0.001111679323420095,0.10004059226281967,0.37853783409758773,-0.021015199807722148,0.0,0.0,0.0,23201.0,16569.0,15876.0,22089.0,0.0,0.0,0.0
2.654022693634033,0.07558656483888626,-0.07840587943792343,0.2063957154750824,0.015855521332108918,-0.011445510529286067,-0.004895936750395784,0.09981543002080373,0.378721490330304,-0.02098363640858239,0.0,0.0,0.0,23212.0,16564.0,15854.0,22099.0,0.0,0.0,0.0
