T,input Acc,input Wb1,input Wb2,input Wb3,Px,Py,Pz,Vx,Vy,Vz,Roll,Pitch,Yaw,R_rate,P_rate,Y_rate,Wb1,Wb2,Wb3
0,0.0,0.0,0.0,0.0,1.0,0.0,0.4,0.0,0.0,0.0,0.0,0.0,0.0,0.0,0.0,0.0,0.0,0.0,0.0
0.00019073486328125,11.42,-0.0016663017976684578,1.0031128655411596,0.0012575861026195125,1.0,0.0,0.4,1.00025,0.0,0.805,-1.4096587194302635e-05,0.1000249990066795,0.0,0.0,0.0,0.0,0.0,0.0,0.0
0.005647182464599609,11.722998366779597,-0.015534199030388034,2.1109359116269597,1.5702478712097787e-05,1.0,0.0,0.4,0.9949108879152098,-7.843080959824678e-05,0.8085030574949249,-0.0015528401421348135,0.21062739499944982,0.0,0.0,0.0,0.0,0.0,0.0,0.0
0.01098322868347168,12.537888334296781,-0.05830659934640961,5.162458290026926,9.477941008179382e-05,1.0,0.0,0.4,0.9740402389366897,-0.0003748310328943663,0.8078371356487243,-0.005828484844676819,0.5150066055002762,0.0,0.0,0.0,0.0,0.0,0.0,0.0
0.016356229782104492,13.428171611666295,-0.10535386715092193,8.520062684174103,0.00029183985957054897,1.0,0.0,0.4,0.9356070242136953,-0.000917743180824335,0.8024335302442711,-0.010530781201499997,0.8494923844869597,0.0,0.0,0.0,0.0,0.0,0.0,0.0
0.021720409393310547,14.04275941434459,-0.13807468331058492,10.859756254422638,0.0006050947653082803,1.0,0.0,0.4,0.8839619999880014,-0.0016461389642024973,0.7934298051532672,-0.013801204209640337,1.081840113904082,0.0,0.0,0.0,0.0,0.0,0.0,0.0
0.027040719985961914,14.407339707882661,-0.1577552629961817,12.272939401770882,0.0010009872663155769,1.0,0.0,0.4,0.8228818727569547,-0.002506918938733143,0.7818162923036053,-0.01576863406602624,1.2213277394986481,0.0,0.0,0.0,0.0,0.0,0.0,0.0
0.032370567321777344,14.552497393850407,-0.16594169777711867,12.870072826654662,0.0014238387591673743,1.0,0.0,0.4,0.7556003246242693,-0.003454569168392121,0.7684440903654013,-0.01658823612810804,1.2791230270078164,0.0,0.0,0.0,0.0,0.0,0.0,0.0
0.03768014907836914,14.511420694399266,-0.16431520097643088,12.772024340532559,0.0018248244441221315,1.0,0.0,0.4,0.6848445059891347,-0.00445083762880747,0.754034026229913,-0.016429612132857912,1.2674189747522566,0.0,0.0,0.0,0.0,0.0,0.0,0.0
0.04299640655517578,14.3180490569802,-0.15461594652970798,12.103125377448011,0.002145625838957736,1.0,0.0,0.4,0.6128752321470852,-0.005464073184925771,0.7391863116501618,-0.015467203667816995,1.1987347355754499,0.0,0.0,0.0,0.0,0.0,0.0,0.0
0.048426151275634766,14.005619609781983,-0.1385874414320088,10.985670838550863,0.002331350330590468,1.0,0.0,0.4,0.5415296400450814,-0.006468564207776695,0.724390934537249,-0.013874154072135554,1.0853662946476204,0.0,0.0,0.0,0.0,0.0,0.0,0.0
0.05384969711303711,13.605567957898693,-0.11790353100864522,9.53573750082246,0.002359452288346402,1.0,0.0,0.4,0.4722647636839503,-0.00744389447105026,0.7100385573641019,-0.011816171574897881,0.9389703325332679,0.0,0.0,0.0,0.0,0.0,0.0,0.0
0.05922079086303711,13.146741924994906,-0.0940654781905238,7.860177609885385,0.002235554328049341,1.0,0.0,0.4,0.40620173032737744,-0.008374259803829102,0.696432551922548,-0.009443660426743319,0.7702646177272815,0.0,0.0,0.0,0.0,0.0,0.0,0.0
0.06454348564147949,12.654880440409364,-0.0684050830562806,6.054599234471868,0.0019809416278179907,1.0,0.0,0.4,0.34416768644678214,-0.009247968921610578,0.6837996321614759,-0.006890908879988467,0.5888280559487983,0.0,0.0,0.0,0.0,0.0,0.0,0.0
0.06996750831604004,12.152314512202198,-0.04209716379437363,4.202181003024808,0.001626784124040399,1.0,0.0,0.4,0.2867353710929212,-0.010057033245277286,0.6722997302796963,-0.004275453824979605,0.40298438971493855,0.0,0.0,0.0,0.0,0.0,0.0,0.0
0.0752873420715332,11.657851678784327,-0.01612687626798547,2.3731611532291472,0.0011987769123981147,1.0,0.0,0.4,0.2342615364663436,-0.010796541515068163,0.6620361547618914,-0.0016957942118891146,0.21975473922863262,0.0,0.0,0.0,0.0,0.0,0.0,0.0
0.08066082000732422,11.186804804622007,0.008704169893966314,0.6249104041810392,0.0007149705191327178,1.0,0.0,0.4,0.1869220208142051,-0.011464002278230608,0.6530642513243513,0.0007675783338849167,0.044865218021260804,0.0,0.0,0.0,0.0,0.0,0.0,0.0
0.0860753059387207,10.7511322778987,0.03175300132513851,-0.9975518285723559,0.00020423873981020423,1.0,0.0,0.4,0.144743483069186,-0.012059049196977402,0.6453990749924302,0.003051023406152646,-0.11720271302406021,0.0,0.0,0.0,0.0,0.0,0.0,0.0
0.09142708778381348,10.359662984024245,0.05252618805797571,-2.4607806608911167,-0.0002852555569748754,1.0,0.0,0.4,0.10763252850320101,-0.012583087315274086,0.6390233290208671,0.005107828781454547,-0.2631300978582309,0.0,0.0,0.0,0.0,0.0,0.0,0.0
0.09681558609008789,10.018383220891247,0.0707110457246928,-3.7418978063668487,-0.0007265822605490546,1.0,0.0,0.4,0.07540232813342156,-0.013038680877127238,0.6338952537018017,0.006906360122135906,-0.3906559476095834,0.0,0.0,0.0,0.0,0.0,0.0,0.0
0.10221362113952637,9.73076073404669,0.08614837113564763,-4.827397592435097,-0.0011331285920629327,1.0,0.0,0.4,0.04779560149239969,-0.013429344195287343,0.6299544151196261,0.008427236061124182,-0.49845843027924713,0.0,0.0,0.0,0.0,0.0,0.0,0.0
0.10748291015625,9.498084311586364,0.09875721996255293,-5.711894223602958,-0.0015085581349340578,1.0,0.0,0.4,0.024503697040599286,-0.013759463061846725,0.6271256522101177,0.009662407467256938,-0.5860287969897987,0.0,0.0,0.0,0.0,0.0,0.0,0.0
0.11276817321777344,9.319805414348437,0.10853658392752814,-6.396850449912273,-0.0018316175030306566,1.0,0.0,0.4,0.00518326702071819,-0.014033894218905111,0.6253231899456487,0.01061421821438297,-0.6535437372130432,0.0,0.0,0.0,0.0,0.0,0.0,0.0
0.11797213554382324,9.193873447853083,0.11557981690081537,-6.889334230687524,-0.002068005497235747,1.0,0.0,0.4,-0.01052905562752569,-0.014257720496821762,0.6244552224810924,0.011294097396355866,-0.701740468453456,0.0,0.0,0.0,0.0,0.0,0.0,0.0
0.12323260307312012,9.117059484646767,0.12006009948270013,-7.2008583218253985,-0.0022240233304381767,1.0,0.0,0.4,-0.023003691434861664,-0.014436084485179612,0.6244286328221731,0.011718619915584977,-0.731797702183667,0.0,0.0,0.0,0.0,0.0,0.0,0.0
0.12850046157836914,9.085255542942349,0.1221818272386587,-7.346291626527199,-0.0023546003538368115,1.0,0.0,0.4,-0.03260869627929337,-0.014574244288698773,0.6251509069445916,0.011906338574470467,-0.7452250951054089,0.0,0.0,0.0,0.0,0.0,0.0,0.0
0.13373804092407227,9.093741716082029,0.1221202607249659,-7.342856895541064,-0.0025328573059995346,1.0,0.0,0.4,-0.03970299087294692,-0.014677746856573186,0.6265306368925575,0.011876195220251264,-0.7437631655148644,0.0,0.0,0.0,0.0,0.0,0.0,0.0
0.13900113105773926,9.137425041562619,0.12007433402314838,-7.20927036527779,-0.00278077457123861,1.0,0.0,0.4,-0.04462972337160983,-0.014751856891181163,0.6284804054572971,0.011652305874680538,-0.7292945085653695,0.0,0.0,0.0,0.0,0.0,0.0,0.0
0.1442856788635254,9.211044184770934,0.11636371802998996,-6.964868171814799,-0.0030191773165608713,1.0,0.0,0.4,-0.04771149073840141,-0.014800958960141242,0.6309176637935154,0.011269161564779983,-0.7037667887703589,0.0,0.0,0.0,0.0,0.0,0.0,0.0
0.14951157569885254,9.309339226477318,0.1113898634548923,-6.62886490024995,-0.0031603524438180426,1.0,0.0,0.4,-0.049247281490389816,-0.014828627168224027,0.6337641940013359,0.010764103770275117,-0.6691277080942906,0.0,0.0,0.0,0.0,0.0,0.0,0.0
0.15476775169372559,9.427195526764551,0.10547349213406736,-6.220017842620611,-0.003183539677451363,1.0,0.0,0.4,-0.04951056408025199,-0.014838202953112428,0.6369484409864865,0.010166985920095703,-0.6272715804870479,0.0,0.0,0.0,0.0,0.0,0.0,0.0
0.16002559661865234,9.559760015696098,0.09887648808599717,-5.7562644261569424,-0.003145365955006872,1.0,0.0,0.4,-0.04874908323955012,-0.014833121520078651,0.6404065929700747,0.009500541357563808,-0.5799968949482297,0.0,0.0,0.0,0.0,0.0,0.0,0.0
0.16531920433044434,9.702526460660858,0.09192227358093119,-5.254290024662374,-0.00302268657598745,1.0,0.0,0.4,-0.047184654077916596,-0.014816201063063038,0.6440808294606181,0.008790414625884944,-0.5289739615368962,0.0,0.0,0.0,0.0,0.0,0.0,0.0
0.1705935001373291,9.851394156905206,0.08485346976403879,-4.729053863695819,-0.002511704001886824,1.0,0.0,0.4,-0.04501256687808535,-0.014788882906974391,0.6479186445879199,0.00806782144908594,-0.47572168540000304,0.0,0.0,0.0,0.0,0.0,0.0,0.0
0.17589139938354492,10.00271205676669,0.07778043492238396,-4.193789973899747,-0.001305018062012831,1.0,0.0,0.4,-0.04240188668096864,-0.014752211223587657,0.6518755569004746,0.007355317241625293,-0.42159248950611755,0.0,0.0,0.0,0.0,0.0,0.0,0.0
0.18121886253356934,10.153305758347756,0.07074719489766397,-3.6603912334736672,0.0005964123798238683,1.0,0.0,0.4,-0.03949720700902773,-0.01470859343266593,0.6559152889673476,0.00665837779452217,-0.3677642037368984,0.0,0.0,0.0,0.0,0.0,0.0,0.0
0.18648886680603027,10.300478729200039,0.06378631401705132,-3.1391016536159015,0.00301777378893804,1.0,0.0,0.4,-0.03642127629096599,-0.014661025229598782,0.6600055544612395,0.005975879286702936,-0.3152379581267577,0.0,0.0,0.0,0.0,0.0,0.0,0.0
0.19175171852111816,10.441999389214688,0.05703730356967177,-2.6383727335365426,0.005682973755405226,1.0,0.0,0.4,-0.033277055624967355,-0.014611829783005154,0.6641177551220524,0.005306667622350988,-0.2648413928340305,0.0,0.0,0.0,0.0,0.0,0.0,0.0
0.19704723358154297,10.57607963013671,0.050636147170325024,-2.1650096509318613,0.008315906360089999,1.0,0.0,0.4,-0.03014879095547812,-0.014562967525950394,0.6682282621452436,0.004652525268612086,-0.2172358683864433,0.0,0.0,0.0,0.0,0.0,0.0,0.0
0.20229887962341309,10.701346203858996,0.044639181284857894,-1.7241527736852615,0.01076095206135327,1.0,0.0,0.4,-0.02710312784168909,-0.014516258862578011,0.672317733293547,0.004020390580206034,-0.17292648512638073,0.0,0.0,0.0,0.0,0.0,0.0,0.0
0.20752644538879395,10.816812211256957,0.039073319700376155,-1.319446144119535,0.012911506641660549,1.0,0.0,0.4,-0.024191227602293877,-0.014473329168358808,0.6763719303893475,0.0034194670740563637,-0.13227434003626845,0.0,0.0,0.0,0.0,0.0,0.0,0.0
0.21278905868530273,10.92183888223905,0.033964115493557934,-0.9531821433486252,0.014598476403024743,1.0,0.0,0.4,-0.0214517258964787,-0.01443600478924252,0.6803795731428768,0.002858761211481033,-0.09551056473159192,0.0,0.0,0.0,0.0,0.0,0.0,0.0
0.21802830696105957,11.016093653257137,0.029366425822420824,-0.6264607056420846,0.01559877735647062,1.0,0.0,0.4,-0.018912345598331798,-0.014406317518528616,0.6843313025319541,0.0023474853342224326,-0.06275137042245757,0.0,0.0,0.0,0.0,0.0,0.0,0.0
0.2232820987701416,11.099513510718987,0.025524315538265074,-0.33942639808141795,0.01577137842004995,1.0,0.0,0.4,-0.01659036428490416,-0.01438537369077528,0.6882218402454625,0.0018952909209600016,-0.03401325845705549,0.0,0.0,0.0,0.0,0.0,0.0,0.0
0.22853946685791016,11.172254442599186,0.02299458332617761,-0.09137595291580566,0.015090667113328814,1.0,0.0,0.4,-0.014494769740900871,-0.014373533798416256,0.692044997975203,0.0015101179877148457,-0.009228139843297838,0.0,0.0,0.0,0.0,0.0,0.0,0.0
0.23376846313476562,11.234638055094086,0.02216545383380272,0.1191759005546181,0.013604657669384044,1.0,0.0,0.4,-0.012627766844686607,-0.014371806951681776,0.695791317371817,0.0011969079960821075,0.011742016202678939,0.0,0.0,0.0,0.0,0.0,0.0,0.0
0.2390272617340088,11.287114558450284,0.02307400003292616,0.29418805265830655,0.01149198874083133,1.0,0.0,0.4,-0.010985888825240365,-0.014381485295569369,0.6994533783378762,0.0009573644892209473,0.02909125843085918,0.0,0.0,0.0,0.0,0.0,0.0,0.0
0.2442777156829834,11.330232194186431,0.02566160221877158,0.4359494008516805,0.009013866066518278,1.0,0.0,0.4,-0.009562079563746852,-0.014403212493775658,0.7030261856302873,0.0007895932110565263,0.04305649721527742,0.0,0.0,0.0,0.0,0.0,0.0,0.0
0.24950480461120605,11.364609023636183,0.029798780861327055,0.5471654976235962,0.006376803638759776,1.0,0.0,0.4,-0.008345149534052024,-0.014437977535231482,0.7065046798983472,0.0006891662604803639,0.05390572876190441,0.0,0.0,0.0,0.0,0.0,0.0,0.0
0.2547478675842285,11.390919724193019,0.03554946500918941,0.6306639743838262,0.003736282835199972,1.0,0.0,0.4,-0.007320582047559426,-0.014486762815079216,0.7098876254264477,0.0006503946181912294,0.06192761994549153,0.0,0.0,0.0,0.0,0.0,0.0,0.0
0.2600431442260742,11.409886894232995,0.04303139345742261,0.6892669177253824,0.0011528560234935032,1.0,0.0,0.4,-0.006473129576447372,-0.014549181394109328,0.7131787094286277,0.0006673303076442095,0.06742211104574938,0.0,0.0,0.0,0.0,0.0,0.0,0.0
0.2653324604034424,11.422259618956703,0.05202044652246597,0.7261145784140283,-0.001425001683566441,1.0,0.0,0.4,-0.005786800543166718,-0.014624390293611535,0.7163805822663123,0.0007341659680199107,0.07069218604807152,0.0,0.0,0.0,0.0,0.0,0.0,0.0
0.27060866355895996,11.428792592344216,0.06230328424718543,0.7443855973285549,-0.0040259880798755015,1.0,0.0,0.4,-0.0052446998863025975,-0.014712644709858357,0.7194946579483638,0.0008448548061004248,0.07203696675049712,0.0,0.0,0.0,0.0,0.0,0.0,0.0
0.2758827209472656,11.430234535583804,0.07395573395573642,0.7467886481002761,-0.006582841253434312,1.0,0.0,0.4,-0.004829913935468409,-0.01481494917481315,0.7225249872341907,0.0009931610224578355,0.07174610697395296,0.0,0.0,0.0,0.0,0.0,0.0,0.0
0.2811141014099121,11.427326747409301,0.08701063924157189,0.7357514030042596,-0.00904024129465888,1.0,0.0,0.4,-0.004525994807718703,-0.014931379207876258,0.7254800174443137,0.001173442419058771,0.0700952958790469,0.0,0.0,0.0,0.0,0.0,0.0,0.0
0.28638362884521484,11.420796659290119,0.10127109486723526,0.7137183540461629,-0.011370975968237431,1.0,0.0,0.4,-0.00431737700660418,-0.015061256012244917,0.7283690743571992,0.001380599125767182,0.06734271449724014,0.0,0.0,0.0,0.0,0.0,0.0,0.0
0.29165005683898926,11.411333380619755,0.11664093762995302,0.6830408556176097,-0.013502764982590162,1.0,0.0,0.4,-0.004190232131902359,-0.01520496553713397,0.7311961143720922,0.001609876900474049,0.06372629820781153,0.0,0.0,0.0,0.0,0.0,0.0,0.0
0.296905517578125,11.39957250871665,0.13328634081377833,0.6457443296950698,-0.015400211938125354,1.0,0.0,0.4,-0.004132317275159929,-0.01536383003017742,0.7339634067535574,0.0018577813004207356,0.05946183615519367,0.0,0.0,0.0,0.0,0.0,0.0,0.0
0.30213141441345215,11.386104681244092,0.15124637657591983,0.6034932723219313,-0.01705233978854633,1.0,0.0,0.4,-0.004132416602219788,-0.015537928663920763,0.736679333309619,0.002121667153539565,0.05474199343915239,0.0,0.0,0.0,0.0,0.0,0.0,0.0
0.30738019943237305,11.371481616874176,0.17030818553065954,0.5577320429182591,-0.018419183812087077,1.0,0.0,0.4,-0.004180168019333873,-0.01572579992828611,0.7393548920041335,0.0023989336601528215,0.049736181687143693,0.0,0.0,0.0,0.0,0.0,0.0,0.0
0.31273436546325684,11.356210068038807,0.19043586957759367,0.5095113072968451,-0.01949242812980111,1.0,0.0,0.4,-0.004266680630162967,-0.015927220122104912,0.7419978088036889,0.0026874028147942813,0.04459089898912679,0.0,0.0,0.0,0.0,0.0,0.0,0.0
0.3180358409881592,11.34074509895941,0.21182446355978013,0.45936979067531497,-0.020360730460875928,1.0,0.0,0.4,-0.004384614713518727,-0.016143800615828707,0.7446140586454326,0.002985835190087565,0.03943041006677261,0.0,0.0,0.0,0.0,0.0,0.0,0.0
0.3232896327972412,11.325492674363849,0.23459015764424124,0.40779688225535504,-0.0211967666390203,1.0,0.0,0.4,-0.004527120262742573,-0.01637578610402737,0.7472118743833382,0.0032935977544697364,0.03435793625203082,0.0,0.0,0.0,0.0,0.0,0.0,0.0
0.3285491466522217,11.310805045996448,0.2587475618553864,0.35519348586813104,-0.022082377927066955,1.0,0.0,0.4,-0.004688866077556304,-0.016623871215786665,0.7497978793816938,0.0036099727331469146,0.029457053506103656,0.0,0.0,0.0,0.0,0.0,0.0,0.0
0.3338007926940918,11.29696935529651,0.2842194517354373,0.3017781637842978,-0.022907505196091534,1.0,0.0,0.4,-0.004866388286099101,-0.016890277226881238,0.7523735716338198,0.003934296340497967,0.024793156856394535,0.0,0.0,0.0,0.0,0.0,0.0,0.0
0.3390474319458008,11.284213961613546,0.31070909192114216,0.24800571818364095,-0.02351738618758002,1.0,0.0,0.4,-0.005056295220391592,-0.017174635906675076,0.7549419563868592,0.004266313540155144,0.020415172998800312,0.0,0.0,0.0,0.0,0.0,0.0,0.0
0.3443474769592285,11.272715860943991,0.33789070362023943,0.19443738154382495,-0.023855952303642874,1.0,0.0,0.4,-0.005254883371045358,-0.017474763935594332,0.7575078013421429,0.004605830061708627,0.016357560479097533,0.0,0.0,0.0,0.0,0.0,0.0,0.0
0.34972405433654785,11.26259675413057,0.3657961451387739,0.1411997990328841,-0.023946790143881694,1.0,0.0,0.4,-0.005459773768408458,-0.01779148672802442,0.7600716550040781,0.004952572333914371,0.012642184302153548,0.0,0.0,0.0,0.0,0.0,0.0,0.0
0.3550848960876465,11.253917092021641,0.394643636344136,0.08812164465548766,-0.023842517435661428,1.0,0.0,0.4,-0.005670689134476235,-0.01812771890668178,0.7626296783884341,0.005306683421720306,0.009279760045769575,0.0,0.0,0.0,0.0,0.0,0.0,0.0
0.3603541851043701,11.246686617789663,0.42434837607425585,0.03525182063463854,-0.023572668002055187,1.0,0.0,0.4,-0.005887458283588384,-0.018482818976037027,0.7651803389547618,0.0056684569596897934,0.006271390324043901,0.0,0.0,0.0,0.0,0.0,0.0,0.0
0.36564207077026367,11.240881451731815,0.45452467988788975,-0.017202406158794193,-0.023113652086637657,1.0,0.0,0.4,-0.006108914279247816,-0.018853760902120778,0.7677255391479736,0.006037539832220098,0.003610438945786619,0.0,0.0,0.0,0.0,0.0,0.0,0.0
0.37095117568969727,11.236448097322441,0.48484660525096185,-0.06941662278951927,-0.022404413043761538,1.0,0.0,0.4,-0.0063338764938601355,-0.01924105453837056,0.7702646191779257,0.006413121793654541,0.0012843678297049597,0.0,0.0,0.0,0.0,0.0,0.0,0.0
0.3761906623840332,11.233304688596618,0.5151623248566994,-0.12181766866743075,-0.02138753227753368,1.0,0.0,0.4,-0.0065618747514703,-0.019647945524814518,0.7727943270692905,0.006794893102161139,-0.0007238557174762449,0.0,0.0,0.0,0.0,0.0,0.0,0.0
0.3814566135406494,11.231343980192083,0.545302667380542,-0.174483611249634,-0.02018793388675692,1.0,0.0,0.4,-0.006791720345392413,-0.02007478816857309,0.7753114213468413,0.007183074115167495,-0.002434570744487209,0.0,0.0,0.0,0.0,0.0,0.0,0.0
0.38669776916503906,11.230428516366416,0.5751622908562171,-0.22746472991042085,-0.01909795358151076,1.0,0.0,0.4,-0.0070226937958939775,-0.020522661810934758,0.777809648633368,0.007578201541742027,-0.003870429218218803,0.0,0.0,0.0,0.0,0.0,0.0,0.0
0.3919637203216553,11.23039219291036,0.6046919543199286,-0.28077184967826213,-0.018272689141837318,1.0,0.0,0.4,-0.007255842090796183,-0.020994734302481145,0.7802809713541565,0.007981332897152067,-0.005055614303984989,0.0,0.0,0.0,0.0,0.0,0.0,0.0
0.39722323417663574,11.231065040898875,0.6336070721150885,-0.33410859128908266,-0.017691816212298157,1.0,0.0,0.4,-0.007490740292006635,-0.021489793601445734,0.7827237940368458,0.008393503502934076,-0.006014943614228699,0.0,0.0,0.0,0.0,0.0,0.0,0.0
0.40246105194091797,11.23229119650717,0.6615682183957503,-0.38711855940220163,-0.017267138543255588,1.0,0.0,0.4,-0.0077262670669373534,-0.0220037550944672,0.7851402064878119,0.008814741739444546,-0.006773066916898742,0.0,0.0,0.0,0.0,0.0,0.0,0.0
0.40769314765930176,11.233913967869245,0.6881012747097939,-0.4394941901843318,-0.016744605279384536,1.0,0.0,0.4,-0.007963705161201037,-0.022536107891710535,0.787524223728936,0.009244220628335846,-0.007354084194509465,0.0,0.0,0.0,0.0,0.0,0.0,0.0
0.41295695304870605,11.23576998775584,0.7127666137115537,-0.4912612291711049,-0.015861438011139904,1.0,0.0,0.4,-0.008204494449005778,-0.02308988266129294,0.7898671391769752,0.009681331235694405,-0.007781482817374409,0.0,0.0,0.0,0.0,0.0,0.0,0.0
0.41817426681518555,11.237707479237136,0.7354972254958333,-0.5423777190049512,-0.01457476269408165,1.0,0.0,0.4,-0.008447630273806689,-0.023664978655261543,0.7921680195488194,0.010125703059326478,-0.008077726667399709,0.0,0.0,0.0,0.0,0.0,0.0,0.0
0.42340970039367676,11.239588407887457,0.7560651066944923,-0.5922792104606263,-0.012922368295538156,1.0,0.0,0.4,-0.008692867991351633,-0.024257895970591248,0.7944257047803255,0.010576399702254899,-0.00826377919222602,0.0,0.0,0.0,0.0,0.0,0.0,0.0
0.4286620616912842,11.241277422620175,0.7744138997021781,-0.6405900532630405,-0.011134733501141494,1.0,0.0,0.4,-0.008942317326108123,-0.02486895635605877,0.7966326407541148,0.011031953947667034,-0.008359384441152636,0.0,0.0,0.0,0.0,0.0,0.0,0.0
0.4339289665222168,11.24264300379235,0.79086447629529,-0.6873044225491213,-0.009592200198775236,1.0,0.0,0.4,-0.00919704299540123,-0.025502189013158746,0.7987822554815133,0.011491491136415522,-0.00838307660627316,0.0,0.0,0.0,0.0,0.0,0.0,0.0
0.4391748905181885,11.24357483245632,0.8054154030245014,-0.732338890464218,-0.008404959248536766,1.0,0.0,0.4,-0.009455988119513654,-0.02615750641279488,0.8008750091650272,0.011955008130785967,-0.008351326156161491,0.0,0.0,0.0,0.0,0.0,0.0,0.0
0.4444100856781006,11.243990989717515,0.81790637577497,-0.775376771269822,-0.007296757694762631,1.0,0.0,0.4,-0.009718592228121443,-0.026830709462454503,0.802912494305979,0.012422299804033188,-0.008278039284052142,0.0,0.0,0.0,0.0,0.0,0.0,0.0
0.44966816902160645,11.243813523907944,0.8281109938752405,-0.8159528823409096,-0.005869292495755052,1.0,0.0,0.4,-0.009986331393438758,-0.02752215095649206,0.8048869180402191,0.01289275608539295,-0.008175181084935226,0.0,0.0,0.0,0.0,0.0,0.0,0.0
0.4549133777618408,11.242952195763705,0.8357422313920886,-0.8537714111540607,-0.003981617996526166,1.0,0.0,0.4,-0.010260783373637502,-0.02823699094647085,0.806786467958825,0.013366378816230092,-0.008053671670508676,0.0,0.0,0.0,0.0,0.0,0.0,0.0
0.4601590633392334,11.241338771064806,0.8411169427853166,-0.8889337873962904,-0.0018610865273840024,1.0,0.0,0.4,-0.01054142785556667,-0.028976143528120113,0.8086131817358756,0.013843900250771767,-0.007923314141178143,0.0,0.0,0.0,0.0,0.0,0.0,0.0
0.46540307998657227,11.238953529215905,0.8447481533543518,-0.9216182424891622,0.00026472605054529035,1.0,0.0,0.4,-0.01082770993852253,-0.029735251323939622,0.8103772191000187,0.014325660950564962,-0.007792203644083196,0.0,0.0,0.0,0.0,0.0,0.0,0.0
0.47064924240112305,11.23579457836148,0.8466261946436046,-0.9515816058619481,0.002456976270387115,1.0,0.0,0.4,-0.011121965340934811,-0.030513477995539405,0.8120751900760015,0.014811345100087553,-0.007666980428917778,0.0,0.0,0.0,0.0,0.0,0.0,0.0
0.4758942127227783,11.231857199071385,0.8467399569724401,-0.9785698190621763,0.004778744175893819,1.0,0.0,0.4,-0.011426900695305893,-0.0313151793625579,0.8136980139478525,0.015300985489291779,-0.007553677542443679,0.0,0.0,0.0,0.0,0.0,0.0,0.0
0.4811694622039795,11.227158375220892,0.8451705169692387,-1.0028050685930348,0.007169488972422885,1.0,0.0,0.4,-0.011742306051603157,-0.0321406616048027,0.8152503406570982,0.015795110672482182,-0.007457598119169276,0.0,0.0,0.0,0.0,0.0,0.0,0.0
0.4864084720611572,11.221752987575185,0.841905183338696,-1.0244166786667686,0.009631407208386214,1.0,0.0,0.4,-0.012065298282129365,-0.03298557549638053,0.8167428133653248,0.016293734660388928,-0.007382246745059776,0.0,0.0,0.0,0.0,0.0,0.0,0.0
0.49164605140686035,11.215704372286217,0.8369049773639182,-1.043121858371264,0.01224003446031275,1.0,0.0,0.4,-0.012394840685945829,-0.03385095853626345,0.8181732448710073,0.016796474578991135,-0.0073292729342511855,0.0,0.0,0.0,0.0,0.0,0.0,0.0
0.4969143867492676,11.209054568256793,0.8301593992414552,-1.0587234628279703,0.014969683041678023,1.0,0.0,0.4,-0.012733954263146205,-0.034742325731765805,0.8195312985243484,0.017303742290944182,-0.007299822614984321,0.0,0.0,0.0,0.0,0.0,0.0,0.0
0.5021347999572754,11.201850192538746,0.8219991040049149,-1.071361704829964,0.017621932159411047,1.0,0.0,0.4,-0.013084247493564698,-0.0356587975147869,0.8208201926675593,0.017816446103200274,-0.007295195204322454,0.0,0.0,0.0,0.0,0.0,0.0,0.0
0.5074176788330078,11.19416713671086,0.8127766165689707,-1.0812239646798734,0.020088989320734642,1.0,0.0,0.4,-0.013444733011036419,-0.03659388957377514,0.8220519137510348,0.018334411908962657,-0.007316187762048997,0.0,0.0,0.0,0.0,0.0,0.0,0.0
0.5127546787261963,11.186079201333284,0.8023623465178248,-1.0881632249578492,0.02246853673126107,1.0,0.0,0.4,-0.013816074430333766,-0.03754701262046249,0.8232240924885175,0.018856365552845467,-0.007362880507348422,0.0,0.0,0.0,0.0,0.0,0.0,0.0
0.5180704593658447,11.17762674182141,0.7905038376379315,-1.091898547018918,0.02481141185000338,1.0,0.0,0.4,-0.014200747455859405,-0.038523061450374686,0.8243244063961381,0.019381422974140382,-0.007435405270705083,0.0,0.0,0.0,0.0,0.0,0.0,0.0
0.5233311653137207,11.168845852794524,0.7774039769908856,-1.0925096137614845,0.02696163493109997,1.0,0.0,0.4,-0.014599487903057026,-0.03952106874372828,0.8253552802843815,0.01990917446095897,-0.007534184105816937,0.0,0.0,0.0,0.0,0.0,0.0,0.0
0.528609037399292,11.159770468369882,0.7631882043597731,-1.0903846976760851,0.028764893549212127,1.0,0.0,0.4,-0.015012531798587529,-0.0405407616110176,0.8263203886349483,0.02043960086769016,-0.007659508209136514,0.0,0.0,0.0,0.0,0.0,0.0,0.0
0.5338940620422363,11.150412772424055,0.7476081568752762,-1.0857971330782672,0.030282221329834946,1.0,0.0,0.4,-0.015441539748768475,-0.04158715881523089,0.8272116556036384,0.020973678049264706,-0.007811264164307984,0.0,0.0,0.0,0.0,0.0,0.0,0.0
0.5391502380371094,11.1407974806049,0.7307144843425761,-1.0788079342585233,0.03160119011049756,1.0,0.0,0.4,-0.01588572903913943,-0.0426585976656228,0.8280327063643403,0.02151252285520998,-0.007988803864697266,0.0,0.0,0.0,0.0,0.0,0.0,0.0
0.5444395542144775,11.13098452966847,0.7126258727253463,-1.0695131336892751,0.03280222940433388,1.0,0.0,0.4,-0.016341671400218954,-0.04374788216651352,0.8287972981126166,0.022055783399779316,-0.008190387646826575,0.0,0.0,0.0,0.0,0.0,0.0,0.0
0.5496952533721924,11.121039192412345,0.6932687039222328,-1.057975156432323,0.03405577682244265,1.0,0.0,0.4,-0.016809228257194955,-0.04485416042959505,0.8295059567416081,0.022601800329616253,-0.008413319368638079,0.0,0.0,0.0,0.0,0.0,0.0,0.0
0.5549123287200928,11.111000210080862,0.6727019099123585,-1.044161889207725,0.03537804412622171,1.0,0.0,0.4,-0.017291434555799533,-0.04598218489281024,0.8301487764702208,0.02314921667314253,-0.008655460899951038,0.0,0.0,0.0,0.0,0.0,0.0,0.0
0.5601890087127686,11.100907715300716,0.6511712269815132,-1.028279601990509,0.0365786942200422,1.0,0.0,0.4,-0.01778852479573135,-0.047129910085199254,0.8307303053141012,0.023696956828742073,-0.008915574114284995,0.0,0.0,0.0,0.0,0.0,0.0,0.0
0.565436840057373,11.090833913654606,0.6290693601412346,-1.0107614800864198,0.03752068351196972,1.0,0.0,0.4,-0.018298551956167176,-0.048290058938843965,0.8312661656066089,0.024242917882686454,-0.00919219630393507,0.0,0.0,0.0,0.0,0.0,0.0,0.0
0.5706882476806641,11.080861134193082,0.6066676906109624,-0.9918658031562657,0.03820184363827345,1.0,0.0,0.4,-0.018821790560954493,-0.04946387462909795,0.8317600087848085,0.024784558606680187,-0.00948342174822352,0.0,0.0,0.0,0.0,0.0,0.0,0.0
0.5759220123291016,11.07104774073298,0.5840802998525529,-0.9715359260707374,0.03863618999205304,1.0,0.0,0.4,-0.01936036195646866,-0.050658841358628866,0.8322041605967264,0.025320904060343943,-0.00978771721898223,0.0,0.0,0.0,0.0,0.0,0.0,0.0
0.5811574459075928,11.061447446765555,0.5615167993595546,-0.9498130793968649,0.03872777237548671,1.0,0.0,0.4,-0.019913207464064515,-0.05187455895887847,0.8326026463833914,0.02585234638043274,-0.010103953372194108,0.0,0.0,0.0,0.0,0.0,0.0,0.0
0.586400032043457,11.05215284504244,0.5390583723010554,-0.9270580796136841,0.038448638061341335,1.0,0.0,0.4,-0.020476278097780715,-0.053105259996731685,0.8329752912662426,0.026378934331434182,-0.010430132043774647,0.0,0.0,0.0,0.0,0.0,0.0,0.0
0.5916123390197754,11.043265245365474,0.5168060814101378,-0.9033476942863145,0.037951685727738826,1.0,0.0,0.4,-0.021049981689771208,-0.05435163844367977,0.8333278968998286,0.0269002988037066,-0.010763414989279303,0.0,0.0,0.0,0.0,0.0,0.0,0.0
0.5968594551086426,11.034847258896825,0.49501135955124503,-0.8785198088619361,0.03728908825550322,1.0,0.0,0.4,-0.021638390792903427,-0.05561885008605089,0.8336493980811039,0.02741678454446801,-0.011102010888460386,0.0,0.0,0.0,0.0,0.0,0.0,0.0
0.6020839214324951,11.026945083837944,0.4738489164305453,-0.8528742217662094,0.03635582137368277,1.0,0.0,0.4,-0.022240636555577706,-0.056906056310721605,0.8339423338019885,0.027929291502026343,-0.011445231056223897,0.0,0.0,0.0,0.0,0.0,0.0,0.0
0.607342004776001,11.019616961984319,0.45346248679411294,-0.8268242845818795,0.03513844285035678,1.0,0.0,0.4,-0.0228520878102348,-0.058206459633910905,0.834220979250567,0.028437752773026483,-0.011791635921326234,0.0,0.0,0.0,0.0,0.0,0.0,0.0
0.6125917434692383,11.012907832388192,0.43393703511838033,-0.8003300822592796,0.03378362015299839,1.0,0.0,0.4,-0.023472602479104848,-0.05951928510668859,0.8344853336439548,0.028941181424587036,-0.012138830992396838,0.0,0.0,0.0,0.0,0.0,0.0,0.0
0.6178762912750244,11.006825285425439,0.4153185228150367,-0.7733912542255649,0.03233300831850827,1.0,0.0,0.4,-0.024105977158119483,-0.06085121584649741,0.8347257806126198,0.029439388481162516,-0.012485375613776748,0.0,0.0,0.0,0.0,0.0,0.0,0.0
0.6231272220611572,11.001371034730429,0.3975233516422182,-0.7465047790330723,0.03073163944492259,1.0,0.0,0.4,-0.024752372496197446,-0.06220240908130401,0.8349475900694949,0.029933155199288453,-0.012830992816023574,0.0,0.0,0.0,0.0,0.0,0.0,0.0
0.6284141540527344,10.996568377080582,0.3803845555035659,-0.7200375872659203,0.02911803288879995,1.0,0.0,0.4,-0.02540809410379363,-0.06356584433085545,0.8351649413724189,0.0304227453745962,-0.013174666306045937,0.0,0.0,0.0,0.0,0.0,0.0,0.0
0.633664608001709,10.992429854868442,0.3639373744774553,-0.6939112389350601,0.027544159699107233,1.0,0.0,0.4,-0.026073293789796906,-0.06494141910505107,0.8353759557457561,0.030907438318807268,-0.013515300990215307,0.0,0.0,0.0,0.0,0.0,0.0,0.0
0.6389765739440918,10.988931238637461,0.34837291767401274,-0.6680316521305828,0.025816279865777184,1.0,0.0,0.4,-0.026751794367381013,-0.06633470729533703,0.8355698128230715,0.031386872184431334,-0.013853214145851644,0.0,0.0,0.0,0.0,0.0,0.0,0.0
0.6443004608154297,10.986042011801509,0.3340303166255958,-0.6425033372873157,0.023805710199653884,1.0,0.0,0.4,-0.02744322537038564,-0.06774377191635193,0.835750577612665,0.0318613086640884,-0.014189148009966578,0.0,0.0,0.0,0.0,0.0,0.0,0.0
0.6495435237884521,10.983722980831304,0.32109027519231703,-0.6174237240425746,0.021530852952218488,1.0,0.0,0.4,-0.02814715577456827,-0.06916740034080567,0.8359211094910156,0.03233132839762598,-0.01452372403101496,0.0,0.0,0.0,0.0,0.0,0.0,0.0
0.6548068523406982,10.981917878812549,0.30935396361949397,-0.5927675230380153,0.019145779377516634,1.0,0.0,0.4,-0.028866031582394206,-0.07061053415251063,0.836075629560869,0.03279834473714667,-0.01485754288995375,0.0,0.0,0.0,0.0,0.0,0.0,0.0
0.660088062286377,10.980586692552292,0.29859227274711053,-0.5687150666619005,0.0167882355357933,1.0,0.0,0.4,-0.029597683744541865,-0.07207071615695071,0.8362198005030059,0.033263667739034275,-0.015190931379268715,0.0,0.0,0.0,0.0,0.0,0.0,0.0
0.6653444766998291,10.979720775959578,0.2885375536047356,-0.5457192671453769,0.014439529670048454,1.0,0.0,0.4,-0.030337235739362117,-0.07353968992017434,0.8363656762408664,0.03372668053358501,-0.0155235617390562,0.0,0.0,0.0,0.0,0.0,0.0,0.0
0.6706206798553467,10.979321100589651,0.2789771839316745,-0.5239941410683674,0.011990996674024089,1.0,0.0,0.4,-0.031084896700329295,-0.07501681484547199,0.8365148138101379,0.034185231445752605,-0.01585463684479151,0.0,0.0,0.0,0.0,0.0,0.0,0.0
0.675891637802124,10.979368109713427,0.26997473473000466,-0.5033694618626846,0.00936301997399168,1.0,0.0,0.4,-0.03184392634145935,-0.07650748633659005,0.8366594883448419,0.03463786430659851,-0.016183691668777953,0.0,0.0,0.0,0.0,0.0,0.0,0.0
0.6811745166778564,10.979836998884725,0.26168839919691816,-0.4837720336844275,0.006589388649058846,1.0,0.0,0.4,-0.03261335666368705,-0.07800908041819922,0.8368010984178345,0.0350838618678426,-0.016510375887944486,0.0,0.0,0.0,0.0,0.0,0.0,0.0
0.6864066123962402,10.980723115336183,0.2540515720257269,-0.4651991776173564,0.003790301709683576,1.0,0.0,0.4,-0.03338972713211046,-0.07951278774396052,0.8369501956590093,0.03552132348399298,-0.016833692409804642,0.0,0.0,0.0,0.0,0.0,0.0,0.0
0.6916844844818115,10.982024235854386,0.24681278826923483,-0.44760024377166957,0.0010711493616727746,1.0,0.0,0.4,-0.03417313093568933,-0.08101850665006241,0.8371077235636777,0.03594737292026647,-0.017152333035315184,0.0,0.0,0.0,0.0,0.0,0.0,0.0
0.6969454288482666,10.983719348224556,0.2397005353651548,-0.43107755277416965,-0.0015232665426170885,1.0,0.0,0.4,-0.03496599357805166,-0.08253322083352302,0.8372665751043562,0.036360380263205316,-0.017465649986334698,0.0,0.0,0.0,0.0,0.0,0.0,0.0
0.7022020816802979,10.985790459356267,0.23248785441878056,-0.4157671232571083,-0.003992728603603824,1.0,0.0,0.4,-0.03576656664393273,-0.08405537209486477,0.8374304041746408,0.03675994000320774,-0.017773368854004462,0.0,0.0,0.0,0.0,0.0,0.0,0.0
0.7074854373931885,10.988245506578144,0.22521316598758823,-0.4017429375305231,-0.006390953698161143,1.0,0.0,0.4,-0.03656992335883739,-0.08557691314332795,0.8376110139449944,0.03714482340073218,-0.018074545753301068,0.0,0.0,0.0,0.0,0.0,0.0,0.0
0.7128329277038574,10.991090447718607,0.2178745743035682,-0.38908999751529727,-0.008781807277259414,1.0,0.0,0.4,-0.03737686364346922,-0.0870979259442612,0.8378073849347403,0.0375130305659975,-0.018367939313736613,0.0,0.0,0.0,0.0,0.0,0.0,0.0
0.7180683612823486,10.994303821422623,0.21038008123097837,-0.3778512341414914,-0.011200047751123625,1.0,0.0,0.4,-0.038192117738253,-0.0886245873989483,0.8380098754904874,0.03786376477550571,-0.018653262784720435,0.0,0.0,0.0,0.0,0.0,0.0,0.0
0.7233295440673828,10.997866138097088,0.20289407811092103,-0.3679230464114996,-0.013612548193006183,1.0,0.0,0.4,-0.039014070594245824,-0.09015566393993547,0.8382227691256868,0.03819753905184961,-0.01893063708643488,0.0,0.0,0.0,0.0,0.0,0.0,0.0
0.7285676002502441,11.001757839846174,0.19557845122146192,-0.35921849178727183,-0.015915009633825722,1.0,0.0,0.4,-0.03984117841517107,-0.09169064283626832,0.8384499418448715,0.03851570182991323,-0.019200019230012123,0.0,0.0,0.0,0.0,0.0,0.0,0.0
0.7338685989379883,11.00594486949091,0.18851059629501207,-0.3518693864850755,-0.018011195346122964,1.0,0.0,0.4,-0.04067677496462431,-0.09323560616150707,0.8386855553230206,0.03882078048217043,-0.01946183566069282,0.0,0.0,0.0,0.0,0.0,0.0,0.0
0.7391247749328613,11.01041051745834,0.18171687612244275,-0.34615506260145146,-0.019875092469030988,1.0,0.0,0.4,-0.04152005534717119,-0.09478858281191299,0.83893498939034,0.03911539952364368,-0.01971695010803316,0.0,0.0,0.0,0.0,0.0,0.0,0.0
0.744434118270874,11.015172631078498,0.17529597369888972,-0.3423082348130499,-0.021553122575446712,1.0,0.0,0.4,-0.04236637880023012,-0.09634145788748931,0.8392113573884181,0.03940047464374604,-0.01996573330414232,0.0,0.0,0.0,0.0,0.0,0.0,0.0
0.7496776580810547,11.020256977801619,0.1695185036161088,-0.3403176263057542,-0.02308003226110352,1.0,0.0,0.4,-0.043215671722273356,-0.09789427416717499,0.8395158978231259,0.03967562427563223,-0.02020779987024056,0.0,0.0,0.0,0.0,0.0,0.0,0.0
0.7549068927764893,11.02566541583472,0.16443392540334395,-0.34014155719296385,-0.024423209499808984,1.0,0.0,0.4,-0.04407252240198944,-0.09945299398613838,0.8398398899955752,0.039941240599244934,-0.02044321207618467,0.0,0.0,0.0,0.0,0.0,0.0,0.0
0.7601888179779053,11.031391220522025,0.16004751580102158,-0.34177461844970125,-0.02552967772566434,1.0,0.0,0.4,-0.044936515740288716,-0.10101586242876963,0.840184319894128,0.040198399160657684,-0.020672624023167503,0.0,0.0,0.0,0.0,0.0,0.0,0.0
0.7654271125793457,11.03744555667166,0.15649867383701463,-0.3449252083209232,-0.02635783603993748,1.0,0.0,0.4,-0.0458030273034815,-0.10257475053155386,0.8405597136018043,0.04044689937022706,-0.02089610104940031,0.0,0.0,0.0,0.0,0.0,0.0,0.0
0.7706809043884277,11.043843253629056,0.15367357093204315,-0.3494250874138276,-0.026965163479377798,1.0,0.0,0.4,-0.04667279410988023,-0.10412983431304967,0.8409677972264873,0.040685265365403116,-0.02111365574325918,0.0,0.0,0.0,0.0,0.0,0.0,0.0
0.7759308815002441,11.05058515813341,0.15133666793590694,-0.355475816176087,-0.02754170693233722,1.0,0.0,0.4,-0.0475497072197118,-0.10568909944589963,0.8414032931187181,0.04091300416069455,-0.021326489069914963,0.0,0.0,0.0,0.0,0.0,0.0,0.0
0.7811813354492188,11.057664361350318,0.1494083400493165,-0.3631155182822615,-0.02819814225891972,1.0,0.0,0.4,-0.04843292915669278,-0.1072520546323599,0.8418666160163911,0.04113110013773409,-0.021535959456037795,0.0,0.0,0.0,0.0,0.0,0.0,0.0
0.7864456176757812,11.065067451994752,0.1478979042931901,-0.372056632537188,-0.028816343805206722,1.0,0.0,0.4,-0.049319217552863386,-0.10881077277367619,0.8423593936588997,0.04134017154019454,-0.021741979936319336,0.0,0.0,0.0,0.0,0.0,0.0,0.0
0.7916944026947021,11.072764419117561,0.14668296019838092,-0.38199977405713,-0.029171783010609534,1.0,0.0,0.4,-0.05020990082680377,-0.11036536378731669,0.8428771959974324,0.041540040631068816,-0.021943745917032995,0.0,0.0,0.0,0.0,0.0,0.0,0.0
0.7969822883605957,11.080701283191598,0.14570118043910227,-0.39292210117588233,-0.029153800816852662,1.0,0.0,0.4,-0.051109039082286575,-0.11192260011781933,0.8434127404073783,0.0417311836957362,-0.022141679322618756,0.0,0.0,0.0,0.0,0.0,0.0,0.0
0.8022372722625732,11.088823491694466,0.14506210908594072,-0.40491676378880986,-0.028703449873932307,1.0,0.0,0.4,-0.05201585911065594,-0.1134815320837555,0.843967136957197,0.04191491532690489,-0.022336858089211802,0.0,0.0,0.0,0.0,0.0,0.0,0.0
0.8074636459350586,11.09710667958182,0.14472320245272047,-0.41805268521078714,-0.027851986057949755,1.0,0.0,0.4,-0.05292532491452718,-0.11503506681104039,0.8445503141571593,0.04209142145058041,-0.022529802195311862,0.0,0.0,0.0,0.0,0.0,0.0,0.0
0.8127186298370361,11.105542378982545,0.14462124008998117,-0.43248856102801525,-0.026848998480378795,1.0,0.0,0.4,-0.05383714135198278,-0.11658427044826207,0.8451645331772524,0.0422596191174576,-0.02272104924881405,0.0,0.0,0.0,0.0,0.0,0.0,0.0
0.8179950714111328,11.114105818256377,0.14475264694535062,-0.4482491340891895,-0.02580398682940032,1.0,0.0,0.4,-0.054756203848271276,-0.11813649241889357,0.8458010062122538,0.042419938645437756,-0.022911106078546253,0.0,0.0,0.0,0.0,0.0,0.0,0.0
0.8232507705688477,11.12276039611729,0.14506538145092945,-0.46498651042731187,-0.024619125274444726,1.0,0.0,0.4,-0.05568251048786551,-0.11969062520130676,0.8464561666508985,0.04257427435483137,-0.0231002569327305,0.0,0.0,0.0,0.0,0.0,0.0,0.0
0.8285071849822998,11.13146042183622,0.14542239450205846,-0.48239594052203727,-0.02325005722307548,1.0,0.0,0.4,-0.056616234946548084,-0.12124543983777444,0.847129228717916,0.04272460214551862,-0.023289489969226255,0.0,0.0,0.0,0.0,0.0,0.0,0.0
0.8337574005126953,11.140143256861863,0.1455959945964018,-0.5004334720837921,-0.02168972753039959,1.0,0.0,0.4,-0.05756210393718025,-0.12280625001496752,0.8478135412529966,0.042873327995032406,-0.02348079734631194,0.0,0.0,0.0,0.0,0.0,0.0,0.0
0.8390088081359863,11.148753644013357,0.14561866634505344,-0.5190944284278934,-0.019998548213520893,1.0,0.0,0.4,-0.05851850077746088,-0.12437135207594546,0.8485089784692903,0.04302255692433688,-0.023676334787233924,0.0,0.0,0.0,0.0,0.0,0.0,0.0
0.8442833423614502,11.157267835183323,0.1457329204038425,-0.5384204357742557,-0.018297804935952233,1.0,0.0,0.4,-0.059479024595101626,-0.12593386067136966,0.8492240590113438,0.04317272763563672,-0.023876959619138164,0.0,0.0,0.0,0.0,0.0,0.0,0.0
0.8495151996612549,11.165683401111131,0.1460072719934992,-0.5584228616130399,-0.016703912937731543,1.0,0.0,0.4,-0.06044308391921311,-0.12749433694068021,0.8499617558121716,0.04332306048819193,-0.024082147263718344,0.0,0.0,0.0,0.0,0.0,0.0,0.0
0.8547735214233398,11.17400086781634,0.14645700945721207,-0.5790975698796959,-0.015305512830796068,1.0,0.0,0.4,-0.061414537614387456,-0.12905939140609138,0.8507184786384063,0.04347362521603291,-0.024291412003081596,0.0,0.0,0.0,0.0,0.0,0.0,0.0
0.8600301742553711,11.182222992457284,0.14717443881674355,-0.6003128860594187,-0.014111512337962885,1.0,0.0,0.4,-0.0623923204799712,-0.1306280959557409,0.8514939141239755,0.04362543900549294,-0.02450426499383742,0.0,0.0,0.0,0.0,0.0,0.0,0.0
0.8653018474578857,11.190355838629095,0.14829983577826272,-0.6217174690869756,-0.01310803168102137,1.0,0.0,0.4,-0.06337126497819057,-0.1321930700171078,0.8522899468674446,0.043778418418496966,-0.02471929926436433,0.0,0.0,0.0,0.0,0.0,0.0,0.0
0.8705945014953613,11.198402144862573,0.14974926532277472,-0.6430672212240576,-0.012161798532761062,1.0,0.0,0.4,-0.0643517268461168,-0.1337546789371955,0.8531049551528638,0.043931660445510536,-0.024934094897324295,0.0,0.0,0.0,0.0,0.0,0.0,0.0
0.8758401870727539,11.209834051788564,0.15317090327805774,-0.6604184604684898,-0.011288738344151525,1.0,0.0,0.4,-0.06496240660106577,-0.13457874921066484,0.8550566842334997,0.04392973911350356,-0.025066363029776318,0.0,0.0,0.0,0.0,0.0,0.0,0.0
0.881127119064331,11.230798159912109,0.15779950962654693,-0.6695336893072119,-0.010717310220925114,1.0,0.0,0.4,-0.06490970770267669,-0.13408728242238224,0.8590247914653738,0.04342427788178193,-0.024936712894714507,0.0,0.0,0.0,0.0,0.0,0.0,0.0
0.8863728046417236,11.262943953919965,0.15672886889994347,-0.6735272875305096,-0.010315061656392328,1.0,0.0,0.4,-0.06472186655507926,-0.13332154837239932,0.8634353408494643,0.04219982005572127,-0.024436531330483575,0.0,0.0,0.0,0.0,0.0,0.0,0.0
0.8916232585906982,11.303379611744585,0.14730966796560035,-0.6762902084550938,-0.009992734149985662,1.0,0.0,0.4,-0.06483018389678243,-0.13312834709176324,0.8670089919813526,0.040360523919689896,-0.0236211452598885,0.0,0.0,0.0,0.0,0.0,0.0,0.0
0.8969190120697021,11.34737748155418,0.1334137939816313,-0.6791796215478411,-0.009867257141489507,1.0,0.0,0.4,-0.06520193362429527,-0.13344009892049208,0.8698510578148335,0.03822576979086325,-0.02265527973230647,0.0,0.0,0.0,0.0,0.0,0.0,0.0
0.9021594524383545,11.390021851989689,0.11863384067342075,-0.6836127900077933,-0.009811850079940763,1.0,0.0,0.4,-0.06579979842618741,-0.13418486289127413,0.8720627386225233,0.03612845646834669,-0.021709384590904844,0.0,0.0,0.0,0.0,0.0,0.0,0.0
0.9074268341064453,11.427886749625202,0.10528545838407322,-0.6902454264062367,-0.00962998455872399,1.0,0.0,0.4,-0.06658316624737513,-0.13528779209601546,0.8737443927920773,0.03430204013964743,-0.020902093854270234,0.0,0.0,0.0,0.0,0.0,0.0,0.0
0.9127590656280518,11.458788670768058,0.09493740082100463,-0.6993962745395361,-0.009318038165331484,1.0,0.0,0.4,-0.0675207386029044,-0.13668772449019637,0.8749889737855387,0.03289647665153344,-0.020309692374065547,0.0,0.0,0.0,0.0,0.0,0.0,0.0
0.918022632598877,11.481540648524932,0.08872838937592077,-0.7112706260126148,-0.009033032871770716,1.0,0.0,0.4,-0.06858997135264201,-0.13833621700762472,0.8758756439974945,0.031995736094404065,-0.019975499909389537,0.0,0.0,0.0,0.0,0.0,0.0,0.0
0.9232800006866455,11.4957461776969,0.08733350566628095,-0.7258330215061757,-0.008912756434393827,1.0,0.0,0.4,-0.06976469585565645,-0.14018213368302526,0.8764776505960669,0.031632011093593974,-0.019916482756136743,0.0,0.0,0.0,0.0,0.0,0.0,0.0
0.9285829067230225,11.501606168736254,0.09097439812054615,-0.7426099683917864,-0.009012300268598814,1.0,0.0,0.4,-0.07102095631858286,-0.14218073749673701,0.8768596712507006,0.031797678882878946,-0.020128867801799795,0.0,0.0,0.0,0.0,0.0,0.0,0.0
0.9338724613189697,11.499745159396246,0.09947101589057149,-0.7610023969362464,-0.00933453209351265,1.0,0.0,0.4,-0.07234338057043442,-0.14429965636823652,0.877073655405934,0.03245644800885254,-0.020594160219185764,0.0,0.0,0.0,0.0,0.0,0.0,0.0
0.9391303062438965,11.491092086616211,0.1121622693357709,-0.7807519540917157,-0.009814037229730104,1.0,0.0,0.4,-0.07371464762612305,-0.146502437688759,0.8771701303394643,0.03355141012875396,-0.02128349908658004,0.0,0.0,0.0,0.0,0.0,0.0,0.0
0.9444165229797363,11.476772653079516,0.12815284790821566,-0.801312938776062,-0.010294820097240332,1.0,0.0,0.4,-0.07511504625159632,-0.14875088362992453,0.8771956803974277,0.03501091964141508,-0.022160235113954523,0.0,0.0,0.0,0.0,0.0,0.0,0.0
0.9496638774871826,11.458000933489066,0.14655844421122174,-0.82190538684179,-0.010620744152608103,1.0,0.0,0.4,-0.07653279230944204,-0.15102057204473385,0.8771836793744829,0.03675517071782543,-0.02318347235035903,0.0,0.0,0.0,0.0,0.0,0.0,0.0
0.9548945426940918,11.435996124734428,0.1666744148567879,-0.842084381669208,-0.010798639535405455,1.0,0.0,0.4,-0.07796296327213893,-0.1532990373985257,0.8771588970582579,0.03870345279736112,-0.024312675459245953,0.0,0.0,0.0,0.0,0.0,0.0,0.0
0.9601695537567139,11.411934259278787,0.18792858226166878,-0.8615203122332094,-0.010995811672537143,1.0,0.0,0.4,-0.0793966361220017,-0.15556939357836608,0.877145894356251,0.04077824797513006,-0.025509717082157483,0.0,0.0,0.0,0.0,0.0,0.0,0.0
0.9653892517089844,11.386922330754288,0.2096156190161909,-0.8800044436120067,-0.011373918964209306,1.0,0.0,0.4,-0.08082147443257892,-0.15781077820882586,0.8771695082398088,0.042906342741022965,-0.02673838690907638,0.0,0.0,0.0,0.0,0.0,0.0,0.0
0.9706928730010986,11.36195975834322,0.23097900655194792,-0.8972704698107347,-0.011862146044108323,1.0,0.0,0.4,-0.08223256442802383,-0.16001372460587462,0.8772455138309421,0.04502151921017274,-0.027964429810408857,0.0,0.0,0.0,0.0,0.0,0.0,0.0
0.975982666015625,11.337895749830086,0.25152731081481183,-0.9129366004204439,-0.012282549373471136,1.0,0.0,0.4,-0.08363223023148615,-0.16217859883343802,0.8773778065238699,0.04706781192419366,-0.029158160923925182,0.0,0.0,0.0,0.0,0.0,0.0,0.0
0.9812195301055908,11.315428549655097,0.2709489095220173,-0.9268067674125289,-0.012581199751622456,1.0,0.0,0.4,-0.08501884255950665,-0.16429959766419047,0.8775720604244137,0.048999471316174964,-0.030296182062949914,0.0,0.0,0.0,0.0,0.0,0.0,0.0
0.9865527153015137,11.295118201176434,0.2887442693335055,-0.9386876625999763,-0.012698200591743815,1.0,0.0,0.4,-0.08638608299278576,-0.1663659071302107,0.8778372145055906,0.050779289870344094,-0.03135958403837295,0.0,0.0,0.0,0.0,0.0,0.0,0.0
0.9918067455291748,11.277383081408349,0.30439633110473235,-0.9484121754504753,-0.01270632830010694,1.0,0.0,0.4,-0.08773314857104032,-0.16837810729552558,0.8781748747042799,0.052378287533084496,-0.03233421200711585,0.0,0.0,0.0,0.0,0.0,0.0,0.0
0.9971132278442383,11.262498159299907,0.3177113296827548,-0.9558466700680753,-0.012821577253547227,1.0,0.0,0.4,-0.08906522634271091,-0.17034538911830913,0.8785802691912385,0.05377748541427937,-0.03321172904956363,0.0,0.0,0.0,0.0,0.0,0.0,0.0
1.0023818016052246,11.25060583995111,0.3287667505949808,-0.9607212825107317,-0.013073586213534947,1.0,0.0,0.4,-0.09038284655362865,-0.17226801341258616,0.8790487997494751,0.05496793561469017,-0.033987536732210284,0.0,0.0,0.0,0.0,0.0,0.0,0.0
1.007645845413208,11.241736052348127,0.33767618205580363,-0.9631063883471276,-0.013448567078031734,1.0,0.0,0.4,-0.09168693348895178,-0.17414694663024607,0.8795771141004205,0.05594835889953261,-0.03466086858145074,0.0,0.0,0.0,0.0,0.0,0.0,0.0
1.0129082202911377,11.235829707884742,0.3444328540113914,-0.963299954745779,-0.013928137271088983,1.0,0.0,0.4,-0.09298285703828019,-0.17599087917104772,0.8801621156401856,0.05672423775066889,-0.03523476245359495,0.0,0.0,0.0,0.0,0.0,0.0,0.0
1.0181379318237305,11.232767017785957,0.3489425292372844,-0.9613053249127467,-0.014337129862837089,1.0,0.0,0.4,-0.09426915402289403,-0.17780062577832279,0.880803214547072,0.05730647956109117,-0.035713516942323636,0.0,0.0,0.0,0.0,0.0,0.0,0.0
1.0233955383300781,11.236285364856471,0.3531452438259029,-0.9538309034478838,-0.015131796571757897,1.0,0.0,0.4,-0.09499166881761141,-0.17859810258316708,0.8827576255396851,0.05750304570486575,-0.03598593992777897,0.0,0.0,0.0,0.0,0.0,0.0,0.0
1.0286481380462646,11.253076398706135,0.35574860242321565,-0.9367253701749655,-0.01686706867130597,1.0,0.0,0.4,-0.09472580438538163,-0.1776293030314056,0.8870057801969259,0.05686933183752475,-0.03579777409179228,0.0,0.0,0.0,0.0,0.0,0.0,0.0
1.0339303016662598,11.284738507769337,0.348560106243785,-0.9114447568290787,-0.018932570370893742,1.0,0.0,0.4,-0.09425614170874869,-0.17628216644951397,0.8917716999244503,0.05514166507468162,-0.034996909628797764,0.0,0.0,0.0,0.0,0.0,0.0,0.0
1.0392487049102783,11.327755359051226,0.3287680289683214,-0.8813503365733131,-0.020726489974318373,1.0,0.0,0.4,-0.09420947606145626,-0.1756691321380773,0.8956183540979941,0.05247936824510445,-0.03367192196656419,0.0,0.0,0.0,0.0,0.0,0.0,0.0
1.0445117950439453,11.376565525076227,0.3013688136881629,-0.8490176250329019,-0.02224427632707514,1.0,0.0,0.4,-0.09452396114559186,-0.17568540922226453,0.8986696577309596,0.049320653982460605,-0.032070694980969074,0.0,0.0,0.0,0.0,0.0,0.0,0.0
1.049757480621338,11.425409918938257,0.2713685425073943,-0.8168891801185103,-0.023559115756391698,1.0,0.0,0.4,-0.09514758240790439,-0.1762411600380051,0.9010390629543206,0.046117796142986923,-0.030449228500724363,0.0,0.0,0.0,0.0,0.0,0.0,0.0
1.0550143718719482,11.470186403853313,0.24226012327341187,-0.7862959451400601,-0.02471651247032863,1.0,0.0,0.4,-0.0960376604907553,-0.17725912480774508,0.9028277447720368,0.04319463974192187,-0.02899010012059951,0.0,0.0,0.0,0.0,0.0,0.0,0.0
1.0602390766143799,11.508182944772937,0.2162364738929102,-0.7581968401206909,-0.02568892393546077,1.0,0.0,0.4,-0.09714863387731751,-0.17865978378263853,0.9041336288786698,0.040767867151909117,-0.0278146748260033,0.0,0.0,0.0,0.0,0.0,0.0,0.0
1.0656003952026367,11.537828504942603,0.1946501123992859,-0.7333203171178867,-0.026512080641067404,1.0,0.0,0.4,-0.09843420619367241,-0.18036396555029383,0.9050487601411525,0.0389642049835964,-0.02699345998778267,0.0,0.0,0.0,0.0,0.0,0.0,0.0
1.0709202289581299,11.55845420962622,0.17842676722176878,-0.7120411984636646,-0.02725476288345718,1.0,0.0,0.4,-0.09985908902411479,-0.18230839292365592,0.905652098363465,0.03783862484669714,-0.02655630450876733,0.0,0.0,0.0,0.0,0.0,0.0,0.0
1.076228380203247,11.570081957301387,0.16793616673778375,-0.6943467348664093,-0.027873549123378364,1.0,0.0,0.4,-0.10139681439205808,-0.18444403903381018,0.9060119293663262,0.03739287231277824,-0.02650268930773146,0.0,0.0,0.0,0.0,0.0,0.0,0.0
1.081618070602417,11.573251189801361,0.16296355746720495,-0.6799783959406788,-0.028336919121066402,1.0,0.0,0.4,-0.10301794895264503,-0.1867205923474295,0.9061916737614111,0.037589129082427904,-0.026810029738781698,0.0,0.0,0.0,0.0,0.0,0.0,0.0
1.0869171619415283,11.568861377626352,0.16290100304883437,-0.6684587870924095,-0.02862280484591212,1.0,0.0,0.4,-0.10469680879729738,-0.18909423993596527,0.9062455228759626,0.038361426730606635,-0.027439807201749686,0.0,0.0,0.0,0.0,0.0,0.0,0.0
1.092270851135254,11.558031163703879,0.1668710986407885,-0.659088507565686,-0.02863472127165944,1.0,0.0,0.4,-0.1064175599132506,-0.19153394456817616,0.9062151131145522,0.039626341964280075,-0.02834347347087801,0.0,0.0,0.0,0.0,0.0,0.0,0.0
1.0976617336273193,11.542011983147303,0.17406163560331067,-0.651533271951763,-0.02844615730491157,1.0,0.0,0.4,-0.1081617347369224,-0.19400733930704675,0.9061419019849859,0.0412898865358022,-0.029467612459916012,0.0,0.0,0.0,0.0,0.0,0.0,0.0
1.1029706001281738,11.526005466765099,0.18868360077383747,-0.6461828959095789,-0.028454533171204503,1.0,0.0,0.4,-0.10926818808965874,-0.19541591274717185,0.9073198853442526,0.043029457021093356,-0.030619192840927685,0.0,0.0,0.0,0.0,0.0,0.0,0.0
1.1083364486694336,11.518181039097898,0.21050887206696703,-0.6409291396921073,-0.02899531688510912,1.0,0.0,0.4,-0.10922696212438979,-0.19490943781444597,0.9107589088505914,0.04424548466561604,-0.031436594570300846,0.0,0.0,0.0,0.0,0.0,0.0,0.0
1.1136326789855957,11.52158506554087,0.22553005101886306,-0.6306266080117195,-0.029983683229862158,1.0,0.0,0.4,-0.10894123135596101,-0.19398760355764103,0.9147130760355553,0.04453761987900135,-0.03168261930674678,0.0,0.0,0.0,0.0,0.0,0.0,0.0
1.118964433670044,11.534060604448163,0.22641790434846656,-0.6135512501025349,-0.03122131673708765,1.0,0.0,0.4,-0.10913474066227864,-0.19385431807288905,0.9177672588765113,0.04397594358690172,-0.03140503510879387,0.0,0.0,0.0,0.0,0.0,0.0,0.0
1.124372959136963,11.55125522596436,0.21778624252884402,-0.5922543663310517,-0.03250115691457092,1.0,0.0,0.4,-0.1097365735952675,-0.1943898106528934,0.920052659214888,0.042949118062043073,-0.030842030932716837,0.0,0.0,0.0,0.0,0.0,0.0,0.0
1.1296885013580322,11.568452508022396,0.20438897067007838,-0.569525988079454,-0.03359751472853865,1.0,0.0,0.4,-0.11068592703442862,-0.19548967942666284,0.9216896759537663,0.04187443710036003,-0.03024919103086472,0.0,0.0,0.0,0.0,0.0,0.0,0.0
1.135007381439209,11.582446112236894,0.1899107511521979,-0.5473530598111036,-0.034504728446120736,1.0,0.0,0.4,-0.11192022570991718,-0.19705180719255944,0.9227947302692859,0.04103836667850192,-0.029803391183837787,0.0,0.0,0.0,0.0,0.0,0.0,0.0
1.1403205394744873,11.591281235884196,0.17699397731632532,-0.5272341805171916,-0.035284388243265685,1.0,0.0,0.4,-0.1133772198849841,-0.19897781666175152,0.9234790126015051,0.040619146665595775,-0.029614951968409627,0.0,0.0,0.0,0.0,0.0,0.0,0.0
1.1456389427185059,11.59399166406213,0.1671399806500345,-0.5100758419566223,-0.035982436136559576,1.0,0.0,0.4,-0.11500774942553638,-0.2011871371081967,0.9238372392626262,0.04070888620006538,-0.029740710385110884,0.0,0.0,0.0,0.0,0.0,0.0,0.0
1.1509532928466797,11.590355546453223,0.16106947510624814,-0.4960697006305471,-0.03670712283040175,1.0,0.0,0.4,-0.11677436848741353,-0.2036153113296428,0.9239466555948292,0.04133463091304737,-0.030197963010621883,0.0,0.0,0.0,0.0,0.0,0.0,0.0
1.1562716960906982,11.580704857784783,0.15908243404753813,-0.4852632089671197,-0.037466130411507995,1.0,0.0,0.4,-0.11863829961805795,-0.20619907106096544,0.9238782878182317,0.04247550135708977,-0.030974159023267844,0.0,0.0,0.0,0.0,0.0,0.0,0.0
1.161684274673462,11.565759982007812,0.16098519330447825,-0.47740628805400553,-0.03807518497720644,1.0,0.0,0.4,-0.12056111642279821,-0.20887728553032342,0.9236948925916642,0.044075345063306307,-0.0320337187535923,0.0,0.0,0.0,0.0,0.0,0.0,0.0
1.1670045852661133,11.546482742979086,0.16609867593981434,-0.47198375540972104,-0.03831654527610511,1.0,0.0,0.4,-0.1225164484340044,-0.21160546058723206,0.923445488020282,0.046054542643217095,-0.033326140254587674,0.0,0.0,0.0,0.0,0.0,0.0,0.0
1.1723241806030273,11.527594988278814,0.17946386088323674,-0.4737614789228351,-0.03763527538462137,1.0,0.0,0.4,-0.12378322540546696,-0.21325262633469877,0.9243413462788163,0.0480924974895701,-0.0346415498745617,0.0,0.0,0.0,0.0,0.0,0.0,0.0
1.1777288913726807,11.516658412331317,0.20161490311365568,-0.484121030073668,-0.035876879985818635,1.0,0.0,0.4,-0.12379398757513668,-0.21293040112033665,0.9273374212446724,0.04957745112972011,-0.03558357049288821,0.0,0.0,0.0,0.0,0.0,0.0,0.0
1.1830360889434814,11.516511129273564,0.21742990465507456,-0.4912005007007078,-0.03416315438951586,1.0,0.0,0.4,-0.12353080188909463,-0.21217318017924858,0.9308173958467545,0.05009417683798343,-0.03589516848054851,0.0,0.0,0.0,0.0,0.0,0.0,0.0
1.1883723735809326,11.525169553955173,0.21872947905081075,-0.48802470342704435,-0.033209948967208615,1.0,0.0,0.4,-0.12379142462532446,-0.21222565259811563,0.9334664686114891,0.04971045881853022,-0.03563073321102335,0.0,0.0,0.0,0.0,0.0,0.0,0.0
1.1937706470489502,11.538630414532161,0.210416781072176,-0.4778824988487212,-0.032792580390509814,1.0,0.0,0.4,-0.12449290497374627,-0.21295847413855967,0.9354149591172354,0.04882351281662932,-0.035049272283170924,0.0,0.0,0.0,0.0,0.0,0.0,0.0
1.1990957260131836,11.552572156440442,0.197437041226629,-0.4641746829478857,-0.032571491841179814,1.0,0.0,0.4,-0.12555386327202725,-0.2142465670632224,0.9367849930257116,0.04785764208335515,-0.03442524296922367,0.0,0.0,0.0,0.0,0.0,0.0,0.0
1.2044792175292969,11.56407622675987,0.1832672415500239,-0.4494648079694913,-0.03225019784392783,1.0,0.0,0.4,-0.12690664872421853,-0.215984930895685,0.9376868507607936,0.047101661228256306,-0.03394469158705036,0.0,0.0,0.0,0.0,0.0,0.0,0.0
1.209763765335083,11.57136397969087,0.17039319812643092,-0.43565742568997196,-0.031687546039369026,1.0,0.0,0.4,-0.12849509338228907,-0.2180865332317808,0.9382199717853341,0.04673591954234443,-0.03372376727104411,0.0,0.0,0.0,0.0,0.0,0.0,0.0
1.2150695323944092,11.573561375409607,0.16064931162797325,-0.4239040155247724,-0.03089967930271189,1.0,0.0,0.4,-0.1302642105519028,-0.220466313727718,0.9384743227730322,0.04685485491282154,-0.03382342600659618,0.0,0.0,0.0,0.0,0.0,0.0,0.0
1.2204406261444092,11.57048395724302,0.1550765950474422,-0.41494074105914225,-0.029978237448250126,1.0,0.0,0.4,-0.13216629943671987,-0.22304958981078987,0.9385277021614206,0.0474863823821528,-0.034261809981447504,0.0,0.0,0.0,0.0,0.0,0.0,0.0
1.2257742881774902,11.562446067252111,0.15394708151563463,-0.4091869562221768,-0.02901223400138289,1.0,0.0,0.4,-0.1341648744607581,-0.225778625894836,0.9384447873499986,0.04860976863599803,-0.035025614512052994,0.0,0.0,0.0,0.0,0.0,0.0,0.0
1.2311041355133057,11.550101973006665,0.15708095650018986,-0.4065717252442834,-0.0279847902954126,1.0,0.0,0.4,-0.13622370109134252,-0.22859725402303419,0.9382799571045204,0.05016991962097255,-0.03607850182006174,0.0,0.0,0.0,0.0,0.0,0.0,0.0
1.236386775970459,11.534324855943023,0.16407497129806428,-0.4068835542860275,-0.026825314832101894,1.0,0.0,0.4,-0.13830743560750644,-0.2314522647946039,0.9380815512724394,0.052087953720011716,-0.03736802369212685,0.0,0.0,0.0,0.0,0.0,0.0,0.0
1.2417545318603516,11.516106249757803,0.17429136511918447,-0.4099590364401831,-0.025459461785142294,1.0,0.0,0.4,-0.14039218394844422,-0.23430696765161635,0.9378904232730035,0.05427150209949723,-0.038832695019861946,0.0,0.0,0.0,0.0,0.0,0.0,0.0
1.247074842453003,11.496468504781298,0.18687271309079312,-0.4154916906746913,-0.023771320922311615,1.0,0.0,0.4,-0.142463779720488,-0.237138052784248,0.9377373333108291,0.05662503655951383,-0.0404086229396078,0.0,0.0,0.0,0.0,0.0,0.0,0.0
1.252396583557129,11.47942271115061,0.20375572391492994,-0.4261789241626014,-0.021612991092015327,1.0,0.0,0.4,-0.14375402781483995,-0.23881354809884417,0.9386205206167713,0.0588235549810371,-0.04187361009699124,0.0,0.0,0.0,0.0,0.0,0.0,0.0
1.2577736377716064,11.471220287989915,0.22307734503293503,-0.44177500978320483,-0.019185095302789727,1.0,0.0,0.4,-0.14366508964129124,-0.23845269589900245,0.9413216011484619,0.060259379119395995,-0.04281375582820385,0.0,0.0,0.0,0.0,0.0,0.0,0.0
1.2631175518035889,11.47408569242039,0.2340045472524504,-0.4530466661554454,-0.017182061088860744,1.0,0.0,0.4,-0.1432575107456285,-0.2376160208016314,0.9444835287745904,0.06053442167205962,-0.04296409865189197,0.0,0.0,0.0,0.0,0.0,0.0,0.0
1.2685060501098633,11.486175692959298,0.23187089204917838,-0.45522597994136077,-0.015972190663513144,1.0,0.0,0.4,-0.14338268008076327,-0.23755775292058284,0.9470072415644893,0.059741353567648287,-0.04239440962997428,0.0,0.0,0.0,0.0,0.0,0.0,0.0
1.2739145755767822,11.503935855306144,0.22145640708843575,-0.4516504593008032,-0.015371448228059376,1.0,0.0,0.4,-0.14395376059060228,-0.2381515803755927,0.9489975373076136,0.05830466035131697,-0.04139625147090297,0.0,0.0,0.0,0.0,0.0,0.0,0.0
1.2792036533355713,11.52351833080338,0.20758204585712628,-0.4457552452807965,-0.015089409345019664,1.0,0.0,0.4,-0.14489619296290004,-0.23928791651975484,0.9505466996847255,0.05667832930907797,-0.0402793825243756,0.0,0.0,0.0,0.0,0.0,0.0,0.0
1.2846128940582275,11.54221627996203,0.19356976355789932,-0.4400395044115794,-0.014781289950936801,1.0,0.0,0.4,-0.1461473331245144,-0.24087323952695328,0.9517349110344012,0.05518264681497744,-0.039260982437374796,0.0,0.0,0.0,0.0,0.0,0.0,0.0
1.2900054454803467,11.558265057419433,0.18176978682341857,-0.43637455432252686,-0.01415776615193661,1.0,0.0,0.4,-0.1476448104805341,-0.24281617595603572,0.9526386753421311,0.0540276515995507,-0.03848291395824265,0.0,0.0,0.0,0.0,0.0,0.0,0.0
1.2953131198883057,11.570661029756517,0.17383979034260666,-0.4360060908840108,-0.013281992506546368,1.0,0.0,0.4,-0.14933198360243005,-0.24503618870733643,0.9533286472013747,0.05333350434057821,-0.038027580066035765,0.0,0.0,0.0,0.0,0.0,0.0,0.0
