T,input Acc,input Wb1,input Wb2,input Wb3,Px,Py,Pz,Vx,Vy,Vz,Roll,Pitch,Yaw,R_rate,P_rate,Y_rate,Wb1,Wb2,Wb3
0,9.8,-0.04287743531177585,-0.08675826050568962,-0.29403444696475717,0.0,0.0,0.2,0.0,0.0,0.0,0.0,0.0,0.0,0.0,0.0,0.0,0.0,0.0,0.0
0.0007762908935546875,9.8,0.05909175949912604,-0.2809039506991243,-0.4336957052361417,0.0,0.0,0.2,0.0,0.0,0.0,0.0,0.0,0.0,0.0,0.0,0.0,0.0,0.0,0.0
0.012100696563720703,9.8,0.04641617000177243,-0.2845828730830767,-0.43928289056219766,0.0,0.0,0.2,0.0,0.0,0.0,0.0,0.0,0.0,0.0,0.0,0.0,0.0,0.0,0.0
0.02336287498474121,9.8,0.036755971572013456,-0.2885627721304353,-0.457238273009594,0.0,0.0,0.2,0.0,0.0,0.0,0.0,0.0,0.0,0.0,0.0,0.0,0.0,0.0,0.0
0.03451943397521973,9.8,0.018668754175005183,-0.2933048736025549,-0.47807132836348637,0.0,0.0,0.2,0.0,0.0,0.0,0.0,0.0,0.0,0.0,0.0,0.0,0.0,0.0,0.0
0.045897722244262695,9.8,0.011880900243249523,-0.3057276257905994,-0.48690858825189465,0.0,0.0,0.2,0.0,0.0,0.0,0.0,0.0,0.0,0.0,0.0,0.0,0.0,0.0,0.0
0.05704545974731445,9.8,0.0006690858019178206,-0.31093718162391465,-0.495110326721971,0.0,0.0,0.2,0.0,0.0,0.0,0.0,0.0,0.0,0.0,0.0,0.0,0.0,0.0,0.0
0.0686643123626709,9.8,-0.015967865190372427,-0.3363760676892208,-0.5154588399365552,0.0,0.0,0.2,0.0,0.0,0.0,0.0,0.0,0.0,0.0,0.0,0.0,0.0,0.0,0.0
0.07986640930175781,9.8,-0.019956328999900116,-0.3442004020807321,-0.5282517520677257,0.0,0.0,0.2,0.0,0.0,0.0,0.0,0.0,0.0,0.0,0.0,0.0,0.0,0.0,0.0
0.09105181694030762,9.8,-0.03660376286061809,-0.37942281716215975,-0.5290508284375756,0.0,0.0,0.2,0.0,0.0,0.0,0.0,0.0,0.0,0.0,0.0,0.0,0.0,0.0,0.0
0.10225152969360352,9.8,-0.027805030684790673,-0.3761856235729749,-0.5552694253730567,0.0,0.0,0.2,0.0,0.0,0.0,0.0,0.0,0.0,0.0,0.0,0.0,0.0,0.0,0.0
0.11264252662658691,9.8,-0.025273530990324606,-0.38055793506104424,-0.5660687437851045,0.0,0.0,0.2,0.0,0.0,0.0,0.0,0.0,0.0,0.0,0.0,0.0,0.0,0.0,0.0
0.1238870620727539,9.8,-0.03750486019611411,-0.420358436750558,-0.5600610012301626,0.0,0.0,0.2,0.0,0.0,0.0,0.0,0.0,0.0,0.0,0.0,0.0,0.0,0.0,0.0
0.13540124893188477,9.8,-0.035262465178614096,-0.37393220621365286,-0.5812106699203855,0.0,0.0,0.2,0.0,0.0,0.0,0.0,0.0,0.0,0.0,0.0,0.0,0.0,0.0,0.0
0.14674639701843262,9.8,-0.03234716010290525,-0.38221399460285715,-0.585834254594388,0.0,0.0,0.2,0.0,0.0,0.0,0.0,0.0,0.0,0.0,0.0,0.0,0.0,0.0,0.0
0.1579587459564209,9.8,-0.027304537465241797,-0.39599904692341237,-0.590327478578193,0.0,0.0,0.2,0.0,0.0,0.0,0.0,0.0,0.0,0.0,0.0,0.0,0.0,0.0,0.0
0.16951417922973633,9.8,-0.01856263281338943,-0.39672550319122674,-0.5917646033491616,0.0,0.0,0.2,0.0,0.0,0.0,0.0,0.0,0.0,0.0,0.0,0.0,0.0,0.0,0.0
0.1808915138244629,9.8,-0.01612304445334221,-0.4021408918945059,-0.5944249410649298,0.0,0.0,0.2,0.0,0.0,0.0,0.0,0.0,0.0,0.0,0.0,0.0,0.0,0.0,0.0
0.19213056564331055,9.8,-0.01976860371146504,-0.3929885624531366,-0.6127325044969884,0.0,0.0,0.2,0.0,0.0,0.0,0.0,0.0,0.0,0.0,0.0,0.0,0.0,0.0,0.0
0.2037348747253418,9.8,-0.016189596769833576,-0.40131265781783515,-0.6181262593750575,0.0,0.0,0.2,0.0,0.0,0.0,0.0,0.0,0.0,0.0,0.0,0.0,0.0,0.0,0.0
0.21504616737365723,9.8,-0.011077339208706264,-0.40579419461195576,-0.6233626117403243,0.0,0.0,0.2,0.0,0.0,0.0,0.0,0.0,0.0,0.0,0.0,0.0,0.0,0.0,0.0
0.2262113094329834,9.8,0.0012133902536445927,-0.4143232289173805,-0.6312565508589812,0.0,0.0,0.2,0.0,0.0,0.0,0.0,0.0,0.0,0.0,0.0,0.0,0.0,0.0,0.0
0.2374744415283203,9.8,0.0095233605793529,-0.42498385892454943,-0.631658583764017,0.0,0.0,0.2,0.0,0.0,0.0,0.0,0.0,0.0,0.0,0.0,0.0,0.0,0.0,0.0
0.24884247779846191,9.8,-0.020110461715637018,-0.4721624195961675,-0.6364074487993121,0.0,0.0,0.2,0.0,0.0,0.0,0.0,0.0,0.0,0.0,0.0,0.0,0.0,0.0,0.0
0.26009392738342285,9.8,-0.012669962554830622,-0.48960848066618035,-0.6371720522178198,0.0,0.0,0.2,0.0,0.0,0.0,0.0,0.0,0.0,0.0,0.0,0.0,0.0,0.0,0.0
0.2718381881713867,9.8,-0.009317075974939408,-0.4973420866726331,-0.6423957648103107,0.0,0.0,0.2,0.0,0.0,0.0,0.0,0.0,0.0,0.0,0.0,0.0,0.0,0.0,0.0
0.28327012062072754,9.8,-0.006718149095610657,-0.509017221414323,-0.64737073930047,0.0,0.0,0.2,0.0,0.0,0.0,0.0,0.0,0.0,0.0,0.0,0.0,0.0,0.0,0.0
0.2944364547729492,9.8,0.0002615354303637412,-0.5331302345130444,-0.6531014516160633,0.0,0.0,0.2,0.0,0.0,0.0,0.0,0.0,0.0,0.0,0.0,0.0,0.0,0.0,0.0
0.30579066276550293,9.8,0.0037202336226628903,-0.5464006958641174,-0.653601848051787,0.0,0.0,0.2,0.0,0.0,0.0,0.0,0.0,0.0,0.0,0.0,0.0,0.0,0.0,0.0
0.3171572685241699,9.8,0.005202738551625711,-0.5564430451324945,-0.6567147505851468,0.0,0.0,0.2,0.0,0.0,0.0,0.0,0.0,0.0,0.0,0.0,0.0,0.0,0.0,0.0
0.32853150367736816,9.8,0.010130784116616871,-0.5697058740560987,-0.6588873764839325,0.0,0.0,0.2,0.0,0.0,0.0,0.0,0.0,0.0,0.0,0.0,0.0,0.0,0.0,0.0
0.3397402763366699,9.8,0.011335352446377494,-0.5759213133264539,-0.6576847996403612,0.0,0.0,0.2,0.0,0.0,0.0,0.0,0.0,0.0,0.0,0.0,0.0,0.0,0.0,0.0
0.3510935306549072,9.8,0.01273074294994724,-0.5789774049627826,-0.6537665658501817,0.0,0.0,0.2,0.0,0.0,0.0,0.0,0.0,0.0,0.0,0.0,0.0,0.0,0.0,0.0
0.3622133731842041,9.8,0.013530081370940972,-0.5810749751811194,-0.6489722920270322,0.0,0.0,0.2,0.0,0.0,0.0,0.0,0.0,0.0,0.0,0.0,0.0,0.0,0.0,0.0
0.37380003929138184,9.8,0.04552321465431238,-0.6798132503763461,-0.6299441260072498,0.0,0.0,0.2,0.0,0.0,0.0,0.0,0.0,0.0,0.0,0.0,0.0,0.0,0.0,0.0
0.3850727081298828,9.8,0.04209148243311815,-0.6861368051185484,-0.6212801794263044,0.0,0.0,0.2,0.0,0.0,0.0,0.0,0.0,0.0,0.0,0.0,0.0,0.0,0.0,0.0
0.39633941650390625,9.8,0.039974358733954087,-0.6839881765920999,-0.6165264466911173,0.0,0.0,0.2,0.0,0.0,0.0,0.0,0.0,0.0,0.0,0.0,0.0,0.0,0.0,0.0
0.4077262878417969,9.8,0.038002927489644185,-0.6850440172289289,-0.6136193718893198,0.0,0.0,0.2,0.0,0.0,0.0,0.0,0.0,0.0,0.0,0.0,0.0,0.0,0.0,0.0
0.4190635681152344,9.8,0.02864264834916662,-0.6910532766020976,-0.6130813844807427,0.0,0.0,0.2,0.0,0.0,0.0,0.0,0.0,0.0,0.0,0.0,0.0,0.0,0.0,0.0
0.4303567409515381,9.8,0.023385087963605687,-0.696874104405312,-0.6142899160334568,0.0,0.0,0.2,0.0,0.0,0.0,0.0,0.0,0.0,0.0,0.0,0.0,0.0,0.0,0.0
0.4415748119354248,9.8,-0.12471152338395608,-0.2453441516335057,0.18550415106802176,0.0,0.0,0.2,0.0,0.0,0.0,0.0,0.0,0.0,0.0,0.0,0.0,0.0,0.0,0.0
0.4529757499694824,9.8,0.003428563306358252,-0.6996984581887237,-0.6222643874144175,0.0,0.0,0.2,0.0,0.0,0.0,0.0,0.0,0.0,0.0,0.0,0.0,0.0,0.0,0.0
0.46430420875549316,9.8,-0.003231774924985469,-0.7033148471669474,-0.626084791499396,0.0,0.0,0.2,0.0,0.0,0.0,0.0,0.0,0.0,0.0,0.0,0.0,0.0,0.0,0.0
0.47569823265075684,9.8,0.019095573369112773,-0.65788148451439,-0.6264914804993588,0.0,0.0,0.2,0.0,0.0,0.0,0.0,0.0,0.0,0.0,0.0,0.0,0.0,0.0,0.0
0.48682236671447754,9.8,0.015008194712430091,-0.6557614957294987,-0.6306318120117302,0.0,0.0,0.2,0.0,0.0,0.0,0.0,0.0,0.0,0.0,0.0,0.0,0.0,0.0,0.0
0.4981346130371094,9.8,0.008799393287694737,-0.6518258717680498,-0.6337642924559131,0.0,0.0,0.2,0.0,0.0,0.0,0.0,0.0,0.0,0.0,0.0,0.0,0.0,0.0,0.0
0.5095679759979248,9.8,-0.00015693400733204804,-0.6432162319315166,-0.6362777515001418,0.0,0.0,0.2,0.0,0.0,0.0,0.0,0.0,0.0,0.0,0.0,0.0,0.0,0.0,0.0
0.520925760269165,9.8,-0.0014768171009337215,-0.6460867936455776,-0.6388128470523406,0.0,0.0,0.2,0.0,0.0,0.0,0.0,0.0,0.0,0.0,0.0,0.0,0.0,0.0,0.0
0.5321180820465088,9.8,-0.018562722215729344,-0.6021454827907771,-0.6475329606491138,0.0,0.0,0.2,0.0,0.0,0.0,0.0,0.0,0.0,0.0,0.0,0.0,0.0,0.0,0.0
0.5435559749603271,9.8,-0.07238318548664686,-0.5896741533325859,-0.6567008772085399,0.0,0.0,0.2,0.0,0.0,0.0,0.0,0.0,0.0,0.0,0.0,0.0,0.0,0.0,0.0
0.5552213191986084,9.8,-0.033023816905376265,-0.5452442379410415,-0.6552434595248644,0.0,0.0,0.2,0.0,0.0,0.0,0.0,0.0,0.0,0.0,0.0,0.0,0.0,0.0,0.0
0.5664291381835938,9.8,-0.02936115018867815,-0.54381252687568,-0.6537725324320909,0.0,0.0,0.2,0.0,0.0,0.0,0.0,0.0,0.0,0.0,0.0,0.0,0.0,0.0,0.0
0.5778834819793701,9.8,-0.02645743800771124,-0.5451246746483963,-0.653273467904167,0.0,0.0,0.2,0.0,0.0,0.0,0.0,0.0,0.0,0.0,0.0,0.0,0.0,0.0,0.0
0.5892598628997803,9.8,-0.04302097626282388,-0.5679919406043646,-0.6445223919599444,0.0,0.0,0.2,0.0,0.0,0.0,0.0,0.0,0.0,0.0,0.0,0.0,0.0,0.0,0.0
0.6007676124572754,9.8,-0.015240730537338291,-0.5388122833922914,-0.6596929844705957,0.0,0.0,0.2,0.0,0.0,0.0,0.0,0.0,0.0,0.0,0.0,0.0,0.0,0.0,0.0
0.6120433807373047,9.8,-0.01120415138840589,-0.5361597347618943,-0.6626847125928053,0.0,0.0,0.2,0.0,0.0,0.0,0.0,0.0,0.0,0.0,0.0,0.0,0.0,0.0,0.0
0.6240184307098389,9.8,-0.007355448689441115,-0.5344874347879964,-0.6660080030102363,0.0,0.0,0.2,0.0,0.0,0.0,0.0,0.0,0.0,0.0,0.0,0.0,0.0,0.0,0.0
0.6355581283569336,9.8,-0.0010313486683652137,-0.527472158983862,-0.6663735180938406,0.0,0.0,0.2,0.0,0.0,0.0,0.0,0.0,0.0,0.0,0.0,0.0,0.0,0.0,0.0
0.6468498706817627,9.8,0.0017504200836801623,-0.5253211310473809,-0.6644154852535521,0.0,0.0,0.2,0.0,0.0,0.0,0.0,0.0,0.0,0.0,0.0,0.0,0.0,0.0,0.0
0.657963752746582,9.8,0.003712635454479699,-0.520331985646,-0.6620660961893778,0.0,0.0,0.2,0.0,0.0,0.0,0.0,0.0,0.0,0.0,0.0,0.0,0.0,0.0,0.0
0.6695313453674316,9.8,0.004580459623774577,-0.5086627329839536,-0.655175459454636,0.0,0.0,0.2,0.0,0.0,0.0,0.0,0.0,0.0,0.0,0.0,0.0,0.0,0.0,0.0
0.6811108589172363,9.8,0.005596007407403233,-0.5039403403094797,-0.652151594501045,0.0,0.0,0.2,0.0,0.0,0.0,0.0,0.0,0.0,0.0,0.0,0.0,0.0,0.0,0.0
0.6915302276611328,9.8,0.0035103671010419013,-0.5030941181955274,-0.6471635793709813,0.0,0.0,0.2,0.0,0.0,0.0,0.0,0.0,0.0,0.0,0.0,0.0,0.0,0.0,0.0
0.7020313739776611,9.8,-3.617793238741342e-05,-0.4994520345848852,-0.6368896888533455,0.0,0.0,0.2,0.0,0.0,0.0,0.0,0.0,0.0,0.0,0.0,0.0,0.0,0.0,0.0
0.7123470306396484,9.8,-0.0023224091170084855,-0.5005105516098697,-0.6335595334441292,0.0,0.0,0.2,0.0,0.0,0.0,0.0,0.0,0.0,0.0,0.0,0.0,0.0,0.0,0.0
0.7226691246032715,9.8,-0.005083175112606881,-0.5036274405830056,-0.6320321859123923,0.0,0.0,0.2,0.0,0.0,0.0,0.0,0.0,0.0,0.0,0.0,0.0,0.0,0.0,0.0
0.7330210208892822,9.8,-0.007388085551001307,-0.5109357523407106,-0.6316268115514231,0.0,0.0,0.2,0.0,0.0,0.0,0.0,0.0,0.0,0.0,0.0,0.0,0.0,0.0,0.0
0.7450571060180664,9.8,-0.014144732613244242,-0.5256678657783612,-0.6360245057864805,0.0,0.0,0.2,0.0,0.0,0.0,0.0,0.0,0.0,0.0,0.0,0.0,0.0,0.0,0.0
0.7563114166259766,9.8,-0.018379816389135807,-0.5337437787892368,-0.6441141872159907,0.0,0.0,0.2,0.0,0.0,0.0,0.0,0.0,0.0,0.0,0.0,0.0,0.0,0.0,0.0
0.7676563262939453,9.8,-0.02323923288784919,-0.5485184828673844,-0.6573621510319038,0.0,0.0,0.2,0.0,0.0,0.0,0.0,0.0,0.0,0.0,0.0,0.0,0.0,0.0,0.0
0.7790341377258301,9.8,-0.023817249496232127,-0.5547410639733455,-0.6640180262583073,0.0,0.0,0.2,0.0,0.0,0.0,0.0,0.0,0.0,0.0,0.0,0.0,0.0,0.0,0.0
0.7904078960418701,9.8,-0.0699840612893021,-0.1335040812005492,-0.39238862355661924,0.0,0.0,0.2,0.0,0.0,0.0,0.0,0.0,0.0,0.0,0.0,0.0,0.0,0.0,0.0
0.8016846179962158,9.8,-0.026459919353487456,-0.5575880508138873,-0.6754486374618746,0.0,0.0,0.2,0.0,0.0,0.0,0.0,0.0,0.0,0.0,0.0,0.0,0.0,0.0,0.0
0.8131077289581299,9.8,-0.028365967426385235,-0.557160659989694,-0.6755506939260963,0.0,0.0,0.2,0.0,0.0,0.0,0.0,0.0,0.0,0.0,0.0,0.0,0.0,0.0,0.0
0.824777364730835,9.8,-0.0272985058698478,-0.5597558435453717,-0.6730417487601608,0.0,0.0,0.2,0.0,0.0,0.0,0.0,0.0,0.0,0.0,0.0,0.0,0.0,0.0,0.0
0.8362960815429688,9.8,-0.030204423300727295,-0.5657636911822104,-0.6619989219611738,0.0,0.0,0.2,0.0,0.0,0.0,0.0,0.0,0.0,0.0,0.0,0.0,0.0,0.0,0.0
0.8474397659301758,9.8,-0.03074113930098794,-0.5715763381126461,-0.657710613870392,0.0,0.0,0.2,0.0,0.0,0.0,0.0,0.0,0.0,0.0,0.0,0.0,0.0,0.0,0.0
0.8588199615478516,9.8,-0.029034377576700902,-0.581891896367739,-0.6492369367146595,0.0,0.0,0.2,0.0,0.0,0.0,0.0,0.0,0.0,0.0,0.0,0.0,0.0,0.0,0.0
0.8705816268920898,9.8,-0.029328715856204102,-0.5851539752922965,-0.6518321880081938,0.0,0.0,0.2,0.0,0.0,0.0,0.0,0.0,0.0,0.0,0.0,0.0,0.0,0.0,0.0
0.8818018436431885,9.8,0.013825173768962418,-0.6063717587338231,-0.604132134445205,0.0,0.0,0.2,0.0,0.0,0.0,0.0,0.0,0.0,0.0,0.0,0.0,0.0,0.0,0.0
0.8935320377349854,9.8,0.017041520594322734,-0.6167069842128292,-0.6172826437122887,0.0,0.0,0.2,0.0,0.0,0.0,0.0,0.0,0.0,0.0,0.0,0.0,0.0,0.0,0.0
0.9049715995788574,9.8,0.021371069607134138,-0.6242873149593781,-0.6216652472510383,0.0,0.0,0.2,0.0,0.0,0.0,0.0,0.0,0.0,0.0,0.0,0.0,0.0,0.0,0.0
0.9164984226226807,9.8,-0.12237559409000262,-0.3116901981575192,-0.4899875777372428,0.0,0.0,0.2,0.0,0.0,0.0,0.0,0.0,0.0,0.0,0.0,0.0,0.0,0.0,0.0
0.9279055595397949,9.8,0.02475920170340773,-0.6510603292710269,-0.6545895018447132,0.0,0.0,0.2,0.0,0.0,0.0,0.0,0.0,0.0,0.0,0.0,0.0,0.0,0.0,0.0
0.939122200012207,9.8,0.023751925896403535,-0.6660303353788092,-0.663603825241259,0.0,0.0,0.2,0.0,0.0,0.0,0.0,0.0,0.0,0.0,0.0,0.0,0.0,0.0,0.0
0.9504415988922119,9.8,0.039886234784613527,-0.7474925039626881,-0.6897523762192893,0.0,0.0,0.2,0.0,0.0,0.0,0.0,0.0,0.0,0.0,0.0,0.0,0.0,0.0,0.0
0.9623672962188721,9.8,0.035436330817996506,-0.7756112040061377,-0.6970989027071314,0.0,0.0,0.2,0.0,0.0,0.0,0.0,0.0,0.0,0.0,0.0,0.0,0.0,0.0,0.0
0.9736063480377197,9.8,0.03210838294018013,-0.802692650578148,-0.7019877746900992,0.0,0.0,0.2,0.0,0.0,0.0,0.0,0.0,0.0,0.0,0.0,0.0,0.0,0.0,0.0
0.9850599765777588,9.8,-0.004572118849644634,-0.9018435833316423,-0.7209810473961628,0.0,0.0,0.2,0.0,0.0,0.0,0.0,0.0,0.0,0.0,0.0,0.0,0.0,0.0,0.0
0.9965212345123291,9.8,-0.13610582696856446,-0.4270884634551081,-0.5548528850891643,0.0,0.0,0.2,0.0,0.0,0.0,0.0,0.0,0.0,0.0,0.0,0.0,0.0,0.0,0.0
1.007638931274414,9.8,-0.03588258064546826,-0.9102422523795173,-0.72179625760428,0.0,0.0,0.2,0.0,0.0,0.0,0.0,0.0,0.0,0.0,0.0,0.0,0.0,0.0,0.0
1.0190918445587158,9.8,-0.03138557310235461,-1.0737967773266326,-0.7263265714483257,0.0,0.0,0.2,0.0,0.0,0.0,0.0,0.0,0.0,0.0,0.0,0.0,0.0,0.0,0.0
1.030419111251831,9.8,-0.05597853292410527,-1.0629157919118728,-0.7195781345555432,0.0,0.0,0.2,0.0,0.0,0.0,0.0,0.0,0.0,0.0,0.0,0.0,0.0,0.0,0.0
1.0418002605438232,9.8,-0.06050571272724357,-1.1140009386602676,-0.713128768570436,0.0,0.0,0.2,0.0,0.0,0.0,0.0,0.0,0.0,0.0,0.0,0.0,0.0,0.0,0.0
1.053067684173584,9.8,-0.06787477147593729,-1.2442485212778347,-0.6458359562837794,0.0,0.0,0.2,0.0,0.0,0.0,0.0,0.0,0.0,0.0,0.0,0.0,0.0,0.0,0.0
1.064286708831787,9.8,-0.09626808791946641,-1.3150835292535286,-0.6503650231545537,0.0,0.0,0.2,0.0,0.0,0.0,0.0,0.0,0.0,0.0,0.0,0.0,0.0,0.0,0.0
1.0755195617675781,9.8,-0.05382069559074491,-1.3970090147933367,-0.6529850951269663,0.0,0.0,0.2,0.0,0.0,0.0,0.0,0.0,0.0,0.0,0.0,0.0,0.0,0.0,0.0
1.0872583389282227,9.8,-0.10698104903501172,-1.47937676565274,-0.7112522819084589,0.0,0.0,0.2,0.0,0.0,0.0,0.0,0.0,0.0,0.0,0.0,0.0,0.0,0.0,0.0
1.098461389541626,9.8,-0.07406019127109408,-1.5567027010309709,-0.6271626695139012,0.0,0.0,0.2,0.0,0.0,0.0,0.0,0.0,0.0,0.0,0.0,0.0,0.0,0.0,0.0
1.1102118492126465,9.8,-0.16420017202098047,-1.709102094579556,-0.6281483835989311,0.0,0.0,0.2,0.0,0.0,0.0,0.0,0.0,0.0,0.0,0.0,0.0,0.0,0.0,0.0
1.121598720550537,9.8,-0.15931532767283854,-1.7645755284188624,-0.6200672863719663,0.0,0.0,0.2,0.0,0.0,0.0,0.0,0.0,0.0,0.0,0.0,0.0,0.0,0.0,0.0
1.1331830024719238,9.8,-0.18362230214434122,-1.8320032801298625,-0.6186718032098861,0.0,0.0,0.2,0.0,0.0,0.0,0.0,0.0,0.0,0.0,0.0,0.0,0.0,0.0,0.0
1.1446714401245117,9.8,-0.26077904284897585,-1.9892522623443416,-0.6286756504482102,0.0,0.0,0.2,0.0,0.0,0.0,0.0,0.0,0.0,0.0,0.0,0.0,0.0,0.0,0.0
1.1558847427368164,9.8,-0.03927815721651312,-0.6455881504977542,-0.6078808559219885,0.0,0.0,0.2,0.0,0.0,0.0,0.0,0.0,0.0,0.0,0.0,0.0,0.0,0.0,0.0
1.1671555042266846,9.8,-0.3737318646511333,-2.183396076475391,-0.5769028025051891,0.0,0.0,0.2,0.0,0.0,0.0,0.0,0.0,0.0,0.0,0.0,0.0,0.0,0.0,0.0
1.178771734237671,9.8,-0.4341711143100952,-2.277960066272515,-0.5568752502571634,0.0,0.0,0.2,0.0,0.0,0.0,0.0,0.0,0.0,0.0,0.0,0.0,0.0,0.0,0.0
1.190039873123169,9.8,-0.43382165219095514,-2.4024549866292966,-0.5763748599881244,0.0,0.0,0.2,0.0,0.0,0.0,0.0,0.0,0.0,0.0,0.0,0.0,0.0,0.0,0.0
1.2015399932861328,9.8,-0.5095313789385515,-2.6299257446648308,-0.5856946614415834,0.0,0.0,0.2,0.0,0.0,0.0,0.0,0.0,0.0,0.0,0.0,0.0,0.0,0.0,0.0
1.2129273414611816,9.8,-0.5662401147238214,-2.713802567307271,-0.5659670262901033,0.0,0.0,0.2,0.0,0.0,0.0,0.0,0.0,0.0,0.0,0.0,0.0,0.0,0.0,0.0
1.2241780757904053,9.8,-0.6350729707056033,-2.809125338273461,-0.5461341305439753,0.0,0.0,0.2,0.0,0.0,0.0,0.0,0.0,0.0,0.0,0.0,0.0,0.0,0.0,0.0
1.2356674671173096,9.8,-0.7621351894301115,-2.957107527557032,-0.4973063264549027,0.0,0.0,0.2,0.0,0.0,0.0,0.0,0.0,0.0,0.0,0.0,0.0,0.0,0.0,0.0
1.2468597888946533,9.8,-0.8197237190395791,-3.0307058847460007,-0.47640016918937456,0.0,0.0,0.2,0.0,0.0,0.0,0.0,0.0,0.0,0.0,0.0,0.0,0.0,0.0,0.0
1.2582697868347168,9.8,-0.8864270045799548,-3.11729382878997,-0.4545748416721236,0.0,0.0,0.2,0.0,0.0,0.0,0.0,0.0,0.0,0.0,0.0,0.0,0.0,0.0,0.0
1.2699458599090576,9.8,-0.9827318003953269,-3.25532094053982,-0.4199785037020105,0.0,0.0,0.2,0.0,0.0,0.0,0.0,0.0,0.0,0.0,0.0,0.0,0.0,0.0,0.0
1.2812180519104004,9.8,-1.0373493495686585,-3.314206301229225,-0.3997382720568791,0.0,0.0,0.2,0.0,0.0,0.0,0.0,0.0,0.0,0.0,0.0,0.0,0.0,0.0,0.0
1.292431116104126,9.8,-1.1105584422141448,-3.4792894781132357,-0.36276275864548096,0.0,0.0,0.2,0.0,0.0,0.0,0.0,0.0,0.0,0.0,0.0,0.0,0.0,0.0,0.0
1.3038198947906494,9.8,-1.1454190521600507,-3.5527612454046564,-0.34843826798689265,0.0,0.0,0.2,0.0,0.0,0.0,0.0,0.0,0.0,0.0,0.0,0.0,0.0,0.0,0.0
1.315080165863037,9.8,-0.1969977846118673,-0.7535148349064024,-0.606058133637936,0.0,0.0,0.2,0.0,0.0,0.0,0.0,0.0,0.0,0.0,0.0,0.0,0.0,0.0,0.0
1.3265469074249268,9.8,-1.2480508269317494,-3.7656933640220127,-0.27531720221303524,0.0,0.0,0.2,0.0,0.0,0.0,0.0,0.0,0.0,0.0,0.0,0.0,0.0,0.0,0.0
1.3378937244415283,9.8,-1.282241496441771,-3.8403337650553007,-0.2395638672110851,0.0,0.0,0.2,0.0,0.0,0.0,0.0,0.0,0.0,0.0,0.0,0.0,0.0,0.0,0.0
1.3491530418395996,9.8,-1.3163278148240847,-3.90595487468114,-0.20869119772594275,0.0,0.0,0.2,0.0,0.0,0.0,0.0,0.0,0.0,0.0,0.0,0.0,0.0,0.0,0.0
1.3606340885162354,9.8,-1.3935213752265099,-4.01794618210042,-0.1277073040324552,0.0,0.0,0.2,0.0,0.0,0.0,0.0,0.0,0.0,0.0,0.0,0.0,0.0,0.0,0.0
1.3719806671142578,9.8,-1.432636539133185,-4.07161088266253,-0.08907813768588736,0.0,0.0,0.2,0.0,0.0,0.0,0.0,0.0,0.0,0.0,0.0,0.0,0.0,0.0,0.0
1.383263111114502,9.8,-1.4758660972921231,-4.127649467999316,-0.0487549317774976,0.0,0.0,0.2,0.0,0.0,0.0,0.0,0.0,0.0,0.0,0.0,0.0,0.0,0.0,0.0
1.3949670791625977,9.8,-1.5468221106420845,-4.204633787085163,0.02489551497585168,0.0,0.0,0.2,0.0,0.0,0.0,0.0,0.0,0.0,0.0,0.0,0.0,0.0,0.0,0.0
1.4063518047332764,9.8,-1.5935571161684985,-4.256376589737146,0.06936714870280368,0.0,0.0,0.2,0.0,0.0,0.0,0.0,0.0,0.0,0.0,0.0,0.0,0.0,0.0,0.0
1.4178438186645508,9.8,-1.6616858988367715,-4.325508045703718,0.1395558512652407,0.0,0.0,0.2,0.0,0.0,0.0,0.0,0.0,0.0,0.0,0.0,0.0,0.0,0.0,0.0
1.4292149543762207,9.8,-1.698446805885539,-4.365074985239251,0.1749635117508175,0.0,0.0,0.2,0.0,0.0,0.0,0.0,0.0,0.0,0.0,0.0,0.0,0.0,0.0,0.0
1.4405739307403564,9.8,-1.7378879921092205,-4.412785351638605,0.21246632681483507,0.0,0.0,0.2,0.0,0.0,0.0,0.0,0.0,0.0,0.0,0.0,0.0,0.0,0.0,0.0
1.45198392868042,9.8,-1.7850034854511287,-4.475368260517026,0.2665893836009196,0.0,0.0,0.2,0.0,0.0,0.0,0.0,0.0,0.0,0.0,0.0,0.0,0.0,0.0,0.0
1.4635519981384277,9.8,-1.812458490173983,-4.515467846800836,0.2964423461065912,0.0,0.0,0.2,0.0,0.0,0.0,0.0,0.0,0.0,0.0,0.0,0.0,0.0,0.0,0.0
1.47477126121521,9.8,-0.2953282656689749,-0.8921050507215106,-0.6227548947003734,0.0,0.0,0.2,0.0,0.0,0.0,0.0,0.0,0.0,0.0,0.0,0.0,0.0,0.0,0.0
1.4862525463104248,9.8,-1.863694102153983,-4.578075203534293,0.3616138057758699,0.0,0.0,0.2,0.0,0.0,0.0,0.0,0.0,0.0,0.0,0.0,0.0,0.0,0.0,0.0
1.4974815845489502,9.8,-1.8824683844846062,-4.603344699863229,0.3805240596304033,0.0,0.0,0.2,0.0,0.0,0.0,0.0,0.0,0.0,0.0,0.0,0.0,0.0,0.0,0.0
1.5090746879577637,9.8,-1.9107423216300385,-4.634355049489519,0.4128460016943545,0.0,0.0,0.2,0.0,0.0,0.0,0.0,0.0,0.0,0.0,0.0,0.0,0.0,0.0,0.0
1.5203227996826172,9.8,-1.930583801643312,-4.657937852019553,0.42990582608813255,0.0,0.0,0.2,0.0,0.0,0.0,0.0,0.0,0.0,0.0,0.0,0.0,0.0,0.0,0.0
1.5315327644348145,9.8,-1.948490912455273,-4.6832092270440135,0.44491325304902984,0.0,0.0,0.2,0.0,0.0,0.0,0.0,0.0,0.0,0.0,0.0,0.0,0.0,0.0,0.0
1.5426816940307617,9.8,-1.9720645711126872,-4.719155502921809,0.4714552863052401,0.0,0.0,0.2,0.0,0.0,0.0,0.0,0.0,0.0,0.0,0.0,0.0,0.0,0.0,0.0
1.5540859699249268,9.8,-1.9867641233421696,-4.747519053596863,0.4858127773649887,0.0,0.0,0.2,0.0,0.0,0.0,0.0,0.0,0.0,0.0,0.0,0.0,0.0,0.0,0.0
1.5654959678649902,9.8,-1.9994932229817848,-4.772139058655872,0.49761811071023576,0.0,0.0,0.2,0.0,0.0,0.0,0.0,0.0,0.0,0.0,0.0,0.0,0.0,0.0,0.0
1.576871633529663,9.8,-2.0119910884982546,-4.804128793453338,0.5114355131288787,0.0,0.0,0.2,0.0,0.0,0.0,0.0,0.0,0.0,0.0,0.0,0.0,0.0,0.0,0.0
1.5883817672729492,9.8,-2.0213585780187526,-4.826334562840223,0.5199882904939485,0.0,0.0,0.2,0.0,0.0,0.0,0.0,0.0,0.0,0.0,0.0,0.0,0.0,0.0,0.0
1.5996689796447754,9.8,-2.027587460410026,-4.846307077631635,0.527429010150721,0.0,0.0,0.2,0.0,0.0,0.0,0.0,0.0,0.0,0.0,0.0,0.0,0.0,0.0,0.0
1.6110868453979492,9.8,-2.037613802591797,-4.87209277568707,0.5429202943304559,0.0,0.0,0.2,0.0,0.0,0.0,0.0,0.0,0.0,0.0,0.0,0.0,0.0,0.0,0.0
1.6224415302276611,9.8,-0.41067857865905677,-1.1936805281829381,-0.6870542386815837,0.0,0.0,0.2,0.0,0.0,0.0,0.0,0.0,0.0,0.0,0.0,0.0,0.0,0.0,0.0
1.6338531970977783,9.8,-2.0514257491792387,-4.894393099005183,0.5654438998317165,0.0,0.0,0.2,0.0,0.0,0.0,0.0,0.0,0.0,0.0,0.0,0.0,0.0,0.0,0.0
1.6453971862792969,9.8,-2.0633997764390144,-4.912580078020194,0.5790598663354413,0.0,0.0,0.2,0.0,0.0,0.0,0.0,0.0,0.0,0.0,0.0,0.0,0.0,0.0,0.0
1.6567542552947998,9.8,-2.071668844913708,-4.929273918486608,0.5848594482812801,0.0,0.0,0.2,0.0,0.0,0.0,0.0,0.0,0.0,0.0,0.0,0.0,0.0,0.0,0.0
1.6680433750152588,9.8,-2.0694655793392975,-4.948490592718612,0.5839338965313138,0.0,0.0,0.2,0.0,0.0,0.0,0.0,0.0,0.0,0.0,0.0,0.0,0.0,0.0,0.0
1.6792805194854736,9.8,-2.0743380838112873,-4.964235852267498,0.5817848402911385,0.0,0.0,0.2,0.0,0.0,0.0,0.0,0.0,0.0,0.0,0.0,0.0,0.0,0.0,0.0
1.6906664371490479,9.8,-2.0777313848994603,-4.979359918863077,0.5819698628939924,0.0,0.0,0.2,0.0,0.0,0.0,0.0,0.0,0.0,0.0,0.0,0.0,0.0,0.0,0.0
1.7021598815917969,9.8,-2.072072889237118,-4.991249273101818,0.5751166649439237,0.0,0.0,0.2,0.0,0.0,0.0,0.0,0.0,0.0,0.0,0.0,0.0,0.0,0.0,0.0
1.7136197090148926,9.8,-2.0733491537904856,-5.005325824347543,0.5772102024919621,0.0,0.0,0.2,0.0,0.0,0.0,0.0,0.0,0.0,0.0,0.0,0.0,0.0,0.0,0.0
1.7249476909637451,9.8,-2.0786922711599667,-5.018185116419325,0.5778264145559772,0.0,0.0,0.2,0.0,0.0,0.0,0.0,0.0,0.0,0.0,0.0,0.0,0.0,0.0,0.0
1.7363958358764648,9.8,-2.0838559526391647,-5.026650377587157,0.5768443562605847,0.0,0.0,0.2,0.0,0.0,0.0,0.0,0.0,0.0,0.0,0.0,0.0,0.0,0.0,0.0
1.7476165294647217,9.8,-2.095181173614341,-5.022212998453858,0.5771625542634611,0.0,0.0,0.2,0.0,0.0,0.0,0.0,0.0,0.0,0.0,0.0,0.0,0.0,0.0,0.0
1.7588694095611572,9.8,-2.110620920344801,-5.040235431787519,0.5881890852898958,0.0,0.0,0.2,0.0,0.0,0.0,0.0,0.0,0.0,0.0,0.0,0.0,0.0,0.0,0.0
1.7704172134399414,9.8,-2.129075481416142,-5.042197005591245,0.5939781975172636,0.0,0.0,0.2,0.0,0.0,0.0,0.0,0.0,0.0,0.0,0.0,0.0,0.0,0.0,0.0
1.7817039489746094,9.8,-0.7314202954697978,-2.632849025619576,-0.6065591558840627,0.0,0.0,0.2,0.0,0.0,0.0,0.0,0.0,0.0,0.0,0.0,0.0,0.0,0.0,0.0
1.7929515838623047,9.8,-2.16735708753781,-5.059436582083267,0.6182048651225597,0.0,0.0,0.2,0.0,0.0,0.0,0.0,0.0,0.0,0.0,0.0,0.0,0.0,0.0,0.0
1.8041090965270996,9.8,-2.180602369675227,-5.08382241620825,0.6270818330723402,0.0,0.0,0.2,0.0,0.0,0.0,0.0,0.0,0.0,0.0,0.0,0.0,0.0,0.0,0.0
1.815720796585083,9.8,-2.1936010911308252,-5.1017216988087055,0.6311767514698965,0.0,0.0,0.2,0.0,0.0,0.0,0.0,0.0,0.0,0.0,0.0,0.0,0.0,0.0,0.0
1.8268985748291016,9.8,-2.2070948054732025,-5.112375735355884,0.632488423041575,0.0,0.0,0.2,0.0,0.0,0.0,0.0,0.0,0.0,0.0,0.0,0.0,0.0,0.0,0.0
1.8380498886108398,9.8,-2.215511411263258,-5.123366160333036,0.6329644326032003,0.0,0.0,0.2,0.0,0.0,0.0,0.0,0.0,0.0,0.0,0.0,0.0,0.0,0.0,0.0
1.849318265914917,9.8,-1.412897835271358,-3.611339632561254,-0.2837620215035318,0.0,0.0,0.2,0.0,0.0,0.0,0.0,0.0,0.0,0.0,0.0,0.0,0.0,0.0,0.0
1.8606126308441162,9.8,-2.222304076908316,-5.127676455210249,0.6275723631568388,0.0,0.0,0.2,0.0,0.0,0.0,0.0,0.0,0.0,0.0,0.0,0.0,0.0,0.0,0.0
1.8720743656158447,9.8,-2.2259338431909526,-5.134512949750956,0.6267215909461301,0.0,0.0,0.2,0.0,0.0,0.0,0.0,0.0,0.0,0.0,0.0,0.0,0.0,0.0,0.0
1.8828082084655762,9.8,-2.228633110291199,-5.138353054748905,0.6252722031480666,0.0,0.0,0.2,0.0,0.0,0.0,0.0,0.0,0.0,0.0,0.0,0.0,0.0,0.0,0.0
1.8936083316802979,9.8,-2.2241932060998404,-5.1278634570769315,0.6172750082806805,0.0,0.0,0.2,0.0,0.0,0.0,0.0,0.0,0.0,0.0,0.0,0.0,0.0,0.0,0.0
1.9049193859100342,9.8,-2.2225548227610523,-5.135937554162491,0.6148075010033689,0.0,0.0,0.2,0.0,0.0,0.0,0.0,0.0,0.0,0.0,0.0,0.0,0.0,0.0,0.0
1.9161362648010254,9.8,-2.2199911512235118,-5.141695649844225,0.6118180147913181,0.0,0.0,0.2,0.0,0.0,0.0,0.0,0.0,0.0,0.0,0.0,0.0,0.0,0.0,0.0
1.9275825023651123,9.8,-2.1974000015483184,-5.152511018877648,0.6023411730706889,0.0,0.0,0.2,0.0,0.0,0.0,0.0,0.0,0.0,0.0,0.0,0.0,0.0,0.0,0.0
1.9389894008636475,9.8,-2.1928559148399356,-5.156901218457801,0.600161031587935,0.0,0.0,0.2,0.0,0.0,0.0,0.0,0.0,0.0,0.0,0.0,0.0,0.0,0.0,0.0
1.9501574039459229,9.8,-2.1929886819265247,-5.145159406436894,0.6005339158403586,0.0,0.0,0.2,0.0,0.0,0.0,0.0,0.0,0.0,0.0,0.0,0.0,0.0,0.0,0.0
1.9615085124969482,9.8,-2.1778407008249703,-5.130343751436722,0.6034515988547364,0.0,0.0,0.2,0.0,0.0,0.0,0.0,0.0,0.0,0.0,0.0,0.0,0.0,0.0,0.0
1.9728882312774658,9.8,-2.1735059975712647,-5.124546861861905,0.6050322683452799,0.0,0.0,0.2,0.0,0.0,0.0,0.0,0.0,0.0,0.0,0.0,0.0,0.0,0.0,0.0
1.9842488765716553,9.8,-2.096071672978215,-5.07138179783418,0.581824377649236,0.0,0.0,0.2,0.0,0.0,0.0,0.0,0.0,0.0,0.0,0.0,0.0,0.0,0.0,0.0
1.995856523513794,9.8,-2.149316053563124,-5.065874998346691,0.611930263188153,0.0,0.0,0.2,0.0,0.0,0.0,0.0,0.0,0.0,0.0,0.0,0.0,0.0,0.0,0.0
2.0071704387664795,9.8,-2.3238411872893536,-4.958015220920325,0.530816675316697,0.0,0.0,0.2,0.0,0.0,0.0,0.0,0.0,0.0,0.0,0.0,0.0,0.0,0.0,0.0
2.0184378623962402,9.8,-2.1013818379303872,-5.015444494778315,0.5852319661230331,0.0,0.0,0.2,0.0,0.0,0.0,0.0,0.0,0.0,0.0,0.0,0.0,0.0,0.0,0.0
2.0296213626861572,9.8,-2.133648566693286,-4.9684323526035,0.5995130655781261,0.0,0.0,0.2,0.0,0.0,0.0,0.0,0.0,0.0,0.0,0.0,0.0,0.0,0.0,0.0
2.0411436557769775,9.8,-2.343939609316288,-5.144410132598705,0.7794998844350507,0.0,0.0,0.2,0.0,0.0,0.0,0.0,0.0,0.0,0.0,0.0,0.0,0.0,0.0,0.0
2.0525240898132324,9.8,-2.1644139517397707,-4.9120292614471515,0.6421303797972601,0.0,0.0,0.2,0.0,0.0,0.0,0.0,0.0,0.0,0.0,0.0,0.0,0.0,0.0,0.0
2.063720941543579,9.8,-2.166630640419992,-4.898263464564954,0.6471262446762772,0.0,0.0,0.2,0.0,0.0,0.0,0.0,0.0,0.0,0.0,0.0,0.0,0.0,0.0,0.0
2.074946880340576,9.8,-2.1682507528333668,-4.8833354491871415,0.6509447461213879,0.0,0.0,0.2,0.0,0.0,0.0,0.0,0.0,0.0,0.0,0.0,0.0,0.0,0.0,0.0
2.086113214492798,9.8,-2.152740437061362,-4.83565358882435,0.6452817408860559,0.0,0.0,0.2,0.0,0.0,0.0,0.0,0.0,0.0,0.0,0.0,0.0,0.0,0.0,0.0
2.0976953506469727,9.8,-2.1474308217459512,-4.803871135788176,0.6460718061034753,0.0,0.0,0.2,0.0,0.0,0.0,0.0,0.0,0.0,0.0,0.0,0.0,0.0,0.0,0.0
2.108954668045044,9.8,-2.2020858313232305,-4.682893956216275,0.7015069985654481,0.0,0.0,0.2,0.0,0.0,0.0,0.0,0.0,0.0,0.0,0.0,0.0,0.0,0.0,0.0
2.1205077171325684,9.8,-2.100627187765183,-4.717597919217462,0.6251916599638022,0.0,0.0,0.2,0.0,0.0,0.0,0.0,0.0,0.0,0.0,0.0,0.0,0.0,0.0,0.0
2.1316592693328857,9.8,-2.0795254867231674,-4.711810824569829,0.6141035381695716,0.0,0.0,0.2,0.0,0.0,0.0,0.0,0.0,0.0,0.0,0.0,0.0,0.0,0.0,0.0
2.1429316997528076,9.8,-2.030672848125844,-4.662044118691378,0.5929523327361615,0.0,0.0,0.2,0.0,0.0,0.0,0.0,0.0,0.0,0.0,0.0,0.0,0.0,0.0,0.0
2.1542131900787354,9.8,-1.979665172793023,-4.659746636886097,0.5470915804533344,0.0,0.0,0.2,0.0,0.0,0.0,0.0,0.0,0.0,0.0,0.0,0.0,0.0,0.0,0.0
2.165796995162964,9.8,-1.9426726967483836,-4.64926838336468,0.5390127243809243,0.0,0.0,0.2,0.0,0.0,0.0,0.0,0.0,0.0,0.0,0.0,0.0,0.0,0.0,0.0
2.1772563457489014,9.8,-1.9128039969506538,-4.64707442993276,0.5371189945996153,0.0,0.0,0.2,0.0,0.0,0.0,0.0,0.0,0.0,0.0,0.0,0.0,0.0,0.0,0.0
2.1887247562408447,9.8,-1.878170118593426,-4.641857331177894,0.5197172512176562,0.0,0.0,0.2,0.0,0.0,0.0,0.0,0.0,0.0,0.0,0.0,0.0,0.0,0.0,0.0
2.199885368347168,9.8,-1.8456515180560122,-4.631574918304173,0.5045346433759027,0.0,0.0,0.2,0.0,0.0,0.0,0.0,0.0,0.0,0.0,0.0,0.0,0.0,0.0,0.0
2.2113637924194336,9.8,-1.7544741050938748,-4.563091396755891,0.47261684675492743,0.0,0.0,0.2,0.0,0.0,0.0,0.0,0.0,0.0,0.0,0.0,0.0,0.0,0.0,0.0
2.2230992317199707,9.8,-1.7251955913199142,-4.551693305036746,0.46318300022909814,0.0,0.0,0.2,0.0,0.0,0.0,0.0,0.0,0.0,0.0,0.0,0.0,0.0,0.0,0.0
2.2342588901519775,9.8,-1.6940560226059445,-4.563930001943522,0.45320917840575387,0.0,0.0,0.2,0.0,0.0,0.0,0.0,0.0,0.0,0.0,0.0,0.0,0.0,0.0,0.0
2.2457644939422607,9.8,-1.6730251620999852,-4.569936213542484,0.4462055800798265,0.0,0.0,0.2,0.0,0.0,0.0,0.0,0.0,0.0,0.0,0.0,0.0,0.0,0.0,0.0
2.25716233253479,9.8,-1.7290417826567543,-4.526518046809687,0.5141087266334691,0.0,0.0,0.2,0.0,0.0,0.0,0.0,0.0,0.0,0.0,0.0,0.0,0.0,0.0,0.0
2.268599033355713,9.8,-1.6255514282219556,-4.5792453241021285,0.43761336841241194,0.0,0.0,0.2,0.0,0.0,0.0,0.0,0.0,0.0,0.0,0.0,0.0,0.0,0.0,0.0
2.2797555923461914,9.8,-1.6203311222838974,-4.589261005556696,0.43891241702873157,0.0,0.0,0.2,0.0,0.0,0.0,0.0,0.0,0.0,0.0,0.0,0.0,0.0,0.0,0.0
2.2910025119781494,9.8,-1.6194818809137228,-4.598367721750401,0.4438052005123243,0.0,0.0,0.2,0.0,0.0,0.0,0.0,0.0,0.0,0.0,0.0,0.0,0.0,0.0,0.0
2.302539348602295,9.8,-1.6245456569597247,-4.601321528510604,0.4528100321571034,0.0,0.0,0.2,0.0,0.0,0.0,0.0,0.0,0.0,0.0,0.0,0.0,0.0,0.0,0.0
2.3139452934265137,9.8,-1.6309489659932994,-4.606168103582047,0.45836672993957017,0.0,0.0,0.2,0.0,0.0,0.0,0.0,0.0,0.0,0.0,0.0,0.0,0.0,0.0,0.0
2.325191020965576,9.8,-1.6376323276623237,-4.587589976612501,0.4628695436323832,0.0,0.0,0.2,0.0,0.0,0.0,0.0,0.0,0.0,0.0,0.0,0.0,0.0,0.0,0.0
2.3369743824005127,9.8,-1.7103890119727267,-4.539682127536173,0.5265206735331189,0.0,0.0,0.2,0.0,0.0,0.0,0.0,0.0,0.0,0.0,0.0,0.0,0.0,0.0,0.0
2.348532199859619,9.8,-1.71845158404489,-4.532307246350916,0.5273998171663437,0.0,0.0,0.2,0.0,0.0,0.0,0.0,0.0,0.0,0.0,0.0,0.0,0.0,0.0,0.0
2.359740734100342,9.8,-1.658917205715382,-4.555486449094478,0.4522688957614055,0.0,0.0,0.2,0.0,0.0,0.0,0.0,0.0,0.0,0.0,0.0,0.0,0.0,0.0,0.0
2.371121883392334,9.8,-1.659890832626445,-4.542920876914589,0.44870077457004803,0.0,0.0,0.2,0.0,0.0,0.0,0.0,0.0,0.0,0.0,0.0,0.0,0.0,0.0,0.0
2.382413387298584,9.8,-1.6728917065094633,-4.551711916386285,0.443721995519061,0.0,0.0,0.2,0.0,0.0,0.0,0.0,0.0,0.0,0.0,0.0,0.0,0.0,0.0,0.0
2.393885850906372,9.8,-1.6852416247306625,-4.5336411739342095,0.4374781854128524,0.0,0.0,0.2,0.0,0.0,0.0,0.0,0.0,0.0,0.0,0.0,0.0,0.0,0.0,0.0
2.4051685333251953,9.8,-1.6884401612332156,-4.530028661933836,0.4303825840354755,0.0,0.0,0.2,0.0,0.0,0.0,0.0,0.0,0.0,0.0,0.0,0.0,0.0,0.0,0.0
2.416435718536377,9.8,-1.762275908331295,-4.4901553686142,0.4905085528248606,0.0,0.0,0.2,0.0,0.0,0.0,0.0,0.0,0.0,0.0,0.0,0.0,0.0,0.0,0.0
2.4278929233551025,9.8,-1.7688658311435643,-4.490734616789191,0.4756895245151069,0.0,0.0,0.2,0.0,0.0,0.0,0.0,0.0,0.0,0.0,0.0,0.0,0.0,0.0,0.0
2.439180850982666,9.8,-1.6934689580324804,-4.533741714383635,0.4072033375499115,0.0,0.0,0.2,0.0,0.0,0.0,0.0,0.0,0.0,0.0,0.0,0.0,0.0,0.0,0.0
2.450303792953491,9.8,-1.6969838494092027,-4.566636045836501,0.39816514736798125,0.0,0.0,0.2,0.0,0.0,0.0,0.0,0.0,0.0,0.0,0.0,0.0,0.0,0.0,0.0
2.462094783782959,9.8,-1.6915213554074093,-4.58196272052887,0.39274106769499934,0.0,0.0,0.2,0.0,0.0,0.0,0.0,0.0,0.0,0.0,0.0,0.0,0.0,0.0,0.0
2.4735429286956787,9.8,-1.6857232146372316,-4.595896032608411,0.3888000967165178,0.0,0.0,0.2,0.0,0.0,0.0,0.0,0.0,0.0,0.0,0.0,0.0,0.0,0.0,0.0
2.4846243858337402,9.8,-1.7437773054598364,-4.55299556011438,0.4543388597298902,0.0,0.0,0.2,0.0,0.0,0.0,0.0,0.0,0.0,0.0,0.0,0.0,0.0,0.0,0.0
2.4956960678100586,9.8,-1.7321061066265622,-4.558152720155091,0.4509013758072071,0.0,0.0,0.2,0.0,0.0,0.0,0.0,0.0,0.0,0.0,0.0,0.0,0.0,0.0,0.0
2.506821870803833,9.8,-1.644680540187154,-4.6044156681248385,0.3748970026725968,0.0,0.0,0.2,0.0,0.0,0.0,0.0,0.0,0.0,0.0,0.0,0.0,0.0,0.0,0.0
2.5180726051330566,9.8,-1.6349342780319025,-4.63480059231651,0.3715016591893588,0.0,0.0,0.2,0.0,0.0,0.0,0.0,0.0,0.0,0.0,0.0,0.0,0.0,0.0,0.0
2.529244899749756,9.8,-1.6256696207342727,-4.65583623559611,0.3657977259293095,0.0,0.0,0.2,0.0,0.0,0.0,0.0,0.0,0.0,0.0,0.0,0.0,0.0,0.0,0.0
2.540433645248413,9.8,-1.6184704001537589,-4.673645526750818,0.3603587514572713,0.0,0.0,0.2,0.0,0.0,0.0,0.0,0.0,0.0,0.0,0.0,0.0,0.0,0.0,0.0
2.551974296569824,9.8,-1.6058846388960926,-4.683290866519642,0.3528927788861608,0.0,0.0,0.2,0.0,0.0,0.0,0.0,0.0,0.0,0.0,0.0,0.0,0.0,0.0,0.0
2.56333589553833,9.8,-1.5998667284282546,-4.692651249664399,0.34543904665037495,0.0,0.0,0.2,0.0,0.0,0.0,0.0,0.0,0.0,0.0,0.0,0.0,0.0,0.0,0.0
2.5745110511779785,9.8,-1.5973782521988726,-4.700104786530699,0.3391205103376551,0.0,0.0,0.2,0.0,0.0,0.0,0.0,0.0,0.0,0.0,0.0,0.0,0.0,0.0,0.0
2.58598256111145,9.8,-1.5881845246096822,-4.697799191029192,0.331645636427843,0.0,0.0,0.2,0.0,0.0,0.0,0.0,0.0,0.0,0.0,0.0,0.0,0.0,0.0,0.0
2.597210645675659,9.8,-1.6552984305016922,-4.6598902399947875,0.3993867299224903,0.0,0.0,0.2,0.0,0.0,0.0,0.0,0.0,0.0,0.0,0.0,0.0,0.0,0.0,0.0
2.6083710193634033,9.8,-1.5748041676437456,-4.692410488786311,0.3270047210314711,0.0,0.0,0.2,0.0,0.0,0.0,0.0,0.0,0.0,0.0,0.0,0.0,0.0,0.0,0.0
2.6199424266815186,9.8,-1.5658078555587351,-4.678007434947817,0.3252813213083949,0.0,0.0,0.2,0.0,0.0,0.0,0.0,0.0,0.0,0.0,0.0,0.0,0.0,0.0,0.0
2.6310958862304688,9.8,-1.5647475039033067,-4.67874522633112,0.322386918101596,0.0,0.0,0.2,0.0,0.0,0.0,0.0,0.0,0.0,0.0,0.0,0.0,0.0,0.0,0.0
2.6423704624176025,9.8,-1.5610494515197422,-4.681425038656546,0.32207967698858236,0.0,0.0,0.2,0.0,0.0,0.0,0.0,0.0,0.0,0.0,0.0,0.0,0.0,0.0,0.0
2.654022693634033,9.8,-1.5625568170481854,-4.694051595804872,0.32258675716209295,0.0,0.0,0.2,0.0,0.0,0.0,0.0,0.0,0.0,0.0,0.0,0.0,0.0,0.0,0.0
2.665459394454956,9.8,-1.562099400343681,-4.710036302434782,0.31794696887989055,0.0,0.0,0.2,0.0,0.0,0.0,0.0,0.0,0.0,0.0,0.0,0.0,0.0,0.0,0.0
2.6767826080322266,9.8,-1.5603857606871585,-4.735119634709053,0.3060183672188679,0.0,0.0,0.2,0.0,0.0,0.0,0.0,0.0,0.0,0.0,0.0,0.0,0.0,0.0,0.0
2.6882100105285645,9.8,-1.5612935296006956,-4.750334108593063,0.3031236253327994,0.0,0.0,0.2,0.0,0.0,0.0,0.0,0.0,0.0,0.0,0.0,0.0,0.0,0.0,0.0
2.6994423866271973,9.8,-1.5615208781592163,-4.764788964677545,0.298003053200643,0.0,0.0,0.2,0.0,0.0,0.0,0.0,0.0,0.0,0.0,0.0,0.0,0.0,0.0,0.0
2.7109110355377197,9.8,-1.560974201191836,-4.779096102705446,0.29410609436938095,0.0,0.0,0.2,0.0,0.0,0.0,0.0,0.0,0.0,0.0,0.0,0.0,0.0,0.0,0.0
2.722177267074585,9.8,-1.562614313778118,-4.791256779028029,0.29378565675304785,0.0,0.0,0.2,0.0,0.0,0.0,0.0,0.0,0.0,0.0,0.0,0.0,0.0,0.0,0.0
2.733393907546997,9.8,-1.5662850720367156,-4.8009107756063205,0.2951801853666012,0.0,0.0,0.2,0.0,0.0,0.0,0.0,0.0,0.0,0.0,0.0,0.0,0.0,0.0,0.0
2.7447798252105713,9.8,-1.5722834083964496,-4.808999417676868,0.3028916396516658,0.0,0.0,0.2,0.0,0.0,0.0,0.0,0.0,0.0,0.0,0.0,0.0,0.0,0.0,0.0
2.7561726570129395,9.8,-1.5773847122920588,-4.819867522467756,0.30666177734040273,0.0,0.0,0.2,0.0,0.0,0.0,0.0,0.0,0.0,0.0,0.0,0.0,0.0,0.0,0.0
2.7674806118011475,9.8,-1.5847973473201618,-4.835627147325887,0.3120645019414795,0.0,0.0,0.2,0.0,0.0,0.0,0.0,0.0,0.0,0.0,0.0,0.0,0.0,0.0,0.0
2.778959035873413,9.8,-1.8100875969151726,-4.505832755581516,0.45735804544268516,0.0,0.0,0.2,0.0,0.0,0.0,0.0,0.0,0.0,0.0,0.0,0.0,0.0,0.0,0.0
2.790334463119507,9.8,-1.5954303149476798,-4.864907133339908,0.3150071151132964,0.0,0.0,0.2,0.0,0.0,0.0,0.0,0.0,0.0,0.0,0.0,0.0,0.0,0.0,0.0
2.8017542362213135,9.8,-1.6013111404195894,-4.878873043092275,0.31426327806554527,0.0,0.0,0.2,0.0,0.0,0.0,0.0,0.0,0.0,0.0,0.0,0.0,0.0,0.0,0.0
2.813178777694702,9.8,-1.6054129517745221,-4.886627981925513,0.3126473380871782,0.0,0.0,0.2,0.0,0.0,0.0,0.0,0.0,0.0,0.0,0.0,0.0,0.0,0.0,0.0
2.8245906829833984,9.8,-1.684727223764521,-4.85886961615751,0.3863945520474967,0.0,0.0,0.2,0.0,0.0,0.0,0.0,0.0,0.0,0.0,0.0,0.0,0.0,0.0,0.0
2.8359780311584473,9.8,-1.6219729471090611,-4.888325109440396,0.32558868688447223,0.0,0.0,0.2,0.0,0.0,0.0,0.0,0.0,0.0,0.0,0.0,0.0,0.0,0.0,0.0
2.8472979068756104,9.8,-1.706661884375678,-4.861117035223995,0.4079338359508885,0.0,0.0,0.2,0.0,0.0,0.0,0.0,0.0,0.0,0.0,0.0,0.0,0.0,0.0,0.0
2.85866379737854,9.8,-1.7165261821245246,-4.866765562425616,0.42160388365581886,0.0,0.0,0.2,0.0,0.0,0.0,0.0,0.0,0.0,0.0,0.0,0.0,0.0,0.0,0.0
2.870239019393921,9.8,-1.73566404188547,-4.873877197167096,0.4524901908954119,0.0,0.0,0.2,0.0,0.0,0.0,0.0,0.0,0.0,0.0,0.0,0.0,0.0,0.0,0.0
2.881462812423706,9.8,-1.7461803683808237,-4.887451248932522,0.4678598029612824,0.0,0.0,0.2,0.0,0.0,0.0,0.0,0.0,0.0,0.0,0.0,0.0,0.0,0.0,0.0
2.8929905891418457,9.8,-1.7637414112844807,-4.908838145860744,0.49597327135154395,0.0,0.0,0.2,0.0,0.0,0.0,0.0,0.0,0.0,0.0,0.0,0.0,0.0,0.0,0.0
2.9043850898742676,9.8,-1.7727311272383375,-4.9253987101403505,0.5072368418689102,0.0,0.0,0.2,0.0,0.0,0.0,0.0,0.0,0.0,0.0,0.0,0.0,0.0,0.0,0.0
2.9157819747924805,9.8,-1.7814358121001803,-4.9418360576742595,0.5159300768907696,0.0,0.0,0.2,0.0,0.0,0.0,0.0,0.0,0.0,0.0,0.0,0.0,0.0,0.0,0.0
2.926943063735962,9.8,-1.713163210255825,-4.999206131902056,0.44493860662235407,0.0,0.0,0.2,0.0,0.0,0.0,0.0,0.0,0.0,0.0,0.0,0.0,0.0,0.0,0.0
2.938297748565674,9.8,-1.661685588770007,-4.630113434903451,0.34539780266797987,0.0,0.0,0.2,0.0,0.0,0.0,0.0,0.0,0.0,0.0,0.0,0.0,0.0,0.0,0.0
2.949540376663208,9.8,-1.719787541168957,-5.043725236158255,0.437749920880759,0.0,0.0,0.2,0.0,0.0,0.0,0.0,0.0,0.0,0.0,0.0,0.0,0.0,0.0,0.0
2.960932970046997,9.8,-1.7258175201309336,-5.077679063847051,0.4305754941235454,0.0,0.0,0.2,0.0,0.0,0.0,0.0,0.0,0.0,0.0,0.0,0.0,0.0,0.0,0.0
2.9723703861236572,9.8,-1.7332503196651534,-5.095538367703585,0.4337698497058986,0.0,0.0,0.2,0.0,0.0,0.0,0.0,0.0,0.0,0.0,0.0,0.0,0.0,0.0,0.0
2.983821153640747,9.8,-1.747037802346574,-5.103050190737333,0.44572289796627707,0.0,0.0,0.2,0.0,0.0,0.0,0.0,0.0,0.0,0.0,0.0,0.0,0.0,0.0,0.0
2.9941632747650146,9.8,-1.7576017443968721,-5.1057426369646635,0.4536950534879252,0.0,0.0,0.2,0.0,0.0,0.0,0.0,0.0,0.0,0.0,0.0,0.0,0.0,0.0,0.0
3.0053863525390625,9.8,-1.7672461632874554,-5.108662646934102,0.46408021330849963,0.0,0.0,0.2,0.0,0.0,0.0,0.0,0.0,0.0,0.0,0.0,0.0,0.0,0.0,0.0
3.016587972640991,9.8,-1.7788656148888549,-5.112872229385749,0.4782079343366401,0.0,0.0,0.2,0.0,0.0,0.0,0.0,0.0,0.0,0.0,0.0,0.0,0.0,0.0,0.0
3.0280537605285645,9.8,-1.8035575905392136,-5.120404836720968,0.5069016301560602,0.0,0.0,0.2,0.0,0.0,0.0,0.0,0.0,0.0,0.0,0.0,0.0,0.0,0.0,0.0
3.0392794609069824,9.8,-1.8160497299883982,-5.128356793296699,0.5178881517718151,0.0,0.0,0.2,0.0,0.0,0.0,0.0,0.0,0.0,0.0,0.0,0.0,0.0,0.0,0.0
3.0506553649902344,9.8,-1.842717715244301,-5.1322114269891035,0.5380699660456179,0.0,0.0,0.2,0.0,0.0,0.0,0.0,0.0,0.0,0.0,0.0,0.0,0.0,0.0,0.0
3.062044143676758,9.8,-1.8569029675837179,-5.138710126967285,0.5465076275909865,0.0,0.0,0.2,0.0,0.0,0.0,0.0,0.0,0.0,0.0,0.0,0.0,0.0,0.0,0.0
3.0733044147491455,9.8,-1.946407885358652,-5.108745969408178,0.6231195885945963,0.0,0.0,0.2,0.0,0.0,0.0,0.0,0.0,0.0,0.0,0.0,0.0,0.0,0.0,0.0
3.0847840309143066,9.8,-1.9659429162780993,-5.112105717314578,0.6290313888243692,0.0,0.0,0.2,0.0,0.0,0.0,0.0,0.0,0.0,0.0,0.0,0.0,0.0,0.0,0.0
3.0961849689483643,9.8,-1.7256769301055064,-4.8104340158940175,0.35614533782368,0.0,0.0,0.2,0.0,0.0,0.0,0.0,0.0,0.0,0.0,0.0,0.0,0.0,0.0,0.0
3.1073622703552246,9.8,-1.9863192794390128,-5.130016263341729,0.6408329914371901,0.0,0.0,0.2,0.0,0.0,0.0,0.0,0.0,0.0,0.0,0.0,0.0,0.0,0.0,0.0
3.1186232566833496,9.8,-2.004594180372162,-5.149439905071789,0.6581929215124905,0.0,0.0,0.2,0.0,0.0,0.0,0.0,0.0,0.0,0.0,0.0,0.0,0.0,0.0,0.0
3.1300039291381836,9.8,-1.944208251032355,-5.216851464411201,0.5952766848649266,0.0,0.0,0.2,0.0,0.0,0.0,0.0,0.0,0.0,0.0,0.0,0.0,0.0,0.0,0.0
3.141522169113159,9.8,-1.9517154473281484,-5.236152248998847,0.6053100334212809,0.0,0.0,0.2,0.0,0.0,0.0,0.0,0.0,0.0,0.0,0.0,0.0,0.0,0.0,0.0
3.153043031692505,9.8,-1.963200974623943,-5.267260824394815,0.623536620688566,0.0,0.0,0.2,0.0,0.0,0.0,0.0,0.0,0.0,0.0,0.0,0.0,0.0,0.0,0.0
3.1643857955932617,9.8,-2.0380370516142103,-5.241221382464706,0.7039605933444982,0.0,0.0,0.2,0.0,0.0,0.0,0.0,0.0,0.0,0.0,0.0,0.0,0.0,0.0,0.0
3.175584554672241,9.8,-1.808649228492266,-4.94239031905855,0.4660055555803325,0.0,0.0,0.2,0.0,0.0,0.0,0.0,0.0,0.0,0.0,0.0,0.0,0.0,0.0,0.0
3.187469959259033,9.8,-2.0355553713707586,-5.297739272079103,0.7077912360561962,0.0,0.0,0.2,0.0,0.0,0.0,0.0,0.0,0.0,0.0,0.0,0.0,0.0,0.0,0.0
3.1989049911499023,9.8,-2.0341388265702802,-5.317186898027416,0.7094162547796135,0.0,0.0,0.2,0.0,0.0,0.0,0.0,0.0,0.0,0.0,0.0,0.0,0.0,0.0,0.0
3.210038900375366,9.8,-2.0204658906685498,-5.3432023209018205,0.7116785951215211,0.0,0.0,0.2,0.0,0.0,0.0,0.0,0.0,0.0,0.0,0.0,0.0,0.0,0.0,0.0
3.2214834690093994,9.8,-1.944570574569682,-5.403646441315828,0.6439942617464885,0.0,0.0,0.2,0.0,0.0,0.0,0.0,0.0,0.0,0.0,0.0,0.0,0.0,0.0,0.0
3.2329142093658447,9.8,-1.93620674287853,-5.415070860870389,0.6494110941482126,0.0,0.0,0.2,0.0,0.0,0.0,0.0,0.0,0.0,0.0,0.0,0.0,0.0,0.0,0.0
3.2442808151245117,9.8,-1.9059365004785889,-5.402781636439175,0.6598162117466432,0.0,0.0,0.2,0.0,0.0,0.0,0.0,0.0,0.0,0.0,0.0,0.0,0.0,0.0,0.0
3.2560019493103027,9.8,-1.89876653427148,-5.403691187655615,0.6691644693100466,0.0,0.0,0.2,0.0,0.0,0.0,0.0,0.0,0.0,0.0,0.0,0.0,0.0,0.0,0.0
3.2674872875213623,9.8,-1.9488400327932345,-5.347526050361003,0.7519262565978858,0.0,0.0,0.2,0.0,0.0,0.0,0.0,0.0,0.0,0.0,0.0,0.0,0.0,0.0,0.0
3.278651475906372,9.8,-1.9461985645303563,-5.359454501562988,0.7536700363446248,0.0,0.0,0.2,0.0,0.0,0.0,0.0,0.0,0.0,0.0,0.0,0.0,0.0,0.0,0.0
3.2898194789886475,9.8,-1.9428399943215224,-5.38012069344866,0.7513079195672242,0.0,0.0,0.2,0.0,0.0,0.0,0.0,0.0,0.0,0.0,0.0,0.0,0.0,0.0,0.0
3.3009824752807617,9.8,-1.868469176167007,-5.4829506991559915,0.6646837110846755,0.0,0.0,0.2,0.0,0.0,0.0,0.0,0.0,0.0,0.0,0.0,0.0,0.0,0.0,0.0
3.3123013973236084,9.8,-1.8701815232639438,-5.525164940214218,0.6583297167613194,0.0,0.0,0.2,0.0,0.0,0.0,0.0,0.0,0.0,0.0,0.0,0.0,0.0,0.0,0.0
3.323761463165283,9.8,-1.8721704135429091,-5.563433263801344,0.6532853181943821,0.0,0.0,0.2,0.0,0.0,0.0,0.0,0.0,0.0,0.0,0.0,0.0,0.0,0.0,0.0
3.3350484371185303,9.8,-1.8836640966101454,-5.621457214935678,0.6474133568221906,0.0,0.0,0.2,0.0,0.0,0.0,0.0,0.0,0.0,0.0,0.0,0.0,0.0,0.0,0.0
3.3463330268859863,9.8,-1.8913344820626667,-5.645117144099701,0.6475561372016304,0.0,0.0,0.2,0.0,0.0,0.0,0.0,0.0,0.0,0.0,0.0,0.0,0.0,0.0,0.0
3.357940673828125,9.8,-1.8990995093336305,-5.659512340466201,0.6505365825103374,0.0,0.0,0.2,0.0,0.0,0.0,0.0,0.0,0.0,0.0,0.0,0.0,0.0,0.0,0.0
3.3694822788238525,9.8,-1.9165283435057852,-5.66512803846427,0.6620235317557186,0.0,0.0,0.2,0.0,0.0,0.0,0.0,0.0,0.0,0.0,0.0,0.0,0.0,0.0,0.0
3.381070613861084,9.8,-1.9298428527779266,-5.672446594436588,0.6738461144864518,0.0,0.0,0.2,0.0,0.0,0.0,0.0,0.0,0.0,0.0,0.0,0.0,0.0,0.0,0.0
3.392226457595825,9.8,-1.9609467285683773,-5.68169708603731,0.7072756616000846,0.0,0.0,0.2,0.0,0.0,0.0,0.0,0.0,0.0,0.0,0.0,0.0,0.0,0.0,0.0
3.4027111530303955,9.8,-1.9710684413266597,-5.68970885341403,0.7227057368689676,0.0,0.0,0.2,0.0,0.0,0.0,0.0,0.0,0.0,0.0,0.0,0.0,0.0,0.0,0.0
3.4130499362945557,9.8,-1.9964780782145408,-5.709543449802959,0.7424335186320148,0.0,0.0,0.2,0.0,0.0,0.0,0.0,0.0,0.0,0.0,0.0,0.0,0.0,0.0,0.0
3.4233038425445557,9.8,-2.0136025833301487,-5.7273486335220225,0.7534711341425278,0.0,0.0,0.2,0.0,0.0,0.0,0.0,0.0,0.0,0.0,0.0,0.0,0.0,0.0,0.0
3.4335715770721436,9.8,-2.050877869844857,-5.751235386804701,0.7747434913516993,0.0,0.0,0.2,0.0,0.0,0.0,0.0,0.0,0.0,0.0,0.0,0.0,0.0,0.0,0.0
3.4438321590423584,9.8,-2.0681824228870034,-5.764754778609017,0.786547400834074,0.0,0.0,0.2,0.0,0.0,0.0,0.0,0.0,0.0,0.0,0.0,0.0,0.0,0.0,0.0
3.4540488719940186,9.8,-2.0828948972660806,-5.779630689597003,0.7921297172582961,0.0,0.0,0.2,0.0,0.0,0.0,0.0,0.0,0.0,0.0,0.0,0.0,0.0,0.0,0.0
3.4642605781555176,9.8,-2.0955729665659626,-5.792680506808753,0.796604205775949,0.0,0.0,0.2,0.0,0.0,0.0,0.0,0.0,0.0,0.0,0.0,0.0,0.0,0.0,0.0
3.4745984077453613,9.8,-2.0813266907534853,-5.7930369202566165,0.7835366416842794,0.0,0.0,0.2,0.0,0.0,0.0,0.0,0.0,0.0,0.0,0.0,0.0,0.0,0.0,0.0
3.484936237335205,9.8,-2.1039822999434032,-5.806678672609359,0.7898075813405919,0.0,0.0,0.2,0.0,0.0,0.0,0.0,0.0,0.0,0.0,0.0,0.0,0.0,0.0,0.0
3.4952595233917236,9.8,-2.1696374634376334,-5.771916525720506,0.8543310952733628,0.0,0.0,0.2,0.0,0.0,0.0,0.0,0.0,0.0,0.0,0.0,0.0,0.0,0.0,0.0
3.505505084991455,9.8,-2.1678591067105577,-5.771660882925013,0.848095698579888,0.0,0.0,0.2,0.0,0.0,0.0,0.0,0.0,0.0,0.0,0.0,0.0,0.0,0.0,0.0
3.515744209289551,9.8,-2.1638574732181,-5.765616061923101,0.8411412052752613,0.0,0.0,0.2,0.0,0.0,0.0,0.0,0.0,0.0,0.0,0.0,0.0,0.0,0.0,0.0
3.526059150695801,9.8,-2.150349217996776,-5.7396822310656805,0.825612420486481,0.0,0.0,0.2,0.0,0.0,0.0,0.0,0.0,0.0,0.0,0.0,0.0,0.0,0.0,0.0
3.536344289779663,9.8,-2.149590046639161,-5.737021033249658,0.8216772875451788,0.0,0.0,0.2,0.0,0.0,0.0,0.0,0.0,0.0,0.0,0.0,0.0,0.0,0.0,0.0
3.546649932861328,9.8,-2.1474981158687942,-5.736502270071145,0.8167600285636455,0.0,0.0,0.2,0.0,0.0,0.0,0.0,0.0,0.0,0.0,0.0,0.0,0.0,0.0,0.0
3.557039499282837,9.8,-2.0867996062587224,-5.5861886989919505,0.7475082083835798,0.0,0.0,0.2,0.0,0.0,0.0,0.0,0.0,0.0,0.0,0.0,0.0,0.0,0.0,0.0
3.567368507385254,9.8,-2.0861596370502573,-5.787351861381635,0.744839635209544,0.0,0.0,0.2,0.0,0.0,0.0,0.0,0.0,0.0,0.0,0.0,0.0,0.0,0.0,0.0
3.5776419639587402,9.8,-2.0930561752448185,-5.803429892610474,0.7471071927951379,0.0,0.0,0.2,0.0,0.0,0.0,0.0,0.0,0.0,0.0,0.0,0.0,0.0,0.0,0.0
3.5879549980163574,9.8,-2.1057963067656678,-5.82081880119973,0.7577021430835,0.0,0.0,0.2,0.0,0.0,0.0,0.0,0.0,0.0,0.0,0.0,0.0,0.0,0.0,0.0
3.5982017517089844,9.8,-2.11908432272268,-5.834457486956562,0.7683535036881117,0.0,0.0,0.2,0.0,0.0,0.0,0.0,0.0,0.0,0.0,0.0,0.0,0.0,0.0,0.0
3.6085071563720703,9.8,-2.1346580550498793,-5.844466910849375,0.7855446792951887,0.0,0.0,0.2,0.0,0.0,0.0,0.0,0.0,0.0,0.0,0.0,0.0,0.0,0.0,0.0
3.618978261947632,9.8,-2.142897077650779,-5.8519608400500935,0.7942756018828404,0.0,0.0,0.2,0.0,0.0,0.0,0.0,0.0,0.0,0.0,0.0,0.0,0.0,0.0,0.0
3.629345417022705,9.8,-2.085987316815997,-5.55466047243454,0.6990086381911628,0.0,0.0,0.2,0.0,0.0,0.0,0.0,0.0,0.0,0.0,0.0,0.0,0.0,0.0,0.0
3.639679431915283,9.8,-2.15408652789088,-5.859117365014694,0.8022192400565623,0.0,0.0,0.2,0.0,0.0,0.0,0.0,0.0,0.0,0.0,0.0,0.0,0.0,0.0,0.0
3.6500096321105957,9.8,-2.1616473216330063,-5.8651497801937325,0.807109804800284,0.0,0.0,0.2,0.0,0.0,0.0,0.0,0.0,0.0,0.0,0.0,0.0,0.0,0.0,0.0
3.6602864265441895,9.8,-2.154068844025877,-5.872829002757929,0.797430599752189,0.0,0.0,0.2,0.0,0.0,0.0,0.0,0.0,0.0,0.0,0.0,0.0,0.0,0.0,0.0
3.6706326007843018,9.8,-2.1825459118404655,-5.9155710792525955,0.8025205022913283,0.0,0.0,0.2,0.0,0.0,0.0,0.0,0.0,0.0,0.0,0.0,0.0,0.0,0.0,0.0
3.680999517440796,9.8,-2.2647770717930347,-5.914964982764901,0.8724307697294141,0.0,0.0,0.2,0.0,0.0,0.0,0.0,0.0,0.0,0.0,0.0,0.0,0.0,0.0,0.0
3.6912481784820557,9.8,-2.2791469106561637,-5.959638014629771,0.87483370070879,0.0,0.0,0.2,0.0,0.0,0.0,0.0,0.0,0.0,0.0,0.0,0.0,0.0,0.0,0.0
3.7015655040740967,9.8,-2.2185872248122482,-6.077712506559429,0.8114676148901286,0.0,0.0,0.2,0.0,0.0,0.0,0.0,0.0,0.0,0.0,0.0,0.0,0.0,0.0,0.0
3.7118375301361084,9.8,-2.2624984455442254,-6.161059150421712,0.8269629415625609,0.0,0.0,0.2,0.0,0.0,0.0,0.0,0.0,0.0,0.0,0.0,0.0,0.0,0.0,0.0
3.7221181392669678,9.8,-2.2820570034684,-6.209459165140982,0.8440544698935561,0.0,0.0,0.2,0.0,0.0,0.0,0.0,0.0,0.0,0.0,0.0,0.0,0.0,0.0,0.0
3.7323780059814453,9.8,-2.302398701593208,-6.250728488787788,0.8625221422275247,0.0,0.0,0.2,0.0,0.0,0.0,0.0,0.0,0.0,0.0,0.0,0.0,0.0,0.0,0.0
3.742704391479492,9.8,-2.3323152728641463,-6.314608945872884,0.8926525954901021,0.0,0.0,0.2,0.0,0.0,0.0,0.0,0.0,0.0,0.0,0.0,0.0,0.0,0.0,0.0
3.7530219554901123,9.8,-2.350671784026865,-6.343487808344058,0.9111669633024313,0.0,0.0,0.2,0.0,0.0,0.0,0.0,0.0,0.0,0.0,0.0,0.0,0.0,0.0,0.0
3.7633543014526367,9.8,-2.3695577581352754,-6.371189537356159,0.9310163280052977,0.0,0.0,0.2,0.0,0.0,0.0,0.0,0.0,0.0,0.0,0.0,0.0,0.0,0.0,0.0
3.7736265659332275,9.8,-2.3943034429092696,-6.393496973200552,0.9566600335723692,0.0,0.0,0.2,0.0,0.0,0.0,0.0,0.0,0.0,0.0,0.0,0.0,0.0,0.0,0.0
3.7839574813842773,9.8,-2.429873928116914,-6.422356526919301,0.9945054153124009,0.0,0.0,0.2,0.0,0.0,0.0,0.0,0.0,0.0,0.0,0.0,0.0,0.0,0.0,0.0
3.7942779064178467,9.8,-2.531872738492221,-6.381561373241225,1.1016222361649055,0.0,0.0,0.2,0.0,0.0,0.0,0.0,0.0,0.0,0.0,0.0,0.0,0.0,0.0,0.0
3.804600477218628,9.8,-2.4699738967059335,-6.422979473479642,1.0318435584803254,0.0,0.0,0.2,0.0,0.0,0.0,0.0,0.0,0.0,0.0,0.0,0.0,0.0,0.0,0.0
3.814905881881714,9.8,-2.567428905657595,-6.419782597878428,1.1306903589153077,0.0,0.0,0.2,0.0,0.0,0.0,0.0,0.0,0.0,0.0,0.0,0.0,0.0,0.0,0.0
3.825143814086914,9.8,-2.5890127112302572,-6.456745745294986,1.146506321469197,0.0,0.0,0.2,0.0,0.0,0.0,0.0,0.0,0.0,0.0,0.0,0.0,0.0,0.0,0.0
3.8355255126953125,9.8,-2.6142612049709846,-6.472220270978368,1.1608699182217594,0.0,0.0,0.2,0.0,0.0,0.0,0.0,0.0,0.0,0.0,0.0,0.0,0.0,0.0,0.0
3.8458635807037354,9.8,-2.6556319808521747,-6.528082358941128,1.1854357493428513,0.0,0.0,0.2,0.0,0.0,0.0,0.0,0.0,0.0,0.0,0.0,0.0,0.0,0.0,0.0
3.8562264442443848,9.8,-2.5905935448015187,-6.599712158596222,1.1082426556650555,0.0,0.0,0.2,0.0,0.0,0.0,0.0,0.0,0.0,0.0,0.0,0.0,0.0,0.0,0.0
3.8665409088134766,9.8,-2.5377110872600945,-6.297267384004512,1.0201479943305085,0.0,0.0,0.2,0.0,0.0,0.0,0.0,0.0,0.0,0.0,0.0,0.0,0.0,0.0,0.0
3.876981258392334,9.8,-2.6004935051547533,-6.6761659033881715,1.1025350077802645,0.0,0.0,0.2,0.0,0.0,0.0,0.0,0.0,0.0,0.0,0.0,0.0,0.0,0.0,0.0
3.8873653411865234,9.8,-2.6144737947572043,-6.705383971885665,1.108984256376616,0.0,0.0,0.2,0.0,0.0,0.0,0.0,0.0,0.0,0.0,0.0,0.0,0.0,0.0,0.0
3.897695541381836,9.8,-2.6310110039761008,-6.73117948790203,1.118781590832432,0.0,0.0,0.2,0.0,0.0,0.0,0.0,0.0,0.0,0.0,0.0,0.0,0.0,0.0,0.0
3.9079949855804443,9.8,-2.65084690927489,-6.754652599326334,1.131739346516337,0.0,0.0,0.2,0.0,0.0,0.0,0.0,0.0,0.0,0.0,0.0,0.0,0.0,0.0,0.0
3.918314218521118,9.8,-2.6855877689520544,-6.789315512462792,1.1552185313826577,0.0,0.0,0.2,0.0,0.0,0.0,0.0,0.0,0.0,0.0,0.0,0.0,0.0,0.0,0.0
3.928581476211548,9.8,-2.709274747441389,-6.795731664439376,1.1682181567988998,0.0,0.0,0.2,0.0,0.0,0.0,0.0,0.0,0.0,0.0,0.0,0.0,0.0,0.0,0.0
3.938965320587158,9.8,-2.7315378722502754,-6.796585912145096,1.1772563230721882,0.0,0.0,0.2,0.0,0.0,0.0,0.0,0.0,0.0,0.0,0.0,0.0,0.0,0.0,0.0
3.949239492416382,9.8,-2.7506180853379214,-6.826970774275372,1.1882841505501334,0.0,0.0,0.2,0.0,0.0,0.0,0.0,0.0,0.0,0.0,0.0,0.0,0.0,0.0,0.0
3.9596118927001953,9.8,-2.764635992314544,-6.8248198711308286,1.178800162822597,0.0,0.0,0.2,0.0,0.0,0.0,0.0,0.0,0.0,0.0,0.0,0.0,0.0,0.0,0.0
3.969968318939209,9.8,-2.7232090328824845,-6.589808707904803,1.0947874878555497,0.0,0.0,0.2,0.0,0.0,0.0,0.0,0.0,0.0,0.0,0.0,0.0,0.0,0.0,0.0
3.9802751541137695,9.8,-2.891147659645863,-6.941636695316038,1.2932960014273138,0.0,0.0,0.2,0.0,0.0,0.0,0.0,0.0,0.0,0.0,0.0,0.0,0.0,0.0,0.0
3.990614652633667,9.8,-2.8312426426332125,-6.895586185841155,1.2169675196434215,0.0,0.0,0.2,0.0,0.0,0.0,0.0,0.0,0.0,0.0,0.0,0.0,0.0,0.0,0.0
4.000993251800537,9.8,-2.877126619046919,-6.946250248700605,1.2564182179548467,0.0,0.0,0.2,0.0,0.0,0.0,0.0,0.0,0.0,0.0,0.0,0.0,0.0,0.0,0.0
4.011303186416626,9.8,-2.8928551929222888,-6.9853841630923785,1.2682091520134453,0.0,0.0,0.2,0.0,0.0,0.0,0.0,0.0,0.0,0.0,0.0,0.0,0.0,0.0,0.0
4.021557092666626,9.8,-2.9106421247566243,-7.008817061562184,1.2801972552759049,0.0,0.0,0.2,0.0,0.0,0.0,0.0,0.0,0.0,0.0,0.0,0.0,0.0,0.0,0.0
4.031851053237915,9.8,-3.0046161981116164,-7.107075270393125,1.3832998947291792,0.0,0.0,0.2,0.0,0.0,0.0,0.0,0.0,0.0,0.0,0.0,0.0,0.0,0.0,0.0
4.042173147201538,9.8,-3.0386113479841406,-7.140562404066519,1.4183368123638458,0.0,0.0,0.2,0.0,0.0,0.0,0.0,0.0,0.0,0.0,0.0,0.0,0.0,0.0,0.0
4.052538633346558,9.8,-3.0480482838773133,-7.151898560492056,1.4239595220096435,0.0,0.0,0.2,0.0,0.0,0.0,0.0,0.0,0.0,0.0,0.0,0.0,0.0,0.0,0.0
4.062838315963745,9.8,-2.960529474041108,-7.080406012206833,1.3166128661011982,0.0,0.0,0.2,0.0,0.0,0.0,0.0,0.0,0.0,0.0,0.0,0.0,0.0,0.0,0.0
4.073155403137207,9.8,-2.969219528522688,-7.100863856421336,1.3274548349008375,0.0,0.0,0.2,0.0,0.0,0.0,0.0,0.0,0.0,0.0,0.0,0.0,0.0,0.0,0.0
4.083403587341309,9.8,-2.97649077754154,-7.120496342298107,1.3394568694872158,0.0,0.0,0.2,0.0,0.0,0.0,0.0,0.0,0.0,0.0,0.0,0.0,0.0,0.0,0.0
4.093712329864502,9.8,-2.9781601920336014,-7.1402119910124435,1.3516029155314009,0.0,0.0,0.2,0.0,0.0,0.0,0.0,0.0,0.0,0.0,0.0,0.0,0.0,0.0,0.0
4.103998422622681,9.8,-2.9951408628862817,-7.173339958400771,1.3758863442356826,0.0,0.0,0.2,0.0,0.0,0.0,0.0,0.0,0.0,0.0,0.0,0.0,0.0,0.0,0.0
4.114248037338257,9.8,-2.990233848389316,-7.191378596812157,1.370932128027979,0.0,0.0,0.2,0.0,0.0,0.0,0.0,0.0,0.0,0.0,0.0,0.0,0.0,0.0,0.0
4.124531984329224,9.8,-3.0566056243933857,-7.286829210900756,1.4522296499210048,0.0,0.0,0.2,0.0,0.0,0.0,0.0,0.0,0.0,0.0,0.0,0.0,0.0,0.0,0.0
4.134850978851318,9.8,-3.032900228976354,-7.315311136728368,1.4309956116151221,0.0,0.0,0.2,0.0,0.0,0.0,0.0,0.0,0.0,0.0,0.0,0.0,0.0,0.0,0.0
4.145108699798584,9.8,-3.018546607558965,-7.347456687092366,1.417150546927221,0.0,0.0,0.2,0.0,0.0,0.0,0.0,0.0,0.0,0.0,0.0,0.0,0.0,0.0,0.0
4.155409097671509,9.8,-2.935602344089125,-7.317301831694574,1.3215734025381987,0.0,0.0,0.2,0.0,0.0,0.0,0.0,0.0,0.0,0.0,0.0,0.0,0.0,0.0,0.0
4.165724039077759,9.8,-2.920379186239628,-7.022994384522531,1.224671906039051,0.0,0.0,0.2,0.0,0.0,0.0,0.0,0.0,0.0,0.0,0.0,0.0,0.0,0.0,0.0
4.176004648208618,9.8,-2.9716047720092686,-7.400460610720288,1.3604767415052257,0.0,0.0,0.2,0.0,0.0,0.0,0.0,0.0,0.0,0.0,0.0,0.0,0.0,0.0,0.0
4.186249017715454,9.8,-2.963458154207771,-7.4186293176134965,1.349244710729069,0.0,0.0,0.2,0.0,0.0,0.0,0.0,0.0,0.0,0.0,0.0,0.0,0.0,0.0,0.0
4.1965906620025635,9.8,-2.957119690138957,-7.434701996147514,1.3395578251266658,0.0,0.0,0.2,0.0,0.0,0.0,0.0,0.0,0.0,0.0,0.0,0.0,0.0,0.0,0.0
4.206829309463501,9.8,-2.9460485628312276,-7.441896436013863,1.3237143648817498,0.0,0.0,0.2,0.0,0.0,0.0,0.0,0.0,0.0,0.0,0.0,0.0,0.0,0.0,0.0
4.217180490493774,9.8,-2.9421812945851262,-7.457957098085732,1.3180318845818038,0.0,0.0,0.2,0.0,0.0,0.0,0.0,0.0,0.0,0.0,0.0,0.0,0.0,0.0,0.0
4.227449417114258,9.8,-2.942365857538133,-7.4715158989471115,1.3141884589061106,0.0,0.0,0.2,0.0,0.0,0.0,0.0,0.0,0.0,0.0,0.0,0.0,0.0,0.0,0.0
4.237772703170776,9.8,-2.943457046592217,-7.483757752687127,1.3108841835231273,0.0,0.0,0.2,0.0,0.0,0.0,0.0,0.0,0.0,0.0,0.0,0.0,0.0,0.0,0.0
4.2480316162109375,9.8,-2.9358250408448856,-7.48734142362813,1.2959809910476927,0.0,0.0,0.2,0.0,0.0,0.0,0.0,0.0,0.0,0.0,0.0,0.0,0.0,0.0,0.0
4.258388042449951,9.8,-2.945181453335856,-7.503467122525205,1.3017456578968003,0.0,0.0,0.2,0.0,0.0,0.0,0.0,0.0,0.0,0.0,0.0,0.0,0.0,0.0,0.0
4.268675327301025,9.8,-2.8350530969473526,-7.176899769388768,1.106879493868088,0.0,0.0,0.2,0.0,0.0,0.0,0.0,0.0,0.0,0.0,0.0,0.0,0.0,0.0,0.0
4.27899956703186,9.8,-3.0056513597464116,-7.448878728763174,1.3574144423578347,0.0,0.0,0.2,0.0,0.0,0.0,0.0,0.0,0.0,0.0,0.0,0.0,0.0,0.0,0.0
4.28924036026001,9.8,-2.910534087574082,-7.513389194153855,1.2519780118203088,0.0,0.0,0.2,0.0,0.0,0.0,0.0,0.0,0.0,0.0,0.0,0.0,0.0,0.0,0.0
4.299589395523071,9.8,-2.919531650614605,-7.528817674002346,1.258538074474409,0.0,0.0,0.2,0.0,0.0,0.0,0.0,0.0,0.0,0.0,0.0,0.0,0.0,0.0,0.0
4.309868335723877,9.8,-2.9200596734349924,-7.503072437576589,1.2484807107364426,0.0,0.0,0.2,0.0,0.0,0.0,0.0,0.0,0.0,0.0,0.0,0.0,0.0,0.0,0.0
4.320200204849243,9.8,-2.925974204174331,-7.514920725616033,1.251323478619187,0.0,0.0,0.2,0.0,0.0,0.0,0.0,0.0,0.0,0.0,0.0,0.0,0.0,0.0,0.0
4.330538988113403,9.8,-2.933248184275637,-7.525426857453139,1.2550207827342696,0.0,0.0,0.2,0.0,0.0,0.0,0.0,0.0,0.0,0.0,0.0,0.0,0.0,0.0,0.0
4.340924263000488,9.8,-2.942260001024791,-7.556215649157881,1.2643601993010347,0.0,0.0,0.2,0.0,0.0,0.0,0.0,0.0,0.0,0.0,0.0,0.0,0.0,0.0,0.0
4.35127067565918,9.8,-2.9512015314839823,-7.592644366211559,1.2751971032990452,0.0,0.0,0.2,0.0,0.0,0.0,0.0,0.0,0.0,0.0,0.0,0.0,0.0,0.0,0.0
4.3615193367004395,9.8,-2.9542804238811984,-7.5793420793912825,1.2700432331723919,0.0,0.0,0.2,0.0,0.0,0.0,0.0,0.0,0.0,0.0,0.0,0.0,0.0,0.0,0.0
4.371811151504517,9.8,-2.955654490745634,-7.594439222241252,1.2683886347261495,0.0,0.0,0.2,0.0,0.0,0.0,0.0,0.0,0.0,0.0,0.0,0.0,0.0,0.0,0.0
4.382052183151245,9.8,-2.9519310774954888,-7.621682322758571,1.2627400230561936,0.0,0.0,0.2,0.0,0.0,0.0,0.0,0.0,0.0,0.0,0.0,0.0,0.0,0.0,0.0
4.3923256397247314,9.8,-2.9413134638898484,-7.613152808078147,1.2448071856429233,0.0,0.0,0.2,0.0,0.0,0.0,0.0,0.0,0.0,0.0,0.0,0.0,0.0,0.0,0.0
4.402634859085083,9.8,-2.937447807322266,-7.623816032677576,1.2368113427789367,0.0,0.0,0.2,0.0,0.0,0.0,0.0,0.0,0.0,0.0,0.0,0.0,0.0,0.0,0.0
4.4129638671875,9.8,-2.9314093298970456,-7.657460033967661,1.2313102348421912,0.0,0.0,0.2,0.0,0.0,0.0,0.0,0.0,0.0,0.0,0.0,0.0,0.0,0.0,0.0
4.42328405380249,9.8,-2.926689561506745,-7.655117451527972,1.2197718863229068,0.0,0.0,0.2,0.0,0.0,0.0,0.0,0.0,0.0,0.0,0.0,0.0,0.0,0.0,0.0
4.433560848236084,9.8,-2.912649315503708,-7.6585621203888845,1.202873021351828,0.0,0.0,0.2,0.0,0.0,0.0,0.0,0.0,0.0,0.0,0.0,0.0,0.0,0.0,0.0
4.443851709365845,9.8,-2.908100935086481,-7.678542057155545,1.1974289028038365,0.0,0.0,0.2,0.0,0.0,0.0,0.0,0.0,0.0,0.0,0.0,0.0,0.0,0.0,0.0
4.454187870025635,9.8,-2.90623021875832,-7.690114173065652,1.1934929451964942,0.0,0.0,0.2,0.0,0.0,0.0,0.0,0.0,0.0,0.0,0.0,0.0,0.0,0.0,0.0
4.46445631980896,9.8,-2.905542074607574,-7.701308844302889,1.190536577858332,0.0,0.0,0.2,0.0,0.0,0.0,0.0,0.0,0.0,0.0,0.0,0.0,0.0,0.0,0.0
4.474782228469849,9.8,-2.870946184614123,-7.40725253309859,1.0708890798820525,0.0,0.0,0.2,0.0,0.0,0.0,0.0,0.0,0.0,0.0,0.0,0.0,0.0,0.0,0.0
4.485144376754761,9.8,-2.8975328057798984,-7.7194996532917,1.1720839033656953,0.0,0.0,0.2,0.0,0.0,0.0,0.0,0.0,0.0,0.0,0.0,0.0,0.0,0.0,0.0
4.4955058097839355,9.8,-2.8952851193116387,-7.733062228107563,1.1650014663426496,0.0,0.0,0.2,0.0,0.0,0.0,0.0,0.0,0.0,0.0,0.0,0.0,0.0,0.0,0.0
4.5058207511901855,9.8,-2.893297051091459,-7.748901863743738,1.1581216175716613,0.0,0.0,0.2,0.0,0.0,0.0,0.0,0.0,0.0,0.0,0.0,0.0,0.0,0.0,0.0
4.516191720962524,9.8,-2.893843845780656,-7.747371291908628,1.1514163202786227,0.0,0.0,0.2,0.0,0.0,0.0,0.0,0.0,0.0,0.0,0.0,0.0,0.0,0.0,0.0
4.526544570922852,9.8,-2.8912890670385445,-7.7488419120113905,1.1424759642019182,0.0,0.0,0.2,0.0,0.0,0.0,0.0,0.0,0.0,0.0,0.0,0.0,0.0,0.0,0.0
4.536858081817627,9.8,-2.891423947078519,-7.764236777455032,1.1395425031910376,0.0,0.0,0.2,0.0,0.0,0.0,0.0,0.0,0.0,0.0,0.0,0.0,0.0,0.0,0.0
4.547178745269775,9.8,-2.8906957794219608,-7.764337240649633,1.1324751113190885,0.0,0.0,0.2,0.0,0.0,0.0,0.0,0.0,0.0,0.0,0.0,0.0,0.0,0.0,0.0
4.557449579238892,9.8,-2.889776858313223,-7.7764253529422795,1.127239173917587,0.0,0.0,0.2,0.0,0.0,0.0,0.0,0.0,0.0,0.0,0.0,0.0,0.0,0.0,0.0
4.567708730697632,9.8,-2.8827815256838134,-7.768721126099387,1.1097923654884334,0.0,0.0,0.2,0.0,0.0,0.0,0.0,0.0,0.0,0.0,0.0,0.0,0.0,0.0,0.0
4.578022241592407,9.8,-2.883903148108951,-7.77739871581107,1.10572702376325,0.0,0.0,0.2,0.0,0.0,0.0,0.0,0.0,0.0,0.0,0.0,0.0,0.0,0.0,0.0
4.588365316390991,9.8,-2.883752199219486,-7.7876116304635135,1.0996486858276258,0.0,0.0,0.2,0.0,0.0,0.0,0.0,0.0,0.0,0.0,0.0,0.0,0.0,0.0,0.0
4.598674297332764,9.8,-2.885655495776725,-7.800652792056993,1.095394372969584,0.0,0.0,0.2,0.0,0.0,0.0,0.0,0.0,0.0,0.0,0.0,0.0,0.0,0.0,0.0
4.609009504318237,9.8,-2.8818236602678926,-7.810895535386877,1.0847801977997762,0.0,0.0,0.2,0.0,0.0,0.0,0.0,0.0,0.0,0.0,0.0,0.0,0.0,0.0,0.0
4.619336843490601,9.8,-2.88314766104274,-7.813512437832973,1.0792245277092936,0.0,0.0,0.2,0.0,0.0,0.0,0.0,0.0,0.0,0.0,0.0,0.0,0.0,0.0,0.0
4.629646062850952,9.8,-2.8832489943874924,-7.837516505814216,1.0776227801412663,0.0,0.0,0.2,0.0,0.0,0.0,0.0,0.0,0.0,0.0,0.0,0.0,0.0,0.0,0.0
4.639927387237549,9.8,-2.8852424531341048,-7.849159438904828,1.076925289263365,0.0,0.0,0.2,0.0,0.0,0.0,0.0,0.0,0.0,0.0,0.0,0.0,0.0,0.0,0.0
4.650251865386963,9.8,-2.8884703532383775,-7.853392610637596,1.0797330006410117,0.0,0.0,0.2,0.0,0.0,0.0,0.0,0.0,0.0,0.0,0.0,0.0,0.0,0.0,0.0
4.6605353355407715,9.8,-2.8961244689471646,-7.8622301160153505,1.0868604949901723,0.0,0.0,0.2,0.0,0.0,0.0,0.0,0.0,0.0,0.0,0.0,0.0,0.0,0.0,0.0
