T,input Acc,input Wb1,input Wb2,input Wb3,Px,Py,Pz,Vx,Vy,Vz,Roll,Pitch,Yaw,R_rate,P_rate,Y_rate,Wb1,Wb2,Wb3
0,0.0,0.0,0.0,0.0,0.0,1.0,0.4,0.0,0.0,0.0,0.0,0.0,0.0,0.0,0.0,0.0,0.0,0.0,0.0
0.0008361339569091797,9.17338665690273,-0.034805780336887825,-0.023711898487711696,0.14963790947802755,0.0,1.0,0.4,-0.10432738065719604,0.09783080220222473,0.5866933284513652,-0.00897699657813213,-0.011133921796897402,0.0,0.0,0.0,0.0,0.0,0.0,0.0
0.007463693618774414,9.613535465043046,-0.2978047658688491,-0.0003685652409300061,0.0008280648679240773,0.0,1.0,0.4,-0.000578261566345273,1.4922281275599052,0.8074341725366008,-0.1486483944991146,-0.00016210535557460313,0.0,0.0,0.0,0.0,0.0,0.0,0.0
0.014032125473022461,9.60563659234538,-0.2851025068935308,-0.0018559782639893292,0.003956900883662,0.0,1.0,0.4,-0.0027633587495704904,1.4628611091535553,0.8078548255274386,-0.14194403027636837,-0.0008801030083508979,0.0,0.0,0.0,0.0,0.0,0.0,0.0
0.020482778549194336,9.571413402445556,-0.25166275589807685,-0.005157742272072431,0.009685847237356377,0.0,1.0,0.4,-0.006765024326095037,1.409079904184606,0.8044461455025376,-0.12474746122019904,-0.0024821515568798553,0.0,0.0,0.0,0.0,0.0,0.0,0.0
0.026914119720458984,9.501807697226422,-0.18915730228735234,-0.010433363302054214,0.017370510364610472,0.0,1.0,0.4,-0.012131798016702186,1.3369403679092386,0.7981288488512929,-0.09295403646122255,-0.005048464855769209,0.0,0.0,0.0,0.0,0.0,0.0,0.0
0.0336148738861084,9.392849719746756,-0.09368842803328746,-0.01736014616985213,0.026455382926500265,0.0,1.0,0.4,-0.018472062684083898,1.251699036657626,0.7897046462682006,-0.04466892841007717,-0.00841960693667661,0.0,0.0,0.0,0.0,0.0,0.0,0.0
0.040224313735961914,9.24584654430749,0.034025994554507055,-0.025237315854344404,0.03646244855715611,0.0,1.0,0.4,-0.025451485824759996,1.157855718375016,0.7798606741868764,0.019704735240733514,-0.012251649102736354,0.0,0.0,0.0,0.0,0.0,0.0,0.0
0.04680776596069336,9.06578745595571,0.19003350615392514,-0.03323030682402911,0.046988753179713,0.0,1.0,0.4,-0.032787424191503094,1.0592047670648603,0.7691801017545364,0.09815100941719351,-0.01613268048289154,0.0,0.0,0.0,0.0,0.0,0.0,0.0
0.05351400375366211,8.860010634263432,0.3682748949298138,-0.04054696839068389,0.05769857028654019,0.0,1.0,0.4,-0.04024621620999943,0.9588908057948229,0.7581470993105466,0.18761225150481164,-0.019673863873035383,0.0,0.0,0.0,0.0,0.0,0.0,0.0
0.060237884521484375,8.63712153528388,0.5615214169325414,-0.04656139788494218,0.06831270689509385,0.0,1.0,0.4,-0.047639270849240814,0.8594686107546906,0.7471548642307505,0.28445483998938464,-0.02256939356030839,0.0,0.0,0.0,0.0,0.0,0.0,0.0
0.06664204597473145,8.406148580756534,0.762126924952405,-0.05087770134200473,0.07861018796820281,0.0,1.0,0.4,-0.05481628125209248,0.7629646464815522,0.7365188042011682,0.3848389906207897,-0.02462488102371317,0.0,0.0,0.0,0.0,0.0,0.0,0.0
0.0735020637512207,8.175898505510506,0.9625861887492989,-0.053336988129442826,0.08841941849938553,0.0,1.0,0.4,-0.06166077174105065,0.6709369698016664,0.7264845936099403,0.4850025410033388,-0.02576151186104133,0.0,0.0,0.0,0.0,0.0,0.0,0.0
0.08072400093078613,7.95448922386874,1.1559520596286668,-0.053988893554150215,0.09761500829328115,0.0,1.0,0.4,-0.06808656315236551,0.5845343249478623,0.7172364529961097,0.5814690836895425,-0.026002295881141013,0.0,0.0,0.0,0.0,0.0,0.0,0.0
0.08739185333251953,7.749026982734627,1.3361237893076352,-0.05303403654433619,0.10611610007881332,0.0,1.0,0.4,-0.07403439996868066,0.5045523045297244,0.7089045225138801,0.6711910010275597,-0.025447352570084125,0.0,0.0,0.0,0.0,0.0,0.0,0.0
0.09386253356933594,7.565403694417081,1.4980220182045039,-0.05077144366671405,0.11387597459119547,0.0,1.0,0.4,-0.07946818415736437,0.43148536512899155,0.7015714875087424,0.7516376475773313,-0.02424791003389011,0.0,0.0,0.0,0.0,0.0,0.0,0.0
0.10062789916992188,7.408200315030851,1.6376780523038137,-0.04755392575083953,0.12087231933697487,0.0,1.0,0.4,-0.08437028631597715,0.36557596622774036,0.6952813577688406,0.8208385395277897,-0.022582077953243573,0.0,0.0,0.0,0.0,0.0,0.0,0.0
0.10718035697937012,7.280671255586269,1.7522544984682866,-0.043751701525375664,0.12709796457368475,0.0,1.0,0.4,-0.08873810183828673,0.3068594334531428,0.6900460925361963,0.877390732694962,-0.020634948342850387,0.0,0.0,0.0,0.0,0.0,0.0,0.0
0.11262631416320801,7.184796407983441,1.8400089032910392,-0.03971103556060349,0.1325670182365002,0.0,1.0,0.4,-0.09258103244540163,0.25520460240063314,0.6858526210701225,0.9204387221048443,-0.018577120270672015,0.0,0.0,0.0,0.0,0.0,0.0,0.0
0.11928558349609375,7.121377295652609,1.9002109246525705,-0.035722383535481565,0.13731362123109583,0.0,1.0,0.4,-0.0959183497688353,0.2103501289040156,0.6826676583780632,0.9496338889242303,-0.01655100682920306,0.0,0.0,0.0,0.0,0.0,0.0,0.0
0.12468194961547852,7.0901627980932975,1.9330298457474602,-0.03200624674970418,0.14138936520313639,0.0,1.0,0.4,-0.09877690410651357,0.17193652791903075,0.6804416271388143,0.9650799010135266,-0.014663602287800781,0.0,0.0,0.0,0.0,0.0,0.0,0.0
0.13001227378845215,7.089997684703185,1.939398106718292,-0.02872580307051809,0.14484997202248345,0.0,1.0,0.4,-0.10118819412697419,0.13953244372174028,0.6791141439088746,0.9672696349678072,-0.012989776652479204,0.0,0.0,0.0,0.0,0.0,0.0,0.0
0.1353287696838379,7.118976672714374,1.920902950098876,-0.026014382965300783,0.14772554845099206,0.0,1.0,0.4,-0.1031866766642426,0.11265804374693761,0.6786164357664196,0.9570179268074313,-0.011587189320213964,0.0,0.0,0.0,0.0,0.0,0.0,0.0
0.1407613754272461,7.174603362279234,1.8796813319454957,-0.02393252971939317,0.15004029099268915,0.0,1.0,0.4,-0.10480911120421368,0.09080775545903097,0.6788750487378261,0.9353935607139885,-0.010488463724843328,0.0,0.0,0.0,0.0,0.0,0.0,0.0
0.14613604545593262,7.2539456027698686,1.8182214305557658,-0.022439079583463015,0.15186169112166556,0.0,1.0,0.4,-0.106094363492891,0.07346595943471418,0.6798151006923253,0.9036533477224863,-0.009682124089755231,0.0,0.0,0.0,0.0,0.0,0.0,0.0
0.1515049934387207,7.353782615420074,1.739201538011055,-0.02142005529108672,0.15335277360463306,0.0,1.0,0.4,-0.1070783558822557,0.06012198638659738,0.6813625207288339,0.8631798014313381,-0.009098089847413476,0.0,0.0,0.0,0.0,0.0,0.0,0.0
0.1569070816040039,7.470737733536285,1.645460963926656,-0.020768492425541938,0.15467937608432977,0.0,1.0,0.4,-0.10779391655982638,0.05028009480292667,0.6834451856951326,0.8154239620296547,-0.008662341934503867,0.0,0.0,0.0,0.0,0.0,0.0,0.0
0.16229677200317383,7.601387575724257,1.539921364841288,-0.020463957693910722,0.15585861814048335,0.0,1.0,0.4,-0.10827708014948889,0.04346147381241339,0.6859916980030185,0.7618558290981269,-0.008364170297509105,0.0,0.0,0.0,0.0,0.0,0.0,0.0
0.16773271560668945,7.742356197748129,1.425462723822477,-0.020509296244563133,0.15683410723128408,0.0,1.0,0.4,-0.10856445188276209,0.03921248336025168,0.6889330594347829,0.7039227762922229,-0.00821491163059225,0.0,0.0,0.0,0.0,0.0,0.0,0.0
0.17305278778076172,7.890391941053128,1.3048999663229512,-0.02085618096277925,0.15756752333565938,0.0,1.0,0.4,-0.10869054450714802,0.03711340907263433,0.6922035702512115,0.6430144632884252,-0.008209068658233475,0.0,0.0,0.0,0.0,0.0,0.0,0.0
0.1784219741821289,8.04243992988611,1.1808728018652308,-0.021437106313284,0.15804415068937594,0.0,1.0,0.4,-0.10868728658579434,0.03678144736052408,0.6957444575516841,0.5804338697793712,-0.00832678090550671,0.0,0.0,0.0,0.0,0.0,0.0,0.0
0.18381214141845703,8.195709644323998,1.0557287948828222,-0.022217537831519783,0.15828932476024415,0.0,1.0,0.4,-0.10858076354755392,0.03787141677104694,0.6995072670905852,0.5173749817634177,-0.008534440971995759,0.0,0.0,0.0,0.0,0.0,0.0,0.0
0.18910431861877441,8.347712219871312,0.9315976312240409,-0.023169288279325025,0.15832972281885632,0.0,1.0,0.4,-0.10839274974019791,0.0400753661658374,0.7034483022824072,0.4549068757141707,-0.008800429084537036,0.0,0.0,0.0,0.0,0.0,0.0,0.0
0.19450902938842773,8.496275384115814,0.8103931806227144,-0.024236408677926986,0.1581679301801282,0.0,1.0,0.4,-0.10814401391852058,0.043121092099429936,0.7075258466211142,0.39396393738881774,-0.009101515994740725,0.0,0.0,0.0,0.0,0.0,0.0,0.0
0.19999098777770996,8.639550323238328,0.6937280444035565,-0.02537209853154647,0.15780030576106463,0.0,1.0,0.4,-0.10785300845054009,0.04677100786459509,0.7117033207535024,0.33534141536679946,-0.00941752127830538,0.0,0.0,0.0,0.0,0.0,0.0,0.0
0.20530128479003906,8.776007656095462,0.5829074273534637,-0.02653268327350691,0.15722062084971244,0.0,1.0,0.4,-0.10753463857017798,0.05082147483281657,0.7159488574860579,0.2796951251776693,-0.009730592761414636,0.0,0.0,0.0,0.0,0.0,0.0,0.0
0.21060967445373535,8.904425062054706,0.4789568229891283,-0.027655229317431,0.15643739249144156,0.0,1.0,0.4,-0.10720139762719677,0.055101481129218366,0.7202335691320481,0.22754466374057816,-0.010023347041098817,0.0,0.0,0.0,0.0,0.0,0.0,0.0
0.21597862243652344,9.023870765709436,0.38265839043416294,-0.02866122077474647,0.15551031068544463,0.0,1.0,0.4,-0.10686399244501892,0.05947180319446432,0.7245320972878371,0.17927935324695116,-0.01027784522916465,0.0,0.0,0.0,0.0,0.0,0.0,0.0
0.2212986946105957,9.133684896026612,0.2945167279204543,-0.02948682194568704,0.15454092692505514,0.0,1.0,0.4,-0.1065313981333242,0.06382153684726022,0.7288234351429452,0.1351664011305703,-0.010482044617669117,0.0,0.0,0.0,0.0,0.0,0.0,0.0
0.2265913486480713,9.23345208556946,0.214756956490138,-0.030094238651595925,0.153640013774407,0.0,1.0,0.4,-0.10621101272712141,0.0680647975341217,0.733088465966393,0.09536080431025294,-0.010634242595015653,0.0,0.0,0.0,0.0,0.0,0.0,0.0
0.2318735122680664,9.322981538447,0.14339533625553394,-0.03048322192327095,0.15289612047784876,0.0,1.0,0.4,-0.10590774347684531,0.07213615196606665,0.7373125500379771,0.05991692485541112,-0.010742144126947531,0.0,0.0,0.0,0.0,0.0,0.0,0.0
0.23716187477111816,9.40229879653939,0.08029298313102409,-0.030713652003541925,0.15232017339593065,0.0,1.0,0.4,-0.1056237242142576,0.07598405332908387,0.7414899588628721,0.02880145425422585,-0.010818910390000623,0.0,0.0,0.0,0.0,0.0,0.0,0.0
0.2425086498260498,9.471609926282088,0.02523165905553514,-0.030817280894499643,0.15186348430895213,0.0,1.0,0.4,-0.10536137912670333,0.07957069820308321,0.7456141390717042,0.001906885048600961,-0.010876000655268054,0.0,0.0,0.0,0.0,0.0,0.0,0.0
0.24790191650390625,9.5312597866685,-0.02211883692076483,-0.030770977732754674,0.15147326364554978,0.0,1.0,0.4,-0.10512285290587628,0.08287275053046239,0.7496751682404755,-0.020935491727085614,-0.010920356348539028,0.0,0.0,0.0,0.0,0.0,0.0,0.0
0.2532515525817871,9.581711145293356,-0.06222168039955392,-0.030594577885201004,0.15111277701372727,0.0,1.0,0.4,-0.10490823071551225,0.08587944097831579,0.7536687972700366,-0.039943703787626364,-0.01095560623669177,0.0,0.0,0.0,0.0,0.0,0.0,0.0
0.25867652893066406,9.623528341658316,-0.09560136917010914,-0.030349489466144217,0.15076661514332215,0.0,1.0,0.4,-0.10471734384216978,0.08858769779519438,0.7575964826144986,-0.055373633274227604,-0.010983899293018302,0.0,0.0,0.0,0.0,0.0,0.0,0.0
0.26413559913635254,9.657349190345645,-0.12277404066296006,-0.030049549029452026,0.15043656177659492,0.0,1.0,0.4,-0.10454888158087204,0.09100060674746424,0.7614580026345351,-0.06750832770410226,-0.011006959776294603,0.0,0.0,0.0,0.0,0.0,0.0,0.0
0.2694664001464844,9.683853925160037,-0.14422383333537492,-0.029662591184059305,0.15014035226796876,0.0,1.0,0.4,-0.10440016343072007,0.09312903547337437,0.7652507034711497,-0.07664866104925076,-0.01102662450597915,0.0,0.0,0.0,0.0,0.0,0.0,0.0
0.2748887538909912,9.703746467329927,-0.16044512289415422,-0.029153942613067595,0.14989078984483326,0.0,1.0,0.4,-0.10426891110217919,0.09498689582468534,0.7689745845776642,-0.08310475181077222,-0.01104425343492976,0.0,0.0,0.0,0.0,0.0,0.0,0.0
0.2804286479949951,9.717739035962747,-0.17191421520028335,-0.028513433029191747,0.14968758082251435,0.0,1.0,0.4,-0.10415250505866824,0.09658960908707676,0.7726315773641902,-0.08718837772381385,-0.01106009962960082,0.0,0.0,0.0,0.0,0.0,0.0,0.0
0.2857542037963867,9.72653967013634,-0.17906898977963984,-0.0277545158522231,0.14951259720837887,0.0,1.0,0.4,-0.1040477965098818,0.09795516415506578,0.7762238715654045,-0.08920658661372598,-0.011072957237960366,0.0,0.0,0.0,0.0,0.0,0.0,0.0
0.2911105155944824,9.730848439197212,-0.1823616156416464,-0.026889895790462633,0.14933470841990118,0.0,1.0,0.4,-0.10395210849578126,0.09910262397048164,0.7797564772768243,-0.08945634001910303,-0.01108050846987511,0.0,0.0,0.0,0.0,0.0,0.0,0.0
0.2965726852416992,9.731355020536542,-0.1822658217111447,-0.02593127260306088,0.14913007459749653,0.0,1.0,0.4,-0.10386365480881893,0.10005071338555876,0.7832374341048844,-0.08822008084076154,-0.011080649623252446,0.0,0.0,0.0,0.0,0.0,0.0,0.0
0.30193662643432617,9.728718242722726,-0.17921332608218576,-0.024869501193541595,0.14886377322538005,0.0,1.0,0.4,-0.10378053072224608,0.10081749465444817,0.786670792446771,-0.08576243040738306,-0.011071027277817447,0.0,0.0,0.0,0.0,0.0,0.0,0.0
0.3073282241821289,9.723539866293867,-0.17355929847075743,-0.023681790093075313,0.1484933554147333,0.0,1.0,0.4,-0.10370030166830907,0.10142148850846561,0.7900545761964823,-0.08232791749542817,-0.011049364682863019,0.0,0.0,0.0,0.0,0.0,0.0,0.0
0.31270837783813477,9.716361263273917,-0.16565793981813987,-0.022389749337456796,0.14801004163379516,0.0,1.0,0.4,-0.10362151866501965,0.10188205430036246,0.7933890234228985,-0.07813951625396456,-0.011015282129894648,0.0,0.0,0.0,0.0,0.0,0.0,0.0
0.3180367946624756,9.707657326327038,-0.15587706920849737,-0.021024275634304708,0.14742166752210767,0.0,1.0,0.4,-0.10354402396575708,0.10221925460799208,0.7966741108485582,-0.07339828983648052,-0.010969620219540227,0.0,0.0,0.0,0.0,0.0,0.0,0.0
0.32341837882995605,9.69782812457681,-0.1445884025171937,-0.01956739687476633,0.1467354965883853,0.0,1.0,0.4,-0.10346851083051256,0.10245213254884672,0.7999055138870788,-0.06828331966433199,-0.010913876597799025,0.0,0.0,0.0,0.0,0.0,0.0,0.0
0.3288002014160156,9.687214114944016,-0.13219008778657532,-0.01801608263772104,0.14596881233472148,0.0,1.0,0.4,-0.10339517934253831,0.10259785139995248,0.8030828491468154,-0.06295175950351581,-0.010850316171665441,0.0,0.0,0.0,0.0,0.0,0.0,0.0
0.3342714309692383,9.676097307013974,-0.1190354355232862,-0.016410449502459623,0.14511606893160828,0.0,1.0,0.4,-0.10332269619035343,0.10267215187864659,0.8062054652847883,-0.05753949149122361,-0.010780464983852675,0.0,0.0,0.0,0.0,0.0,0.0,0.0
0.3396294116973877,9.66470138980375,-0.10542202385274829,-0.014791842708314261,0.1441551627266514,0.0,1.0,0.4,-0.10324944150245607,0.10268960715304831,0.8092696655450584,-0.052161945104443795,-0.010705313241920287,0.0,0.0,0.0,0.0,0.0,0.0,0.0
0.34501051902770996,9.653218419030063,-0.09166039629163904,-0.013207279723941864,0.1430823763484137,0.0,1.0,0.4,-0.10317435242711201,0.1026630496419339,0.8122789405744197,-0.04691499531338582,-0.010626239347357277,0.0,0.0,0.0,0.0,0.0,0.0,0.0
0.3503692150115967,9.64182493898079,-0.07803908552046551,-0.011713434343240108,0.1419051618583374,0.0,1.0,0.4,-0.10309675508784868,0.10260348657649604,0.8152409503778858,-0.041876253248914995,-0.010544668558375093,0.0,0.0,0.0,0.0,0.0,0.0,0.0
0.35573840141296387,9.630668975499589,-0.0648129208229743,-0.01036914355978313,0.14064262472091926,0.0,1.0,0.4,-0.10301655812039599,0.1025225833424433,0.81815598303511,-0.03710684320701263,-0.010462098264791459,0.0,0.0,0.0,0.0,0.0,0.0,0.0
0.3611137866973877,9.619852584800508,-0.05226610712827294,-0.009207990924774435,0.13932390374736045,0.0,1.0,0.4,-0.10293458608993258,0.10243091740465282,0.8210179168036247,-0.03265305881896218,-0.010380119812813065,0.0,0.0,0.0,0.0,0.0,0.0,0.0
0.3664834499359131,9.609437704400893,-0.04064090470135962,-0.00820570504181925,0.1379673264756206,0.0,1.0,0.4,-0.10285192036831675,0.10233563039500115,0.8238242500712551,-0.028547775864820844,-0.01030009516113628,0.0,0.0,0.0,0.0,0.0,0.0,0.0
0.37186169624328613,9.599460436997113,-0.030052181710518835,-0.007323486519859523,0.1365815485142585,0.0,1.0,0.4,-0.10276954389002507,0.10224231548157098,0.8265765333425994,-0.024811831751615977,-0.010223263088542553,0.0,0.0,0.0,0.0,0.0,0.0,0.0
0.37717437744140625,9.589923271936634,-0.02049973747273104,-0.006562211483185869,0.13516850145787662,0.0,1.0,0.4,-0.10268867408889037,0.10215663694776761,0.8292702955677034,-0.021455622709624526,-0.010150845181755554,0.0,0.0,0.0,0.0,0.0,0.0,0.0
0.3825571537017822,9.580788624695,-0.011938679434728573,-0.0059463727093173185,0.13372121764919087,0.0,1.0,0.4,-0.10260984179149876,0.10208363492425304,0.8318966288513169,-0.018480773517267627,-0.010083921738508115,0.0,0.0,0.0,0.0,0.0,0.0,0.0
0.3879551887512207,9.572006488438554,-0.004334957971587909,-0.005494013316952155,0.13224843738857162,0.0,1.0,0.4,-0.10253208853494285,0.10202544205638275,0.8344557917283542,-0.015881222860916804,-0.010023356050264236,0.0,0.0,0.0,0.0,0.0,0.0,0.0
0.393324613571167,9.56350897126555,0.0023796122952344763,-0.0052111286412466675,0.13077386178043754,0.0,1.0,0.4,-0.10245306525703757,0.10198322722840164,0.8369448745743201,-0.013644497782227512,-0.009969332021923885,0.0,0.0,0.0,0.0,0.0,0.0,0.0
0.39869022369384766,9.555194247018438,0.008296006362634514,-0.005086878263294181,0.1293196406582813,0.0,1.0,0.4,-0.10237013531774697,0.10195840923555766,0.8393515382258003,-0.011753115303152624,-0.009921078521393201,0.0,0.0,0.0,0.0,0.0,0.0,0.0
0.4040517807006836,9.546964812315446,0.01345622325363532,-0.005117486657107371,0.12790530222049745,0.0,1.0,0.4,-0.10228254407873749,0.10194988516470699,0.8416759655729851,-0.010185469758801765,-0.009877269322672425,0.0,0.0,0.0,0.0,0.0,0.0,0.0
0.40940213203430176,9.538727488025565,0.017887123938746044,-0.005301387415601135,0.12652767459161027,0.0,1.0,0.4,-0.10219033469087323,0.1019560359081807,0.8439187811744725,-0.008916970100548241,-0.009836336648737695,0.0,0.0,0.0,0.0,0.0,0.0,0.0
0.41477537155151367,9.530370718244358,0.02169274436050639,-0.005594428733863003,0.12516070406998817,0.0,1.0,0.4,-0.10209234189653862,0.10197648436741824,0.8460683389578274,-0.007921190893401115,-0.009796597529027699,0.0,0.0,0.0,0.0,0.0,0.0,0.0
0.4201531410217285,9.522427741177125,0.025043087567161,-0.006125413424095761,0.12372159601587358,0.0,1.0,0.4,-0.10200075095106788,0.10199177195728176,0.8483271986172556,-0.007167603839049712,-0.00975830706159423,0.0,0.0,0.0,0.0,0.0,0.0,0.0
0.42551279067993164,9.515949538691114,0.028055521771304194,-0.006977528802348998,0.12215507390724324,0.0,1.0,0.4,-0.10192603695361938,0.10198454055580963,0.8508624883023304,-0.0066218147065468195,-0.009724064653541259,0.0,0.0,0.0,0.0,0.0,0.0,0.0
0.4309060573577881,9.51116740394402,0.030772800838534804,-0.007798409566553663,0.12054168124766053,0.0,1.0,0.4,-0.10184893711740005,0.10197715388150008,0.8533805408812634,-0.006252413131806065,-0.009694647505679194,0.0,0.0,0.0,0.0,0.0,0.0,0.0
0.4362783432006836,9.507465958373286,0.03317918551132647,-0.008290470608242253,0.11892300864665391,0.0,1.0,0.4,-0.10175289067258003,0.10198707582227973,0.8556347063650644,-0.006033930227709575,-0.009667219940078181,0.0,0.0,0.0,0.0,0.0,0.0,0.0
0.4416065216064453,9.503903668924071,0.03523462840739354,-0.008412627275857636,0.11727028230685929,0.0,1.0,0.4,-0.10164039216434581,0.10200917171948032,0.8576439708318888,-0.005945025895309272,-0.009637233871785575,0.0,0.0,0.0,0.0,0.0,0.0,0.0
0.44688987731933594,9.499511071417945,0.036986439612667926,-0.00818778170669323,0.11559624980278979,0.0,1.0,0.4,-0.1015139357439849,0.10204235279748286,0.8594255953717701,-0.0059663706562158554,-0.009600598533573843,0.0,0.0,0.0,0.0,0.0,0.0,0.0
0.4522514343261719,9.493587361580841,0.03850958097997886,-0.007692199770628873,0.11392260366431456,0.0,1.0,0.4,-0.10137295693312719,0.1020869756774691,0.8609890673160809,-0.006079593415166978,-0.009554417580858256,0.0,0.0,0.0,0.0,0.0,0.0,0.0
0.45757436752319336,9.485702498069134,0.03979814523912326,-0.00697661501027455,0.1122694838060028,0.0,1.0,0.4,-0.10121806380296416,0.10214106079989693,0.8623589338709933,-0.0062675345209774296,-0.009496795096142862,0.0,0.0,0.0,0.0,0.0,0.0,0.0
0.4629857540130615,9.475680406919738,0.04080625688291659,-0.006038753051973526,0.11064607450178435,0.0,1.0,0.4,-0.10105240277795738,0.10220289788244874,0.8635682772115846,-0.006514406347614644,-0.009426952532665511,0.0,0.0,0.0,0.0,0.0,0.0,0.0
0.4683501720428467,9.463514422277884,0.04149866850428667,-0.0048998414045913746,0.10903760128474226,0.0,1.0,0.4,-0.1008771633215696,0.10227166897282863,0.8646307044990945,-0.006805940723274411,-0.009344899767470759,0.0,0.0,0.0,0.0,0.0,0.0,0.0
0.4736356735229492,9.449282736713622,0.04184722290098585,-0.0036386862966805225,0.10742953015020933,0.0,1.0,0.4,-0.10069124537571927,0.10234561087588123,0.8655441876637363,-0.007129242752988579,-0.009250987810631224,0.0,0.0,0.0,0.0,0.0,0.0,0.0
0.47904205322265625,9.43314893711585,0.04184262651832448,-0.002325709372347811,0.10582413190611817,0.0,1.0,0.4,-0.10049544559590737,0.10242179355990993,0.8663229964669898,-0.00747252351029365,-0.009145907605300298,0.0,0.0,0.0,0.0,0.0,0.0,0.0
0.4844241142272949,9.415344359033538,0.04150157442932494,-0.0009966220045871212,0.10423552315814204,0.0,1.0,0.4,-0.10029102125946687,0.1024989909790564,0.8669846128686929,-0.007825292221224092,-0.00903066141673178,0.0,0.0,0.0,0.0,0.0,0.0,0.0
0.48973608016967773,9.396122745482087,0.04087573083690714,0.00031196042807896877,0.10267245145666973,0.0,1.0,0.4,-0.10007853275266848,0.102577919390758,0.8675313474521771,-0.008178760269266602,-0.008906502632202494,0.0,0.0,0.0,0.0,0.0,0.0,0.0
0.495147705078125,9.375771420264543,0.040063102392636336,0.0015173140135958522,0.10113773689131453,0.0,1.0,0.4,-0.099860377445778,0.10265950053313422,0.8679742554510114,-0.008525982045312222,-0.00877517148631887,0.0,0.0,0.0,0.0,0.0,0.0,0.0
0.5005731582641602,9.354620608865456,0.039112390431157724,0.0025477376879640317,0.0996285221754942,0.0,1.0,0.4,-0.09963959135469998,0.10274382846971852,0.8683352207274839,-0.008861654546493791,-0.008638938011522455,0.0,0.0,0.0,0.0,0.0,0.0,0.0
0.5059003829956055,9.333002133130629,0.037998126562572794,0.0034056977989821036,0.09815217772011323,0.0,1.0,0.4,-0.09941694372779232,0.10282924809468452,0.8686225135848407,-0.009181513323679726,-0.008500280816660547,0.0,0.0,0.0,0.0,0.0,0.0,0.0
0.5112276077270508,9.311204544448282,0.03673364057421776,0.004108180654178165,0.09673222092692213,0.0,1.0,0.4,-0.09919133516352363,0.1029140222652341,0.8688312336715549,-0.009482013211722881,-0.008361397800235204,0.0,0.0,0.0,0.0,0.0,0.0,0.0
0.5166277885437012,9.289474469523796,0.03542789424658611,0.004641467138702335,0.09536216799122056,0.0,1.0,0.4,-0.0989645313348244,0.10299638368376351,0.8689637362308816,-0.009760289985046352,-0.008224211962671155,0.0,0.0,0.0,0.0,0.0,0.0,0.0
0.5219302177429199,9.267998252097419,0.03415567972702116,0.004951575724809327,0.09401252114328408,0.0,1.0,0.4,-0.0987392583593828,0.10307468316311241,0.869018769819201,-0.010014073310378534,-0.008090598232341015,0.0,0.0,0.0,0.0,0.0,0.0,0.0
0.5272409915924072,9.246905288510192,0.03286954056368227,0.004977686737394543,0.09269066344336062,0.0,1.0,0.4,-0.09851326953599226,0.10314840814942777,0.8689917593594393,-0.01024162100760751,-0.007962047636832784,0.0,0.0,0.0,0.0,0.0,0.0,0.0
0.5325992107391357,9.226323643290598,0.031561349088236636,0.004734995685975832,0.09142152689019165,0.0,1.0,0.4,-0.09828341798284733,0.10321767331040527,0.8688953122730089,-0.010441924291726893,-0.007839245072438257,0.0,0.0,0.0,0.0,0.0,0.0,0.0
0.5379581451416016,9.206396815418753,0.030277743832811326,0.0042599624036999025,0.09018650828704185,0.0,1.0,0.4,-0.09805054066987086,0.10328220848193381,0.8687459464444488,-0.010614854554702489,-0.007722178786014948,0.0,0.0,0.0,0.0,0.0,0.0,0.0
0.5432727336883545,9.187224718935065,0.029050764694430607,0.0035853345612065664,0.08892453154405036,0.0,1.0,0.4,-0.09781737883930128,0.103340120158956,0.8685361558482922,-0.010760721914228099,-0.0076107444080966286,0.0,0.0,0.0,0.0,0.0,0.0,0.0
0.5486643314361572,9.168823084430178,0.027941193374565736,0.0027876051825289237,0.08758945423567038,0.0,1.0,0.4,-0.09758344069991913,0.10339015334002905,0.8682467259115871,-0.010879967191712926,-0.007504878504995132,0.0,0.0,0.0,0.0,0.0,0.0,0.0
0.5540528297424316,9.151176911403073,0.026968972609202592,0.001925834381127029,0.08618197856251229,0.0,1.0,0.4,-0.09734624450704385,0.10343256296077924,0.867881423523087,-0.01097320322413814,-0.007404331282871048,0.0,0.0,0.0,0.0,0.0,0.0,0.0
0.5595278739929199,9.13428728030333,0.02608337881770923,0.001055267163953941,0.08471792573518414,0.0,1.0,0.4,-0.09710785003578137,0.1034676701617454,0.8674565831035559,-0.011041402029114813,-0.007309014119208481,0.0,0.0,0.0,0.0,0.0,0.0,0.0
0.5648446083068848,9.118145949154252,0.02522371590610019,0.0002488080458712431,0.08322533172758045,0.0,1.0,0.4,-0.09686953706616669,0.10349665320825718,0.8669705682476316,-0.011086068870589208,-0.0072190128149496645,0.0,0.0,0.0,0.0,0.0,0.0,0.0
0.5701525211334229,9.102700468713733,0.024357394447569593,-0.0004466699124725187,0.08173826837883456,0.0,1.0,0.4,-0.09662682882105694,0.103521920025887,0.8664089632363251,-0.011109424896307203,-0.007133829148768466,0.0,0.0,0.0,0.0,0.0,0.0,0.0
0.5755164623260498,9.087888189986668,0.023516587786769176,-0.0010083521778931094,0.08026158584759102,0.0,1.0,0.4,-0.09637814191237473,0.10354542478627038,0.8657741701260864,-0.01111440314758336,-0.0070523676439218546,0.0,0.0,0.0,0.0,0.0,0.0,0.0
0.5808253288269043,9.07363122062955,0.022710792933262402,-0.0014506389217369586,0.07877919294280983,0.0,1.0,0.4,-0.09612421235298374,0.10356722879095714,0.8650670444763053,-0.01110415473465244,-0.006973248886929311,0.0,0.0,0.0,0.0,0.0,0.0,0.0
0.5861268043518066,9.059814408468181,0.021906556572137026,-0.0017878963178997258,0.07728466543124603,0.0,1.0,0.4,-0.0958616967632651,0.10358727363926334,0.8642741055595364,-0.01108167214069358,-0.006894696141585305,0.0,0.0,0.0,0.0,0.0,0.0,0.0
0.5914831161499023,9.046351813959646,0.021128081453146867,-0.0020185588992363856,0.07579042327838285,0.0,1.0,0.4,-0.09558885036799475,0.1036065496186695,0.8634035931963115,-0.01104974406110057,-0.0068148811334821065,0.0,0.0,0.0,0.0,0.0,0.0,0.0
0.5967936515808105,9.03322607028295,0.020402635049746685,-0.002146595405345802,0.0743187738462504,0.0,1.0,0.4,-0.09530905563239515,0.10362580336913763,0.8624784230353824,-0.011010948651913105,-0.006732640705874914,0.0,0.0,0.0,0.0,0.0,0.0,0.0
0.6020703315734863,9.02044046396497,0.019703463360394007,-0.0021430179107432986,0.0728985257472501,0.0,1.0,0.4,-0.09502369871868878,0.10364468628430978,0.8614995117774712,-0.010967512985576414,-0.006647483352386425,0.0,0.0,0.0,0.0,0.0,0.0,0.0
0.6074538230895996,9.007974084761571,0.019018701208295453,-0.001979114788018004,0.07153773989794815,0.0,1.0,0.4,-0.0947311074098527,0.10366198685283023,0.8604538320526751,-0.010921187510992617,-0.006559033716733566,0.0,0.0,0.0,0.0,0.0,0.0,0.0
0.6127464771270752,8.995821577864966,0.018389850709392832,-0.0017023732279297466,0.07020137666491384,0.0,1.0,0.4,-0.09443278726320337,0.1036756559618584,0.8593502023279151,-0.010873090212110198,-0.00646706152647092,0.0,0.0,0.0,0.0,0.0,0.0,0.0
0.6180517673492432,8.98398045779965,0.017848741636969315,-0.0013812539750977018,0.06887681186802423,0.0,1.0,0.4,-0.09412919427408345,0.10368417630252641,0.858194866133221,-0.010823595259045297,-0.006371576404234554,0.0,0.0,0.0,0.0,0.0,0.0,0.0
0.6233534812927246,8.972421342719807,0.017406731186074012,-0.0010518323007879245,0.06760566486364589,0.0,1.0,0.4,-0.09381713251121207,0.10368879293191852,0.8569773137581995,-0.010772830507972305,-0.006272518835858143,0.0,0.0,0.0,0.0,0.0,0.0,0.0
0.6287498474121094,8.961154349080859,0.017090315643291578,-0.0007888637056139939,0.06638644994667683,0.0,1.0,0.4,-0.09349714634691729,0.1036914081047623,0.855710844868357,-0.010721331969119506,-0.006169639762406437,0.0,0.0,0.0,0.0,0.0,0.0,0.0
0.634040117263794,8.950256040447893,0.016913442697731117,-0.0006670851278626277,0.06515882453039779,0.0,1.0,0.4,-0.09317429853562202,0.10369130550102745,0.8544211965071127,-0.010669788531919177,-0.0060631807024959395,0.0,0.0,0.0,0.0,0.0,0.0,0.0
0.6393401622772217,8.93980398756315,0.01686360330337315,-0.0006980084662242913,0.0638935443417141,0.0,1.0,0.4,-0.09285256806453024,0.10368690926984953,0.8531066785922425,-0.010618461195851553,-0.005954582635532838,0.0,0.0,0.0,0.0,0.0,0.0,0.0
0.64463210105896,8.929829822606502,0.01693825974057182,-0.0008840661464597191,0.0626030643146141,0.0,1.0,0.4,-0.0925323301795618,0.10367902051811051,0.8517521521906354,-0.010567392785649382,-0.005845946416179251,0.0,0.0,0.0,0.0,0.0,0.0,0.0
0.6499426364898682,8.92036518831617,0.01718903575653498,-0.001236152339871007,0.06129382696297183,0.0,1.0,0.4,-0.09221346761017427,0.10366931661481027,0.8503671518518576,-0.010516838326732652,-0.0057392437853908415,0.0,0.0,0.0,0.0,0.0,0.0,0.0
0.6552815437316895,8.911479493910102,0.017596087618655085,-0.001735532304394386,0.05994328986015887,0.0,1.0,0.4,-0.0918974776349285,0.10365641583392271,0.8489734164088699,-0.010466992076945817,-0.005636145563240301,0.0,0.0,0.0,0.0,0.0,0.0,0.0
0.660590410232544,8.90323908276353,0.018026632299542742,-0.002324425483815332,0.05856062192960173,0.0,1.0,0.4,-0.09158302845735986,0.10363850156446602,0.8475710567394737,-0.01041763025941268,-0.005537908921111205,0.0,0.0,0.0,0.0,0.0,0.0,0.0
0.6658999919891357,8.895668762345643,0.018406532259917372,-0.0029539466908613814,0.057208315220486396,0.0,1.0,0.4,-0.09126588971689514,0.10361750287492133,0.8461480346945348,-0.010368537040753781,-0.005445007463441159,0.0,0.0,0.0,0.0,0.0,0.0,0.0
0.6711862087249756,8.888778071382823,0.018747392473001674,-0.0035987621586375065,0.05588460386927086,0.0,1.0,0.4,-0.09094606595299197,0.10359536695848565,0.8447085227790525,-0.010320018915843094,-0.005357053810943144,0.0,0.0,0.0,0.0,0.0,0.0,0.0
0.6765115261077881,8.882543012944241,0.01909536923904114,-0.004249776655531162,0.05452380109124404,0.0,1.0,0.4,-0.09062448582139841,0.10357230961601949,0.8432509579342181,-0.010272788251833172,-0.005273153691330495,0.0,0.0,0.0,0.0,0.0,0.0,0.0
0.6818218231201172,8.87688534564624,0.019453472506323257,-0.004865061962921613,0.05312023069845596,0.0,1.0,0.4,-0.09029802814683388,0.10354908307913935,0.8417601403243191,-0.010227555792606006,-0.0051922662390430354,0.0,0.0,0.0,0.0,0.0,0.0,0.0
0.687190055847168,8.871742002633106,0.019768448992452763,-0.005356177217043313,0.051729624914971656,0.0,1.0,0.4,-0.08996445174619945,0.10352679201898263,0.8402440766941458,-0.010184962985375539,-0.0051132557696675004,0.0,0.0,0.0,0.0,0.0,0.0,0.0
0.6925995349884033,8.867116512572778,0.019985576047869998,-0.005747257586048389,0.05038685314612626,0.0,1.0,0.4,-0.08962462750236116,0.10350613678480058,0.8387280501298158,-0.010145751950299924,-0.005034877164858703,0.0,0.0,0.0,0.0,0.0,0.0,0.0
0.6979131698608398,8.863043416814625,0.02004678298770982,-0.006124193591438391,0.04909108066233226,0.0,1.0,0.4,-0.08927891257021117,0.1034880765544039,0.8372182757966026,-0.010110811676238231,-0.004955923937881426,0.0,0.0,0.0,0.0,0.0,0.0,0.0
0.7033240795135498,8.859523851231295,0.01994846080508228,-0.00642568164622644,0.04783781609811626,0.0,1.0,0.4,-0.08892557160341197,0.1034735027849335,0.835700055226126,-0.010081044860043851,-0.004875206982010525,0.0,0.0,0.0,0.0,0.0,0.0,0.0
0.7087514400482178,8.856542240690194,0.019746676164267424,-0.006565664029106738,0.04662250505173012,0.0,1.0,0.4,-0.08856488238799115,0.10346244747956551,0.8341730246797625,-0.010057200495703335,-0.004791755377862056,0.0,0.0,0.0,0.0,0.0,0.0,0.0
0.714026689529419,8.854064937611714,0.0194643087819619,-0.006576342534520682,0.04543925119070287,0.0,1.0,0.4,-0.08819691812251615,0.10345481068559914,0.832639796039419,-0.010039806843504074,-0.004704731459619384,0.0,0.0,0.0,0.0,0.0,0.0,0.0
0.7194058895111084,8.85201976313526,0.019111713121672712,-0.006503791767635493,0.04428087662275332,0.0,1.0,0.4,-0.08782021289398262,0.10345050198287353,0.8310892484862948,-0.010029136141417299,-0.0046132870294564605,0.0,0.0,0.0,0.0,0.0,0.0,0.0
0.7247872352600098,8.850359614871879,0.01872935585126645,-0.00636128387390831,0.043150926807391264,0.0,1.0,0.4,-0.08743702001012521,0.1034493003468222,0.8295295297983165,-0.01002517897980543,-0.0045171664824166765,0.0,0.0,0.0,0.0,0.0,0.0,0.0
0.7301602363586426,8.849106123737933,0.018325309653644373,-0.006177592771065923,0.04209383102361635,0.0,1.0,0.4,-0.08705129182834326,0.10345082857127269,0.8279851338217448,-0.010027587825136644,-0.004417193897081801,0.0,0.0,0.0,0.0,0.0,0.0,0.0
0.7354843616485596,8.848290994004053,0.017935089354917718,-0.0059584111968400254,0.041127409407824514,0.0,1.0,0.4,-0.08666451637320732,0.10345377309023368,0.826455910478062,-0.010035706738823504,-0.004314715428629016,0.0,0.0,0.0,0.0,0.0,0.0,0.0
0.7407960891723633,8.847901722529137,0.01768659805533546,-0.005699903257387181,0.040192043806717925,0.0,1.0,0.4,-0.08627619855641534,0.10345652183621301,0.8249241844688147,-0.010048639610797872,-0.0042108022790760926,0.0,0.0,0.0,0.0,0.0,0.0,0.0
0.7460699081420898,8.84793071444189,0.01766036832833749,-0.005479832186373894,0.03923633748647533,0.0,1.0,0.4,-0.08588691391710646,0.10345884423486107,0.8233976054768435,-0.010065309223050425,-0.0041064962035957135,0.0,0.0,0.0,0.0,0.0,0.0,0.0
0.7513413429260254,8.848375221465322,0.017818696788548333,-0.005394425204710308,0.03824415727011029,0.0,1.0,0.4,-0.08549789292085887,0.10345961610143872,0.8218852032302846,-0.010084376962848751,-0.004002969461242968,0.0,0.0,0.0,0.0,0.0,0.0,0.0
0.7566618919372559,8.849204531899996,0.018087156028411946,-0.005444805520225283,0.037211280753192064,0.0,1.0,0.4,-0.08510881052735593,0.10345621332433863,0.8203763421826455,-0.010104144537155748,-0.003901243240035774,0.0,0.0,0.0,0.0,0.0,0.0,0.0
0.7619736194610596,8.850408239787164,0.0183989193496322,-0.005602568818179865,0.03617932180293265,0.0,1.0,0.4,-0.08471900011569224,0.10344827281009333,0.8188774422657645,-0.010122818590686027,-0.003802267344013047,0.0,0.0,0.0,0.0,0.0,0.0,0.0
0.7673337459564209,8.852022002151697,0.0187146252114853,-0.005871993638785953,0.03520111547806247,0.0,1.0,0.4,-0.08433064995582845,0.10343814016597824,0.8174080271261784,-0.01013913124376066,-0.003707157468948099,0.0,0.0,0.0,0.0,0.0,0.0,0.0
0.7726407051086426,8.854083367762092,0.0190216746576922,-0.006252885301058446,0.03426106760621957,0.0,1.0,0.4,-0.08394654753796599,0.10342740042723175,0.8159677596285846,-0.010152623996395113,-0.0036170310400519255,0.0,0.0,0.0,0.0,0.0,0.0,0.0
0.777958869934082,8.856592202759623,0.019318652134429876,-0.0067697517065309736,0.03329349879496973,0.0,1.0,0.4,-0.08356671699094728,0.1034163838924998,0.8145432345152882,-0.010163414621874048,-0.0035327770257423383,0.0,0.0,0.0,0.0,0.0,0.0,0.0
0.7833001613616943,8.859540147672694,0.019606372371247342,-0.007466261888943499,0.032251165974982,0.0,1.0,0.4,-0.0831917039526343,0.10340639394452361,0.8131379131158857,-0.010172001845743276,-0.0034553186772114403,0.0,0.0,0.0,0.0,0.0,0.0,0.0
0.7885777950286865,8.86290563513542,0.019851271350510905,-0.008333481717073916,0.03114788503862771,0.0,1.0,0.4,-0.08282129090989576,0.10339951999737895,0.8117543275312316,-0.01017922334845898,-0.0033855167214168515,0.0,0.0,0.0,0.0,0.0,0.0,0.0
0.7938735485076904,8.866629093321771,0.0199926503368772,-0.009306712280198023,0.030026981173262586,0.0,1.0,0.4,-0.08245328890159913,0.10339679677933322,0.8103801551315946,-0.010186162782578702,-0.003323707340910388,0.0,0.0,0.0,0.0,0.0,0.0,0.0
0.7992653846740723,8.870664246147305,0.01998795213524009,-0.010300122987317143,0.028926526522452693,0.0,1.0,0.4,-0.08208562952110074,0.10339718628671607,0.8090201236667274,-0.0101937559919911,-0.003269477438453058,0.0,0.0,0.0,0.0,0.0,0.0,0.0
0.804645299911499,8.875013022439138,0.01984768393356655,-0.011232984925126895,0.027881644780441268,0.0,1.0,0.4,-0.08171694348840189,0.10339935366765496,0.8076925993111217,-0.010202521336906576,-0.003221810771372585,0.0,0.0,0.0,0.0,0.0,0.0,0.0
0.8099591732025146,8.879675882499107,0.019614009153111595,-0.012060181928474663,0.02687587829189016,0.0,1.0,0.4,-0.08134813276817673,0.10340293388853972,0.8063941106339362,-0.010212692505376795,-0.0031794328603531497,0.0,0.0,0.0,0.0,0.0,0.0,0.0
0.8153753280639648,8.884600341987605,0.019335324542862114,-0.012763853887014813,0.025841294542030317,0.0,1.0,0.4,-0.08098201776170419,0.10340787041111144,0.8051040224373902,-0.010224371235654032,-0.003141378627277396,0.0,0.0,0.0,0.0,0.0,0.0,0.0
0.8206963539123535,8.889726969889814,0.01903999404729128,-0.013358070412150636,0.024750179671743318,0.0,1.0,0.4,-0.08062053501365139,0.10341434260556964,0.8038241123392476,-0.01023755606618602,-0.003107511181525733,0.0,0.0,0.0,0.0,0.0,0.0,0.0
0.8259665966033936,8.89501522863695,0.018697501912092858,-0.013911331621542329,0.023637975399259003,0.0,1.0,0.4,-0.0802606415298357,0.10342321331231896,0.8025652436585845,-0.010252288721470494,-0.0030777365391134906,0.0,0.0,0.0,0.0,0.0,0.0,0.0
0.8312385082244873,8.905726470067021,0.01846445122835597,-0.014603077032605969,0.023022813902088976,0.0,1.0,0.4,-0.08004458909868746,0.10341236679488974,0.8030325903918594,-0.010263768546362781,-0.003079040268082165,0.0,0.0,0.0,0.0,0.0,0.0,0.0
0.8366179466247559,8.931225719731058,0.01850614072593738,-0.015560464684637865,0.02328605766805029,0.0,1.0,0.4,-0.08008717516,0.10336444412952189,0.806570639972169,-0.010263421200970027,-0.0031618802674110067,0.0,0.0,0.0,0.0,0.0,0.0,0.0
0.8419363498687744,8.97405563681006,0.018582510608446613,-0.016679437049347837,0.02375413042526389,0.0,1.0,0.4,-0.08018294496697241,0.10331191096540593,0.8107911742043803,-0.010248996772646062,-0.0033430713416298767,0.0,0.0,0.0,0.0,0.0,0.0,0.0
0.8472304344177246,9.02984271416614,0.01848282588744132,-0.017847928466924803,0.023890060668415425,0.0,1.0,0.4,-0.08016420548125938,0.10328120507822652,0.813746475075373,-0.010224976109098385,-0.0035995226022486073,0.0,0.0,0.0,0.0,0.0,0.0,0.0
0.8525469303131104,9.091409850754966,0.018217968767527886,-0.01903483746770514,0.0237459933605344,0.0,1.0,0.4,-0.08004413834727817,0.10327045173999116,0.8155955130193582,-0.010198701659840806,-0.0038890733496144145,0.0,0.0,0.0,0.0,0.0,0.0,0.0
0.8578500747680664,9.151318742308328,0.017783303654728654,-0.02021449691470642,0.023353389860484984,0.0,1.0,0.4,-0.07983687187792414,0.10327591288437937,0.8165046126947333,-0.010177492534615678,-0.004167891497161365,0.0,0.0,0.0,0.0,0.0,0.0,0.0
0.8632447719573975,9.2044244140021,0.017169794262697213,-0.021362792059679454,0.022724372178403777,0.0,1.0,0.4,-0.0795579549036139,0.1032937152334083,0.8166385031856265,-0.01016604076505804,-0.004405442700225788,0.0,0.0,0.0,0.0,0.0,0.0,0.0
0.8685534000396729,9.24745856621501,0.016398837391654007,-0.022439905713202268,0.02188676212538889,0.0,1.0,0.4,-0.07922019640306517,0.10332204345571072,0.8161349396868953,-0.0101669435675367,-0.004582402952372099,0.0,0.0,0.0,0.0,0.0,0.0,0.0
0.8738727569580078,9.278634592295015,0.015530354795541492,-0.023405352079093233,0.020894447639982456,0.0,1.0,0.4,-0.07883359173392038,0.10336065104712355,0.815106774669381,-0.010181413607297652,-0.004688388572975398,0.0,0.0,0.0,0.0,0.0,0.0,0.0
0.8792786598205566,9.297340144323702,0.014648380556033153,-0.024227948884006808,0.019810090179682615,0.0,1.0,0.4,-0.07840862353316216,0.10340901507908135,0.8136641901298849,-0.010209763978818287,-0.004720068077941442,0.0,0.0,0.0,0.0,0.0,0.0,0.0
0.8845536708831787,9.303853268205877,0.013777311304371155,-0.024876928500712717,0.018677014645951628,0.0,1.0,0.4,-0.077954401434989,0.1034654508893812,0.8119057523491109,-0.010251557635783328,-0.004679311235406105,0.0,0.0,0.0,0.0,0.0,0.0,0.0
0.8898591995239258,9.29909149914637,0.01284781544995818,-0.025351217896142364,0.01752097048193172,0.0,1.0,0.4,-0.07747777562616984,0.10352781445971654,0.8099110783949025,-0.01030561369036493,-0.004571673347631072,0.0,0.0,0.0,0.0,0.0,0.0,0.0
0.8952665328979492,9.284445593573226,0.011807800423824455,-0.025699788236367472,0.016358993749946128,0.0,1.0,0.4,-0.07698617406740585,0.10359432482678738,0.807761346654685,-0.010370123379208538,-0.004405436272189439,0.0,0.0,0.0,0.0,0.0,0.0,0.0
0.9006507396697998,9.267431008515265,0.010929007702059403,-0.026029092333342923,0.01571643845960541,0.0,1.0,0.4,-0.07665951316567907,0.10363726768993531,0.807406182948463,-0.010436980515217823,-0.004223444552652177,0.0,0.0,0.0,0.0,0.0,0.0,0.0
0.9059686660766602,9.260168725090994,0.01050746589226114,-0.026453008401364397,0.015999197716498333,0.0,1.0,0.4,-0.07663825904560943,0.10363521668130421,0.8103664325680929,-0.01049379216937981,-0.004097898863574682,0.0,0.0,0.0,0.0,0.0,0.0,0.0
0.9113380908966064,9.26725384911327,0.010297272058043294,-0.027011627563013247,0.016467354901667865,0.0,1.0,0.4,-0.0766828368415493,0.10362524682585633,0.8140440155455101,-0.01053600761132705,-0.004061716656593853,0.0,0.0,0.0,0.0,0.0,0.0,0.0
0.9166533946990967,9.285628683019908,0.01004403795824927,-0.02767197018488114,0.016538513829671333,0.0,1.0,0.4,-0.07659895271411951,0.10363718778927855,0.8163431237119414,-0.01056655113273919,-0.004099848763426591,0.0,0.0,0.0,0.0,0.0,0.0,0.0
0.9219241142272949,9.309052201808871,0.00976926489320452,-0.028373676793602184,0.016288101849177738,0.0,1.0,0.4,-0.07640401194814886,0.1036684172609279,0.8174782431078847,-0.010591551907555879,-0.0041733226482582025,0.0,0.0,0.0,0.0,0.0,0.0,0.0
0.927220344543457,9.33079152328844,0.009449362481109372,-0.02908718128678426,0.01578514243110369,0.0,1.0,0.4,-0.07611459695746624,0.10371681598392474,0.8176383524646407,-0.010617849543469119,-0.00423962687340742,0.0,0.0,0.0,0.0,0.0,0.0,0.0
0.9326066970825195,9.346397867322588,0.009021620524986562,-0.029767906037070763,0.01510838918494527,0.0,1.0,0.4,-0.07574950022420299,0.10377995335756501,0.8170061590470024,-0.010650061516761204,-0.004270427518747182,0.0,0.0,0.0,0.0,0.0,0.0,0.0
0.9379305839538574,9.353292801507713,0.008451619332864388,-0.030386600909760746,0.014329211749377754,0.0,1.0,0.4,-0.07532673821945576,0.1038545858800276,0.8157553025231687,-0.010690802373835755,-0.004249297553340911,0.0,0.0,0.0,0.0,0.0,0.0,0.0
0.9432458877563477,9.35034207908532,0.007753219639855068,-0.030940965069128877,0.013472324575551847,0.0,1.0,0.4,-0.0748624370551445,0.1039378593068026,0.8140268763372175,-0.010741098552783428,-0.004169324557631318,0.0,0.0,0.0,0.0,0.0,0.0,0.0
0.9486298561096191,9.33747492360106,0.006952420178992252,-0.03136100361919971,0.012543999325190455,0.0,1.0,0.4,-0.07436979213052328,0.10402799560665826,0.8119329111501824,-0.010800803186510471,-0.004030813984876347,0.0,0.0,0.0,0.0,0.0,0.0,0.0
0.9539244174957275,9.31542171163337,0.006054358410722954,-0.03161552618649392,0.011562674243023922,0.0,1.0,0.4,-0.07385815813745418,0.10412311251706308,0.8095855402307055,-0.010868875130419115,-0.0038390111310208272,0.0,0.0,0.0,0.0,0.0,0.0,0.0
0.9592804908752441,9.285494646424898,0.005081842423832709,-0.03177060353714068,0.010540546483919588,0.0,1.0,0.4,-0.07333581052381402,0.10422125432249735,0.8070926354999032,-0.010943683664057346,-0.00360227721279275,0.0,0.0,0.0,0.0,0.0,0.0,0.0
0.9645962715148926,9.24934399375247,0.004109745844575857,-0.031903516563108365,0.009471912862982691,0.0,1.0,0.4,-0.07281009079456942,0.10432265557259762,0.8045304704493941,-0.011023556879502683,-0.0033307202415982944,0.0,0.0,0.0,0.0,0.0,0.0,0.0
0.9699044227600098,9.208749704576187,0.0031828188156904067,-0.0320751261510161,0.00834610395983645,0.0,1.0,0.4,-0.07228701029373505,0.10442843087460507,0.8019491009450189,-0.01110711026938455,-0.0030353096852436586,0.0,0.0,0.0,0.0,0.0,0.0,0.0
0.9752964973449707,9.165503284446922,0.002239899035323624,-0.032306234450427185,0.007183945639996606,0.0,1.0,0.4,-0.07177279420019927,0.10453699765180352,0.7993978342923207,-0.011192930272813598,-0.0027275415160620932,0.0,0.0,0.0,0.0,0.0,0.0,0.0
0.9805910587310791,9.121313842930412,0.0012097664578466884,-0.03258389736500172,0.006015131720850158,0.0,1.0,0.4,-0.07127168950866618,0.104647101016771,0.7969184882620671,-0.011279593249250014,-0.0024185877003950903,0.0,0.0,0.0,0.0,0.0,0.0,0.0
0.9858970642089844,9.07773363568535,9.626378034689742e-05,-0.03289813616841293,0.004845906006682184,0.0,1.0,0.4,-0.07078563655219182,0.1047592486199207,0.7945373407633927,-0.011365870963078726,-0.0021184433819979374,0.0,0.0,0.0,0.0,0.0,0.0,0.0
0.9912643432617188,9.036137387683551,-0.0010451493999170155,-0.033245888507920665,0.0036718739454114687,0.0,1.0,0.4,-0.07031741821623998,0.10487384180667136,0.7922806728132418,-0.01145082738126565,-0.0018358315723034345,0.0,0.0,0.0,0.0,0.0,0.0,0.0
0.9966425895690918,8.997704882547811,-0.0021632832720926993,-0.03359920378209015,0.0025017450266793485,0.0,1.0,0.4,-0.06986922524052963,0.1049894058700453,0.7901729814091137,-0.011533558250908155,-0.001578172193993892,0.0,0.0,0.0,0.0,0.0,0.0,0.0
1.0019667148590088,8.963383011742428,-0.0032192154538608704,-0.03395012568657018,0.0013409233346821138,0.0,1.0,0.4,-0.069440949214366,0.10510425962703418,0.7882226573674392,-0.0116130486369017,-0.0013512256918848985,0.0,0.0,0.0,0.0,0.0,0.0,0.0
1.00732421875,8.933855881777731,-0.00415388564121757,-0.03435223861568608,0.00016646777383649,0.0,1.0,0.4,-0.06903196861225733,0.10521967916258224,0.7864240799477984,-0.01168858763866469,-0.0011588583004610003,0.0,0.0,0.0,0.0,0.0,0.0,0.0
1.0126307010650635,8.909570635705522,-0.004943733792863365,-0.03483505195473853,-0.0010276030298982924,0.0,1.0,0.4,-0.06864241884536795,0.10533605636039878,0.7847765553427725,-0.011759725727689166,-0.0010034828594246252,0.0,0.0,0.0,0.0,0.0,0.0,0.0
1.0179028511047363,8.890767502457729,-0.0056684259968713974,-0.035406998002824173,-0.002197550449286753,0.0,1.0,0.4,-0.06827192647941902,0.10545294443794767,0.7832810689388774,-0.011826236857317816,-0.0008864276151802024,0.0,0.0,0.0,0.0,0.0,0.0,0.0
1.0231902599334717,8.877497277451397,-0.006431163354348717,-0.036084730150967866,-0.003279279050030938,0.0,1.0,0.4,-0.06791943318579718,0.10557156254584571,0.7819305579154976,-0.011888261402908098,-0.0008079250108592237,0.0,0.0,0.0,0.0,0.0,0.0,0.0
1.0285637378692627,8.869665819582151,-0.007236330595075155,-0.03686949817127054,-0.004248516397774545,0.0,1.0,0.4,-0.06758456340138949,0.10569243979189064,0.7807215464693674,-0.011946178136606785,-0.000767046078771721,0.0,0.0,0.0,0.0,0.0,0.0,0.0
1.0338513851165771,8.867068435595318,-0.008013927576696394,-0.03776172837550861,-0.0051392833002066474,0.0,1.0,0.4,-0.06726781207243482,0.10581514699674355,0.7796538299149413,-0.012000457524320015,-0.0007619380944465569,0.0,0.0,0.0,0.0,0.0,0.0,0.0
1.039156198501587,8.869390339676679,-0.008687239782892483,-0.038767559003262425,-0.005996439992859764,0.0,1.0,0.4,-0.06696923672515404,0.10594019239979968,0.7787168425365469,-0.012051663980024788,-0.0007902832228668689,0.0,0.0,0.0,0.0,0.0,0.0,0.0
1.0445120334625244,8.87620865385359,-0.009198673855348664,-0.03987898458707989,-0.0068368782691520524,0.0,1.0,0.4,-0.06668784269781534,0.10606890840008582,0.7778923015788654,-0.012100551562221729,-0.0008495071320680889,0.0,0.0,0.0,0.0,0.0,0.0,0.0
1.0498175621032715,8.887032836800905,-0.009540965494775313,-0.041064183749204335,-0.007652567885420431,0.0,1.0,0.4,-0.06642285505448875,0.10620128007527507,0.7771703367441978,-0.01214790227477645,-0.0009368322971682624,0.0,0.0,0.0,0.0,0.0,0.0,0.0
1.0551600456237793,8.901352354359615,-0.009770204567710002,-0.04229374261894842,-0.008421449700554756,0.0,1.0,0.4,-0.06617303457823501,0.10633562913748362,0.7765497115847608,-0.012194181424382562,-0.0010491984434014214,0.0,0.0,0.0,0.0,0.0,0.0,0.0
1.0604619979858398,8.918644750387504,-0.009966854318877248,-0.04353961040271991,-0.009130405627545147,0.0,1.0,0.4,-0.06593671097562911,0.10647123677161652,0.7760221195291964,-0.012239545910219559,-0.0011831777294095734,0.0,0.0,0.0,0.0,0.0,0.0,0.0
1.0657544136047363,8.938368978732477,-0.01016490166818301,-0.04475612513387136,-0.009786520278837007,0.0,1.0,0.4,-0.06571258159450089,0.10660961101566957,0.7755709756559204,-0.01228423672642627,-0.0013350500082549926,0.0,0.0,0.0,0.0,0.0,0.0,0.0
1.0711276531219482,8.959993543923172,-0.010374074279361913,-0.04591469330442803,-0.010386323046597454,0.0,1.0,0.4,-0.06549904084183722,0.10675176238955103,0.7751879786331681,-0.012328680756260712,-0.00150103886589916,0.0,0.0,0.0,0.0,0.0,0.0,0.0
1.0764520168304443,8.983013291212869,-0.01062426579694369,-0.047015922038576706,-0.010909941126038502,0.0,1.0,0.4,-0.06529384028333572,0.10689783261125041,0.7748683911434713,-0.012373415536461558,-0.0016773419964108377,0.0,0.0,0.0,0.0,0.0,0.0,0.0
1.0817625522613525,9.006948021614217,-0.010920931962036595,-0.04807787372495011,-0.011362393786404997,0.0,1.0,0.4,-0.0650956424919002,0.10704890332664174,0.7746014556675648,-0.012419150318445293,-0.0018600819830359592,0.0,0.0,0.0,0.0,0.0,0.0,0.0
1.0871069431304932,9.031363340238483,-0.011211664602209268,-0.04911628266460178,-0.011775785314362098,0.0,1.0,0.4,-0.06490516743521854,0.10720574769538482,0.7743812950779545,-0.012466681820327272,-0.0020457361862621037,0.0,0.0,0.0,0.0,0.0,0.0,0.0
1.0924394130706787,9.055869259934276,-0.011450616906412286,-0.05011451295244962,-0.012170101287959631,0.0,1.0,0.4,-0.06472308200704319,0.10736788011496728,0.7742026193093676,-0.012516668007671657,-0.0022315434184388087,0.0,0.0,0.0,0.0,0.0,0.0,0.0
1.0977444648742676,9.080110867298204,-0.011649941639441743,-0.051028974283406706,-0.012553955433691526,0.0,1.0,0.4,-0.06454939120259884,0.10753404964995522,0.7740553567519867,-0.012569396446129259,-0.002415450240012858,0.0,0.0,0.0,0.0,0.0,0.0,0.0
1.1031146049499512,9.103793058333137,-0.011819303067501239,-0.0518319674058617,-0.012938815492448222,0.0,1.0,0.4,-0.06438416966672113,0.10770282954913413,0.7739379278192109,-0.012624685149114096,-0.002595908860690278,0.0,0.0,0.0,0.0,0.0,0.0,0.0
1.108520269393921,9.12670251521429,-0.011957556086404506,-0.05253142573915575,-0.013344771650009593,0.0,1.0,0.4,-0.06422690893985143,0.10787235138075502,0.7738575813017103,-0.012681841829795796,-0.002771623918670412,0.0,0.0,0.0,0.0,0.0,0.0,0.0
1.1138222217559814,9.148694889093601,-0.012074072816302834,-0.05314304768580135,-0.013797398563665015,0.0,1.0,0.4,-0.06407602432195514,0.10804187056462206,0.7738163132994955,-0.012739930757085937,-0.0029413108241279464,0.0,0.0,0.0,0.0,0.0,0.0,0.0
1.1191723346710205,9.169671120023423,-0.012165768721758435,-0.05367367472056861,-0.014306490479415289,0.0,1.0,0.4,-0.06393081805988318,0.10821236181503419,0.7738097682775693,-0.01279815431011206,-0.003103883562238617,0.0,0.0,0.0,0.0,0.0,0.0,0.0
1.1244852542877197,9.189573287230852,-0.012234311280520088,-0.05412166643136755,-0.014845156300665092,0.0,1.0,0.4,-0.06379200042950288,0.10838469266132245,0.773837626194163,-0.012855984154853293,-0.0032588143284061405,0.0,0.0,0.0,0.0,0.0,0.0,0.0
1.1298179626464844,9.208383835370542,-0.012302844383944906,-0.05447797389063342,-0.01536932795465021,0.0,1.0,0.4,-0.0636602624025364,0.10855982180571677,0.7739030052812702,-0.012913266091085708,-0.0034061186338663766,0.0,0.0,0.0,0.0,0.0,0.0,0.0
1.135131597518921,9.226110154462573,-0.012390507627442747,-0.05474459322204785,-0.015856350764732366,0.0,1.0,0.4,-0.0635360044073862,0.10873891085173204,0.7740043676522982,-0.012970239129803917,-0.0035460829950709045,0.0,0.0,0.0,0.0,0.0,0.0,0.0
1.1404445171356201,9.242775270648925,-0.01247584257030479,-0.054949020680441794,-0.01630243801372743,0.0,1.0,0.4,-0.06341860513335465,0.1089228265023981,0.7741385402836237,-0.013027428832804498,-0.0036790019955909347,0.0,0.0,0.0,0.0,0.0,0.0,0.0
1.1457469463348389,9.25842176359252,-0.012522456439198673,-0.0551326700403455,-0.01672453166048757,0.0,1.0,0.4,-0.06330850079788947,0.10911076774911799,0.7743067889947912,-0.013085302581802773,-0.00380522354542403,0.0,0.0,0.0,0.0,0.0,0.0,0.0
1.151047706604004,9.273113790312857,-0.01251812462375854,-0.05535715826462942,-0.01715357664259574,0.0,1.0,0.4,-0.0632080279132598,0.10930094637134558,0.7745122768760575,-0.013143969155711503,-0.003925465633497079,0.0,0.0,0.0,0.0,0.0,0.0,0.0
1.1563637256622314,9.286933005127889,-0.012464887301388061,-0.05567011246529117,-0.01759617462415475,0.0,1.0,0.4,-0.06311861253972759,0.10949373711130345,0.7747567093789769,-0.013203363614342004,-0.004041010226691592,0.0,0.0,0.0,0.0,0.0,0.0,0.0
1.1616475582122803,9.299968297181255,-0.012375308852822132,-0.05607853706613458,-0.01803731426353823,0.0,1.0,0.4,-0.06303999816727726,0.10969160472618295,0.7750397934256593,-0.013263709144777647,-0.004153366069251174,0.0,0.0,0.0,0.0,0.0,0.0,0.0
1.1669936180114746,9.312313530202387,-0.012263024868524578,-0.05657915692918676,-0.018463843165924906,0.0,1.0,0.4,-0.0629705765931162,0.109896103195666,0.7753625283666855,-0.013325634324200404,-0.004263648421090447,0.0,0.0,0.0,0.0,0.0,0.0,0.0
1.1723051071166992,9.32405789341666,-0.012154526598193487,-0.05716105823251547,-0.018872140556890314,0.0,1.0,0.4,-0.06290946506818847,0.11010675406602399,0.7757242401055081,-0.013389837850298634,-0.004372487179301709,0.0,0.0,0.0,0.0,0.0,0.0,0.0
1.1776080131530762,9.335272452806556,-0.012075204304315284,-0.057802705245991806,-0.019272182025913884,0.0,1.0,0.4,-0.06285731325596972,0.11032230634324969,0.77612013094149,-0.013456735052885853,-0.0044802880259252305,0.0,0.0,0.0,0.0,0.0,0.0,0.0
1.1828937530517578,9.3460179807514,-0.01199674267616512,-0.05847383766604492,-0.019673713659562126,0.0,1.0,0.4,-0.06281397055968863,0.11054067628458175,0.7765487207064568,-0.013526130007960244,-0.004587373258113356,0.0,0.0,0.0,0.0,0.0,0.0,0.0
1.1882414817810059,9.356358269290679,-0.011875083761055573,-0.05916486691727189,-0.02008645819458271,0.0,1.0,0.4,-0.06277814857460678,0.11076036120526506,0.7770134087839503,-0.013597326258275361,-0.004693843322125166,0.0,0.0,0.0,0.0,0.0,0.0,0.0
1.1935243606567383,9.36636443674053,-0.011737967057697783,-0.05989071865108612,-0.02050783296999034,0.0,1.0,0.4,-0.0627487699349432,0.11098232689036336,0.7775174476193661,-0.013669621728731192,-0.004799577864452567,0.0,0.0,0.0,0.0,0.0,0.0,0.0
1.1988096237182617,9.376105642661123,-0.011666899864083863,-0.06064753239503563,-0.020916598995478833,0.0,1.0,0.4,-0.06272588314158581,0.11120823377144057,0.7780603406289558,-0.013742634594385753,-0.004904467730052064,0.0,0.0,0.0,0.0,0.0,0.0,0.0
1.2041857242584229,9.385638643126653,-0.01171462760761303,-0.06140584583220641,-0.02128858588588046,0.0,1.0,0.4,-0.06270977763004411,0.1114384950789915,0.7786393974491301,-0.01381628479059407,-0.005008486627633844,0.0,0.0,0.0,0.0,0.0,0.0,0.0
1.209456205368042,9.395002046489381,-0.01186817349669278,-0.06212623361671152,-0.021596721681882192,0.0,1.0,0.4,-0.06270057339470114,0.11167358107305891,0.7792514771955731,-0.01389070662381922,-0.00511176315804865,0.0,0.0,0.0,0.0,0.0,0.0,0.0
1.214815616607666,9.404219244096616,-0.012054710215254002,-0.06277820074071423,-0.021839449743497677,0.0,1.0,0.4,-0.06269912708040394,0.11191439122526581,0.7798943836385166,-0.013966260519109154,-0.005214494382475487,0.0,0.0,0.0,0.0,0.0,0.0,0.0
1.220153570175171,9.413308747566449,-0.012206016893705443,-0.06335238963222076,-0.02203988489635159,0.0,1.0,0.4,-0.06270572637583119,0.1121600505883304,0.7805684246381466,-0.014043226344707208,-0.005316826683494972,0.0,0.0,0.0,0.0,0.0,0.0,0.0
1.2254290580749512,9.422290591044831,-0.012279419927329277,-0.0638536825170325,-0.022212056906750436,0.0,1.0,0.4,-0.0627184408687037,0.11240941995850268,0.7812749474688095,-0.014121603354801629,-0.005418686477270959,0.0,0.0,0.0,0.0,0.0,0.0,0.0
1.2307519912719727,9.431182255373052,-0.01223858482338576,-0.06427099866398447,-0.022355682785990986,0.0,1.0,0.4,-0.06273585112656568,0.1126642769531776,0.7820131135850387,-0.014201498420956915,-0.0055197680659415365,0.0,0.0,0.0,0.0,0.0,0.0,0.0
1.2360663414001465,9.439992448426885,-0.012076499709986198,-0.06457567788392808,-0.022468003881643883,0.0,1.0,0.4,-0.06275972107516015,0.11292714596810693,0.7827801098858873,-0.014283442972139576,-0.005619937286235819,0.0,0.0,0.0,0.0,0.0,0.0,0.0
1.2413804531097412,9.448725116202619,-0.011819323616696981,-0.06476774815087005,-0.022547385929894373,0.0,1.0,0.4,-0.06279143784176645,0.11319669191104892,0.7835751061063163,-0.01436790994598229,-0.005719369482431045,0.0,0.0,0.0,0.0,0.0,0.0,0.0
1.2466645240783691,9.457385437248181,-0.01150631066574526,-0.06486934547843799,-0.02259749542800008,0.0,1.0,0.4,-0.06283029822314407,0.11346959049266592,0.7843992376192912,-0.014454770152765578,-0.005818310799229889,0.0,0.0,0.0,0.0,0.0,0.0,0.0
1.2519731521606445,9.46598194784833,-0.011147652170026019,-0.06488623455368407,-0.022640609142043713,0.0,1.0,0.4,-0.06287606152682959,0.11374489622727985,0.7852533302242634,-0.014543439718528077,-0.005916873660901437,0.0,0.0,0.0,0.0,0.0,0.0,0.0
1.2572450637817383,9.474526663131513,-0.010737793413548833,-0.06481358980651679,-0.02270945986995293,0.0,1.0,0.4,-0.06292971315330631,0.1140232619801862,0.7861378788406405,-0.014633267669589754,-0.006015170198710385,0.0,0.0,0.0,0.0,0.0,0.0,0.0
1.2626149654388428,9.483034291872858,-0.010299262637611033,-0.06465690642911093,-0.02281209284578005,0.0,1.0,0.4,-0.06299231329372887,0.11430488850336201,0.787053607154252,-0.01472368086017856,-0.006113664202639281,0.0,0.0,0.0,0.0,0.0,0.0,0.0
1.2678842544555664,9.491531626963187,-0.009859751262052161,-0.0644554530006097,-0.022916537551336172,0.0,1.0,0.4,-0.06306329912108034,0.11459123200420929,0.7880046112174605,-0.014814417548335025,-0.006213058410505861,0.0,0.0,0.0,0.0,0.0,0.0,0.0
1.2731564044952393,9.500063258730398,-0.009444758057266661,-0.06426907372496071,-0.022994041310757163,0.0,1.0,0.4,-0.06314129837984157,0.11488365583251625,0.7889970142261212,-0.014905606251725032,-0.006313737107413177,0.0,0.0,0.0,0.0,0.0,0.0,0.0
1.2785377502441406,9.508674642998985,-0.009078499446490557,-0.06412994108820307,-0.023043275177295836,0.0,1.0,0.4,-0.06322565298087011,0.11517979126963751,0.790031294862236,-0.014997201254722217,-0.006415594918884543,0.0,0.0,0.0,0.0,0.0,0.0,0.0
1.283942699432373,9.51739879546994,-0.008789224836752313,-0.06405319502449525,-0.023076542823802053,0.0,1.0,0.4,-0.06331610255530744,0.1154764792273274,0.7911044257259539,-0.015088595675771496,-0.006518253827834525,0.0,0.0,0.0,0.0,0.0,0.0,0.0
1.28922700881958,9.52625602805608,-0.008589385542484722,-0.06405447329697049,-0.023112699104972594,0.0,1.0,0.4,-0.06341332041423425,0.11577304738807975,0.7922154664575691,-0.01517883380904844,-0.00662139797923629,0.0,0.0,0.0,0.0,0.0,0.0,0.0
1.2945902347564697,9.535257451119621,-0.00845241804425625,-0.06412985498006227,-0.023170108263179768,0.0,1.0,0.4,-0.06351803585747419,0.11607049475594539,0.7933647723762393,-0.015267082987175093,-0.006724913918920257,0.0,0.0,0.0,0.0,0.0,0.0,0.0
1.299926996231079,9.544405786872792,-0.008359115927305929,-0.06426180181655552,-0.023264025359464344,0.0,1.0,0.4,-0.06362997587509314,0.11636861221482853,0.7945514395757481,-0.01535271216234506,-0.00682875999245526,0.0,0.0,0.0,0.0,0.0,0.0,0.0
1.305196762084961,9.553697009946173,-0.008304678713190778,-0.06443888514962944,-0.023398080761493162,0.0,1.0,0.4,-0.06375037120482564,0.11666687749503618,0.7957743662321075,-0.015435225737837496,-0.006933215551029448,0.0,0.0,0.0,0.0,0.0,0.0,0.0
1.3105034828186035,9.56311952792348,-0.008285852604305585,-0.06465575471907788,-0.023567108517931534,0.0,1.0,0.4,-0.06388162922424323,0.11696573036328589,0.7970322178923187,-0.015514305064489935,-0.007039045042094755,0.0,0.0,0.0,0.0,0.0,0.0,0.0
1.3158237934112549,9.572645260571502,-0.008299829274365993,-0.06490957365841296,-0.023761275560216916,0.0,1.0,0.4,-0.06402409889608988,0.11726399999478071,0.7983203378130032,-0.015589547567632204,-0.0071472096118360895,0.0,0.0,0.0,0.0,0.0,0.0,0.0
1.3211090564727783,9.582233830508173,-0.008327756965739775,-0.06519089183320048,-0.023966386875383074,0.0,1.0,0.4,-0.06417623853965689,0.11755989746844753,0.7996349339115354,-0.015660333462874595,-0.007258440081614703,0.0,0.0,0.0,0.0,0.0,0.0,0.0
1.3263945579528809,9.591852239296246,-0.008341092039843203,-0.06551137282631334,-0.024165717510853658,0.0,1.0,0.4,-0.06433670659337351,0.11785450076973325,0.8009785122751178,-0.015726214878348098,-0.007373007971258264,0.0,0.0,0.0,0.0,0.0,0.0,0.0
