T,Px,Py,Pz,Vx,Vy,Vz,Roll,Pitch,Yaw,R_rate,P_rate,Y_rate,T,M1,M2,M3,Wb1,Wb2,Wb3
0,0,0,0,0,0,0,-0.01966092847482,-0.002252076947896,-0.003643778379556,0,0,0,0,0,0,0,0,0,0
0.000224113464355,0.053790792822838,-0.055720917880535,0.07754572480917,-5.27545856668483E-05,-2.04132673386014E-05,6.95117454224167E-05,-0.019675960470898,-0.002116669901378,-0.003688595881725,0,0,0,0,0,0,0,0,0,0
0.010632991790772,0.053803525865078,-0.055712874978781,0.077520355582237,-0.000166663251473,-5.80265676426059E-05,0.000201780832452,-0.01973492342395,-0.002413493226732,-0.003690405817037,0,0,0,0,0,0,0,0,0,0
0.021017551422119,0.053811892867088,-0.055715464055538,0.077535912394524,-0.000206336237777,-6.90920859339727E-05,0.00026400936681,-0.01968012046019,-0.002258999747973,-0.003782761408528,0,0,0,0,0,0,0,0,0,0
0.031573057174683,0.053809773176909,-0.055726975202561,0.077520854771137,-0.000162061427898,-9.03897082738732E-05,0.000269887592616,-0.019534053018586,-0.002126323350831,-0.003675264015642,0,0,0,0,0,0,0,0,0,0
0.042047500610352,0.05379668623209,-0.055706389248371,0.077524222433567,-0.000133173815058,-0.00010338735227,0.000218872006835,-0.019640415175302,-0.002071113625156,-0.003674146687183,0,0,0,0,0,0,0,0,0,0
0.052660465240479,0.053827904164791,-0.055726137012243,0.077550984919071,-0.000101744244417,-8.3963020454789E-05,0.000212827123166,-0.019582220500629,-0.001989085228861,-0.003629851788166,0,0,0,0,0,0,0,0,0,0
0.063635110855103,0.053808752447367,-0.055727329105139,0.07754298299551,-7.55842934678756E-06,-0.000110771832852,0.000307493047828,-0.019485332765071,-0.002112985059139,-0.003726320727653,0,0,0,0,0,0,0,0,0,0
0.074949264526367,0.053781073540449,-0.055713869631291,0.077556982636452,-1.76414025412328E-05,-0.00014147926292,0.000403985609685,-0.019604540415626,-0.002268139598339,-0.003733948296543,0,0,0,0,0,0,0,0,0,0
0.085367441177368,0.05380380526185,-0.055732667446137,0.077544204890728,-0.000116533878161,-0.000112446515608,0.000368675226107,-0.019617363822041,-0.002111600138303,-0.003680060886522,0,0,0,0,0,0,0,0,0,0
0.09600305557251,0.053789235651493,-0.05572547391057,0.077523872256279,-0.000164422757409,-0.000138349849104,0.000291262934581,-0.019657801722374,-0.002158772880028,-0.003667948011273,0,0,0,0,0,0,0,0,0,0
0.106658458709717,0.053810257464647,-0.055709641426802,0.077527783811092,-0.000145979047727,-0.000116500603546,0.000103865996501,-0.019847673363195,-0.002321886635865,-0.003756352581958,0,0,0,0,0,0,0,0,0,0
0.117069244384766,0.053819071501494,-0.055721562355757,0.077533803880215,-4.19124635657852E-05,-3.40329000501442E-05,-3.51168032389915E-05,-0.019781961084875,-0.002128365767177,-0.003657402980363,0,0,0,0,0,0,0,0,0,0
0.127549886703491,0.053784374147654,-0.055693756788969,0.077578321099281,3.17172839352607E-05,5.85820651727125E-05,8.2168518810075E-06,-0.01931617516296,-0.001821039411788,-0.003512567530258,0,0,0,0,0,0,0,0,0,0
0.13791298866272,0.053335092961788,-0.055603355169296,0.077421508729458,-0.000978519101664,0.000385960746814,-9.51774695303487E-05,-0.020929823762887,-0.004148393049018,-0.002428286290865,0,0,0,0,0,0,0,0,0,0
0.148330450057983,0.053575225174427,-0.055832758545876,0.077369898557663,-0.002992372604844,0.000523459757126,-0.000822652992597,-0.020412897238133,-0.003519694539008,-0.002338742579638,0,0,0,0,0,0,0,0,0,0
0.158895015716553,0.053561598062515,-0.055840078741312,0.077384173870087,-0.004063223127544,-0.000219942965774,-0.001762859867881,-0.020335475810775,-0.00355454122748,-0.002033030955598,0,0,0,0,0,0,0,0,0,0
0.169288158416748,0.053607247769833,-0.055816907435656,0.077347509562969,-0.00367198476624,-0.001110654629363,-0.002245938007902,-0.020256832181753,-0.003315903534465,-0.001387151434728,0,0,0,0,0,0,0,0,0,0
0.179828882217407,0.053641218692064,-0.055793173611164,0.077382288873196,-0.003025173755726,-0.001485000334656,-0.002499503458523,-0.020387374136159,-0.003330984186656,-0.000648947649656,0,0,0,0,0,0,0,0,0,0
0.190757751464844,0.05368522927165,-0.055777799338102,0.077355556190014,-0.002099521338925,-0.001483951385602,-0.002546798766469,-0.01985997421332,-0.002910996336465,0.001506626299123,0,0,0,0,0,0,0,0,0,0
0.201168537139893,0.053733240813017,-0.055773302912712,0.077342100441456,-0.000762114232566,-0.001059874633973,-0.002116162630186,-0.019492001088078,-0.00274887773104,0.002139266796656,0,0,0,0,0,0,0,0,0,0
0.211699485778809,0.053742311894894,-0.055794913321734,0.077328383922577,0.000346050007729,-0.000788620202001,-0.001969297161981,-0.019447099450916,-0.00263198315147,0.002566190523836,0,0,0,0,0,0,0,0,0,0
0.22219181060791,0.053859025239945,-0.0558549053967,0.077260620892048,0.001396423591512,-0.000737667905551,-0.001892691778015,-0.018659898408943,-0.002030393745816,0.002179074102709,0,0,0,0,0,0,0,0,0,0
0.232897520065308,0.053893268108368,-0.055894449353218,0.077264152467251,0.002598849984529,-0.00105693046547,-0.002062263557613,-0.018221865340042,-0.001565618555821,0.001633366985614,0,0,0,0,0,0,0,0,0,0
0.243330717086792,0.054011147469282,-0.055791832506657,0.077415950596333,0.003570732241873,-0.001164186872525,-0.001662404634084,-0.016689085585651,9.69377118829311E-05,0.000512065155188,0,0,0,0,0,0,0,0,0,0
0.253730297088623,0.054035369306803,-0.055873300880194,0.077399179339409,0.004525731533508,-0.00097679916411,-0.00071528811396,-0.01618603353133,0.00042805836841,-0.000443345628877,0,0,0,0,0,0,0,0,0,0
0.264601707458496,0.053818613290787,-0.05614310130477,0.077163010835648,0.005039395547805,-0.001556383956978,-0.00031413628048,-0.016107622111269,-0.000942266086848,-0.002209328848604,0,0,0,0,0,0,0,0,0,0
0.275411605834961,0.054016456007958,-0.056056063622236,0.077304795384407,0.0041747841733,-0.002844081301851,-0.000735796531363,-0.014693217646625,0.000620487994902,-0.003703757252975,0,0,0,0,0,0,0,0,0,0
0.285825490951538,0.054001849144697,-0.056148238480091,0.077352292835713,0.003405929510922,-0.003552948134483,-0.000674666630599,-0.013699387517866,0.00110926963611,-0.004697753331814,0,0,0,0,0,0,0,0,0,0
0.296254396438599,0.053751517087221,-0.056307155638933,0.077108636498451,0.002621048302125,-0.004346794634384,-0.000628470009059,-0.014302488280015,-0.000424259938735,-0.004907468490375,0,0,0,0,0,0,0,0,0,0
0.306811571121216,0.054049018770456,-0.056266598403454,0.077581718564034,0.001468667454898,-0.005345437329214,-0.000495104195835,-0.015972184344192,-0.00284068508387,-0.005846674921977,0,0,0,0,0,0,0,0,0,0
0.317219257354736,0.053884204477072,-0.056443650275469,0.077343598008156,0.000925651164651,-0.005834270799679,0.00059105622594,-0.016268616944784,-0.004172536809325,-0.00589000584069,0,0,0,0,0,0,0,0,0,0
0.327663898468018,0.054027754813433,-0.056367121636868,0.077578045427799,0.000755857830031,-0.006251286721833,0.001693570503362,-0.014585406895066,-0.002763789372476,-0.006499582359939,0,0,0,0,0,0,0,0,0,0
0.338170528411865,0.053795475512743,-0.056509558111429,0.077321209013462,0.000356242622607,-0.00635958685481,0.002207453536694,-0.015493540250163,-0.00466466455257,-0.005765805210135,0,0,0,0,0,0,0,0,0,0
0.3487708568573,0.053861048072577,-0.056420523673296,0.077607035636902,-0.000470456799344,-0.006174438201421,0.002373991638728,-0.013870978085426,-0.003707022632081,-0.005888288951333,0,0,0,0,0,0,0,0,0,0
0.359260320663452,0.053328908979893,-0.056345365941525,0.077127180993557,-0.002254564779741,-0.005116865469315,0.001850242176016,-0.011063809307044,-0.002195575416617,-0.005498760766951,0,0,0,0,0,0,0,0,0,0
0.369651079177856,0.053481709212065,-0.056306079030037,0.077420964837074,-0.004866357767094,-0.003435413617494,0.00058154960403,-0.014673669421987,-0.0058487268111,-0.004244328879237,0,0,0,0,0,0,0,0,0,0
0.380194902420044,0.053528904914856,-0.056314706802368,0.077398724853993,-0.006647361462749,-0.001883654955603,-6.55737565632348E-05,-0.014961874079866,-0.006128976877556,-0.003669259794478,0,0,0,0,0,0,0,0,0,0
0.391315221786499,0.053664799779654,-0.05637339502573,0.07741142809391,-0.006927264709782,-0.000837457234337,8.586469486994E-05,-0.008794919491692,-0.000487684762307,-0.003326353699949,0,0,0,0,0,0,0,0,0,0
0.401671171188355,0.053849034011364,-0.056254830211401,0.077657237648964,-0.004317462960029,3.7907299479039E-06,0.000667161341146,-0.012505789990309,-0.003750718382466,-0.001725973900272,0,0,0,0,0,0,0,0,0,0
0.412621974945068,0.053674094378948,-0.056337296962738,0.077440172433853,-0.002363179289531,0.000746585567178,0.001753122121078,-0.009290113628496,-0.000559684808172,-0.001983739506464,0,0,0,0,0,0,0,0,0,0
0.42362904548645,0.053711179643869,-0.056267000734806,0.07748381793499,-0.000924135266712,0.001209726280929,0.001947722088354,-0.009569797795876,-0.000347179124967,-0.000929533802114,0,0,0,0,0,0,0,0,0,0
0.434069395065308,0.053326770663262,-0.054861731827259,0.077042303979397,-0.000941357624992,0.004290876290844,0.000528858441158,1.91500455123153E-05,-0.013837803754171,-0.002767740900074,0,0,0,0,0,0,0,0,0,0
0.444890022277832,0.053764209151268,-0.056224059313536,0.077498637139797,-0.001664639576164,0.009729112354414,-0.001194609529569,-0.009963630564652,8.06722675568589E-05,-0.000377812945012,0,0,0,0,0,0,0,0,0,0
0.455533027648926,0.053771778941155,-0.056147821247578,0.077486962080002,-0.00085286523234,0.009192389984492,-0.001184559891063,-0.01044894449499,3.05542959343197E-05,-0.000345026623685,0,0,0,0,0,0,0,0,0,0
0.466037511825561,0.053790230304003,-0.056113049387932,0.077491901814938,0.000670550589303,0.00561741844393,-0.000172895535651,-0.011290290331512,0.000427441773207,-0.000482737443561,0,0,0,0,0,0,0,0,0,0
0.476531267166138,0.053800724446774,-0.056070126593113,0.07748768478632,0.001664680087215,0.003402821362721,0.000445535763027,-0.011821166133927,0.000487278996747,-0.000652206176681,0,0,0,0,0,0,0,0,0,0
0.486933946609497,0.05352995172143,-0.056026481091976,0.077161327004433,0.001630517746723,0.002032863115929,9.85049676095255E-05,-0.014326382207447,-0.001970668710304,-0.000954122394923,0,0,0,0,0,0,0,0,0,0
0.497367143630982,0.053559754043818,-0.055998709052801,0.077173680067062,0.000446608598619,0.001361912619343,-0.001468231342659,-0.015340451799261,-0.001749392290614,-0.001829221006331,0,0,0,0,0,0,0,0,0,0
0.508213996887207,0.053542256355286,-0.055980920791626,0.077176496386528,-0.000871894803774,0.001132489518825,-0.003154360394663,-0.015481390094734,-0.001395361739515,-0.002296203693134,0,0,0,0,0,0,0,0,0,0
0.518786907196045,0.053540285676718,-0.055949948728085,0.077196128666401,-0.001573537342285,0.000985434562254,-0.003600546627677,-0.015867755634012,-0.001190797490973,-0.002703036374567,0,0,0,0,0,0,0,0,0,0
0.529420137405396,0.053569860756397,-0.055951662361622,0.07719287276268,-0.001894932777253,0.001010169952693,-0.003596789341091,-0.016253410981677,-0.001238101939055,-0.003247881993517,0,0,0,0,0,0,0,0,0,0
0.540367603302002,0.053741853684187,-0.056167535483837,0.077170372009277,-0.001518486849932,0.000572926468892,-0.003440244025306,-0.016154354155908,-0.000658932140911,-0.003713231817823,0,0,0,0,0,0,0,0,0,0
0.550980091094971,0.053794723004103,-0.056141771376133,0.077186301350594,-0.000145261332787,-0.000630379362461,-0.002814242805698,-0.016263198909461,-7.71342669978684E-05,-0.004310636999569,0,0,0,0,0,0,0,0,0,0
0.561655282974243,0.053731773048639,-0.056169293820858,0.077181190252304,0.001128257328241,-0.001714068918929,-0.002298780028193,-0.016435930920616,-0.000672852965521,-0.004173377658914,0,0,0,0,0,0,0,0,0,0
0.572435140609741,0.053805854171515,-0.056134037673473,0.077199891209602,0.001853334822678,-0.002256097356334,-0.001730348558853,-0.016569222075834,-0.000640599639919,-0.004467897206329,0,0,0,0,0,0,0,0,0,0
0.583332300186157,0.053779691457749,-0.056133069097996,0.07717664539814,0.002289132575767,-0.002317463354695,-0.001197654856495,-0.015939502377662,-0.000527991669715,-0.00421126884124,0,0,0,0,0,0,0,0,0,0
0.59416937828064,0.053887873888016,-0.056063920259476,0.077481895685196,0.002579068717278,-0.001863522824177,-0.000133996319099,-0.014635261895761,0.000963528509925,-0.004138915354823,0,0,0,0,0,0,0,0,0,0
0.604778528213501,0.053827732801437,-0.056034404784441,0.077409006655216,0.002706307872217,-0.001020292688001,0.001572382693114,-0.015146689711448,-3.70175989832763E-05,-0.003882121486914,0,0,0,0,0,0,0,0,0,0
0.615308523178101,0.053660415112972,-0.056191593408585,0.0771913677454,0.002187808683067,-0.000504439370374,0.002324424014194,-0.015660309616951,-0.002087687872135,-0.002731095239682,0,0,0,0,0,0,0,0,0,0
0.62593936920166,0.053743053227663,-0.056204076856375,0.077181369066238,0.001056329035591,-0.00078079127568,0.001544902963399,-0.015064681730976,-0.001743573424309,-0.002494923415274,0,0,0,0,0,0,0,0,0,0
0.63632869720459,0.053805280476809,-0.056405033916235,0.077968776226044,0.000344365017205,-0.001631406255866,0.00200449168343,-0.020044870451023,-0.006390282559546,-0.003367867199997,0,0,0,0,0,0,0,0,0,0
0.646929502487183,0.053371381014586,-0.056260406970978,0.077793538570404,-0.000581653116509,-0.002700434477614,0.005221048497339,-0.022928125616216,-0.010012035980537,-0.002146404709874,0,0,0,0,0,0,0,0,0,0
0.658003807067871,0.05339328199625,-0.056306518614292,0.077791124582291,-0.002972576944158,-0.003247654938576,0.008268873016273,-0.022477318671576,-0.010493101444629,-0.00173154014283,0,0,0,0,0,0,0,0,0,0
0.668399333953857,0.0538729429245,-0.05653877556324,0.077992901206017,-0.003497020705346,-0.003182039596106,0.00820210241728,-0.018329912526416,-0.006441224544369,-0.002578408580447,0,0,0,0,0,0,0,0,0,0
0.679025650024414,0.053808629512787,-0.056494638323784,0.077905334532261,-0.001880458941586,-0.004199909920721,0.008978477771285,-0.019191374535943,-0.007396892541253,-0.002056058453932,0,0,0,0,0,0,0,0,0,0
0.689727306365967,0.053837969899178,-0.056543033570051,0.077903129160404,0.000203309928401,-0.004856254988799,0.008626988468459,-0.018271930626906,-0.00704325254256,-0.00226841467841,0,0,0,0,0,0,0,0,0,0
0.700189113616943,0.053889706730843,-0.056669142097235,0.077910982072353,0.001535742909769,-0.004974337546444,0.007086975887081,-0.017864803975309,-0.006859519521658,-0.002942125645846,0,0,0,0,0,0,0,0,0,0
0.710968494415283,0.053434386849403,-0.056492727249861,0.077714271843433,0.001678287143663,-0.005267419170974,0.005634195296638,-0.0207241425118,-0.010204772453168,-0.002115464523659,0,0,0,0,0,0,0,0,0,0
0.721731424331665,0.053476989269257,-0.056467484682798,0.077685214579105,-0.000173275405864,-0.004259431019764,0.003086290840192,-0.020626110645541,-0.010063712854992,-0.002280948084125,0,0,0,0,0,0,0,0,0,0
0.732264518737793,0.053483612835407,-0.0565918199718,0.077612608671188,-0.002000950297623,-0.002924068659925,0.000508808904142,-0.020084836992004,-0.009616435213403,-0.003136800897961,0,0,0,0,0,0,0,0,0,0
0.742772340774536,0.053503312170506,-0.056600406765938,0.077613100409508,-0.002799457745867,-0.002406964077034,-0.00143147794909,-0.020013441729212,-0.009411386692211,-0.003418906490371,0,0,0,0,0,0,0,0,0,0
0.753109693527222,0.053482092916966,-0.056562758982182,0.077609695494175,-0.002922589972549,-0.002034579956309,-0.002602527166174,-0.019681760996457,-0.008760786858644,-0.003523985705231,0,0,0,0,0,0,0,0,0,0
0.763626337051392,0.053534142673016,-0.056591235101223,0.077594801783562,-0.002826194389789,-0.001638257689552,-0.003283925938368,-0.019962422849991,-0.008957051877116,-0.003794177217588,0,0,0,0,0,0,0,0,0,0
0.774836778640747,0.053516671061516,-0.05651680007577,0.077577419579029,-0.002602858793946,-0.001231343753436,-0.003889312543298,-0.019940416994737,-0.008675107552285,-0.00409366662675,0,0,0,0,0,0,0,0,0,0
0.785418510437012,0.05355716496706,-0.056562948971987,0.077528171241284,-0.001688232425288,-0.000528266950868,-0.003496699482302,-0.019759100167533,-0.008453823356236,-0.004279130302447,0,0,0,0,0,0,0,0,0,0
0.79604959487915,0.053544521331787,-0.056564949452877,0.077502712607384,-0.001023698846317,-0.000167856261448,-0.003493489227499,-0.01963584107109,-0.008265345305613,-0.004527466726478,0,0,0,0,0,0,0,0,0,0
0.806967973709106,0.053819488734007,-0.056190606206656,0.077250108122826,9.24479210466775E-05,0.000773720254653,-0.004078346084359,-0.016535402292196,-0.004665246182245,-0.002776960787144,0,0,0,0,0,0,0,0,0,0
0.81735110282898,0.053804557770491,-0.05614135786891,0.077275216579437,0.001772865690047,0.002763940754399,-0.004621319092593,-0.016812187367118,-0.004526556517673,-0.002632039997935,0,0,0,0,0,0,0,0,0,0
0.827938318252564,0.053475737571716,-0.056325219571591,0.077113725244999,0.002580629833465,0.00454032327811,-0.005695293965403,-0.014812565574828,-0.003017533579779,-0.004243111697256,0,0,0,0,0,0,0,0,0,0
0.838359832763672,0.053621768951416,-0.056152369827032,0.077014975249767,0.001668441472734,0.004757611867921,-0.006419025440761,-0.013771837975125,-0.001878744224003,-0.003250162827763,0,0,0,0,0,0,0,0,0,0
0.848968744277954,0.053735561668873,-0.056024592369795,0.077388539910317,0.0011957365586,0.005323619637006,-0.006595864703311,-0.017692758781132,-0.005101469674851,-0.001885538906346,0,0,0,0,0,4646,1988,0,0,0
0.859410285949707,0.053555734455586,-0.056069422513247,0.077098593115807,0.00113422205182,0.00575725041908,-0.005101449185058,-0.014312393477025,-0.002207332160939,-0.002426246833961,0,0,0,0,0,4645,1987,0,0,0
0.86978030204773,0.053736090660095,-0.055991362780333,0.077392682433128,0.00086928118658,0.005788264326216,-0.003611568300591,-0.018409455988639,-0.005226088662108,-0.001312003011799,0,0,0,0,0,4644,1988,0,0,0
0.880238771438599,0.05350324511528,-0.056030075997114,0.077160805463791,0.000542215185761,0.005588433831016,-0.002292481681033,-0.014824676166849,-0.002247820549875,-0.002043436426359,0,0,0,0,0,4646,1986,0,0,0
0.891391277313232,0.053473576903343,-0.055974394083023,0.077230766415596,-0.000403717115299,0.00563896629493,-0.001613239734907,-0.014982745815275,-0.002285877838518,-0.001798463446903,0,0,0,0,0,4646,1987,0,0,0
0.901784896850586,0.053464181721211,-0.05595288053155,0.077236257493496,-0.001482125220342,0.004346720520896,-0.000952954827114,-0.015164588296772,-0.002398143068512,-0.0017098871971,0,0,0,0,0,4643,1990,0,0,0
0.912298917770386,0.053777761757374,-0.056190297007561,0.077220037579537,-0.001538886182459,0.003348889727029,-0.000455962973487,-0.015096778582667,-0.001617159168155,-0.001750717471325,0,0,0,0,0,4647,1987,0,0,0
0.923081874847412,0.053223446011543,-0.054921720176935,0.077025592327118,-0.001323371008365,0.004202913216868,-0.000569974294326,1.91500455123153E-05,-0.013837803754171,-0.002767740900074,0,0,0,0,0,4647,1987,0,0,0
0.933469533920288,0.053862910717726,-0.056080974638462,0.077498465776444,-0.001218977183622,0.006187603752491,-0.000372759682205,-0.013640954412161,9.04115376359196E-05,-0.0023342938044,0,0,0,0,0,4647,1988,0,0,0
0.943947553634644,0.053713455796242,-0.056212779134512,0.077183641493321,0.000126114423621,0.0046161274051,0.000692253836745,-0.015221936988779,-0.001798322242208,-0.001988745569569,0,0,0,0,0,4647,1985,0,0,0
0.954387664794922,0.053765393793583,-0.056178450584412,0.077186018228531,0.001788123450908,0.000254066292203,0.000982842414263,-0.014933604994731,-0.001326707732248,-0.002496686628816,0,0,0,0,0,4644,1990,0,0,0
0.964984655380249,0.053744722157717,-0.056167557835579,0.077234402298927,0.002608155248716,-0.002665916548175,0.000553785578315,-0.014781506611605,-0.000843746537301,-0.003298209305274,0,0,0,0,0,4639,1983,0,0,0
0.975405931472778,0.053434990346432,-0.05598109588027,0.077306650578976,0.00215684741397,-0.003636811363924,0.000565745854586,-0.015383459769797,-0.001183571003127,-0.003325265659548,0,0,0,0,0,4639,1983,0,0,0
0.985787630081177,0.053889274597168,-0.056120321154595,0.077577032148838,0.0013403600875,-0.00344786080816,0.001487461653985,-0.018079718534301,-0.003013012611717,-0.002932519962734,0,0,0,0,0,4640,1973,0,0,0
0.996421575546265,0.053226914256811,-0.054926421493292,0.077027589082718,0.000644186607326,-0.000859040517691,0.002185980786192,-1.91500455123153E-05,-0.013837803754171,0.002767740900074,0,0,0,0,0,4644,1962,0,0,0
1.00715184211731,0.05367361754179,-0.056355576962233,0.077460661530495,-0.000777594394603,0.002709705848124,0.001585185355951,-0.013465853202347,0.002076040136614,-0.003225451399948,0,0,0,0,0,4649,1947,0,0,0
1.01753449440002,0.05361520126462,-0.056614369153977,0.07642025500536,-0.00117063018462,0.000554132512538,-0.000535416743027,-0.011924462335892,-0.007595350007735,-0.002294017024394,0,0,0,0,0,4642,1943,0,0,0
1.02799105644226,0.053705714643002,-0.056375794112682,0.077426984906197,-0.000500366459299,-0.004280173199915,-0.003166999627796,-0.012856184842904,0.002214005872704,-0.00311889198061,0,0,0,0,0,4642,1944,0,0,0
1.03861093521118,0.053481683135033,-0.056185081601143,0.077349036931992,-0.000238514685485,-0.006278692122749,-0.002768190147457,-0.014285380580301,0.000581246354102,-0.002870227529229,0,0,0,0,0,4637,1942,0,0,0
1.04911828041077,0.053835861384869,-0.05639972910285,0.077608853578568,-4.17210155010618E-05,-0.005927250510967,0.000150198136638,-0.011793261497963,0.002871722503336,-0.002905634725184,0,0,0,0,0,4631,1949,0,0,0
1.05990052223206,0.053818602114916,-0.056352224200964,0.077469192445278,0.001108317491857,-0.005925273587534,0.002684311459948,-0.012096685513499,0.002009021081554,-0.002869724448547,0,0,0,0,0,4625,1956,0,0,0
1.07049441337585,0.053497150540352,-0.056236911565065,0.077285051345825,0.001669839870247,-0.005064110455278,0.003471566261216,-0.01302069124383,0.000533457778902,-0.002179762541664,0,0,0,0,0,4626,1962,0,0,0
1.08093786239624,0.053711675107479,-0.056449629366398,0.077393792569637,0.000932481040449,-0.003952702455924,0.00279476670129,-0.011867006218511,0.001921429621608,-0.002181820325083,0,0,0,0,0,4622,1967,0,0,0
1.09144449234009,0.053463321179152,-0.056290715932846,0.077334150671959,0.000132865691301,-0.003344108710893,0.002153249912393,-0.013017667628411,0.000446574875841,-0.001928234620609,0,0,0,0,0,4623,1978,0,0,0
1.10182905197144,0.053453862667084,-0.056312907487154,0.077350102365017,-0.000975919846452,-0.00241989475807,0.00152323438628,-0.012754021121193,0.00071922178663,-0.001840440877405,0,0,0,0,0,4622,1982,0,0,0
1.11229968070984,0.053850717842579,-0.056431382894516,0.07756932079792,-0.001340859967318,-0.001706329012192,0.001437851955343,-0.010979902613488,0.002420601764899,-0.002326813945779,0,0,0,0,0,4627,1981,0,0,0
1.12310171127319,0.053777132183313,-0.056431621313095,0.077546492218971,3.53603505637726E-05,-0.001718198527771,0.002262720956574,-0.011420120252538,0.002031645428278,-0.002276297985537,0,0,0,0,0,4631,1992,0,0,0
1.13348245620728,0.0538823120296,-0.056314174085856,0.077763229608536,0.001606737840394,-0.001405244429452,0.003152776778892,-0.015437502835736,-0.001893697508299,-0.001617203842109,0,0,0,0,0,4640,2001,0,0,0
1.14422535896301,0.053426370024681,-0.05628152936697,0.077359743416309,0.001938042530091,-0.000648352351923,0.003795050514522,-0.012861264240764,0.000223247869471,-0.002082887691166,0,0,0,0,0,4648,1996,0,0,0
1.15524744987488,0.053730424493551,-0.056406434625387,0.077552028000355,0.00087576300483,7.29316198281565E-05,0.003025317735864,-0.011882142984688,0.001894493808656,-0.002559121156294,0,0,0,0,0,4648,1996,0,0,0
1.1657886505127,0.053413201123476,-0.056281957775354,0.077386803925037,-0.000296688102145,0.000313691284544,0.001594590696085,-0.013365740176264,0.000107508013192,-0.00250938388169,0,0,0,0,0,4654,1998,0,0,0
1.17662858963013,0.053390916436911,-0.056271992623806,0.077388800680637,-0.001798475821879,0.00076260327052,0.000429593980605,-0.013664518526183,0.000199466383906,-0.002739835827467,0,0,0,0,0,4661,1996,0,0,0
1.18720388412476,0.053763810545206,-0.056394021958113,0.077596731483936,-0.002420050754282,0.000965627288059,-0.000268678883692,-0.01204998227696,0.001770581305091,-0.003134906098172,0,0,0,0,0,4667,1997,0,0,0
1.19768619537354,0.053752832114697,-0.056360621005297,0.077579952776432,-0.001119030646376,0.00059380205886,0.000173514371848,-0.012654721704654,0.001802273353568,-0.003169988082703,0,0,0,0,0,4667,1997,0,0,0
1.20841312408447,0.05369321629405,-0.056297171860933,0.07753686606884,0.000390094572741,0.000348079632421,0.00073451436142,-0.013237132383434,0.001578829669716,-0.003259112718516,0,0,0,0,0,4670,1992,0,0,0
1.21907186508179,0.053544029593468,-0.056131035089493,0.077646717429161,0.000720576456903,0.000835350381996,0.001017406346048,-0.01824921949428,-0.003270932743324,-0.002192630247921,0,0,0,0,0,4666,1992,0,0,0
1.22986888885498,0.053234629333019,-0.055131278932095,0.077020533382893,-0.000550036090839,0.004079374922802,0.000176139407044,0.0055506580724,-0.011062509076178,-0.00279829769803,0,0,0,0,0,4661,1995,0,0,0
1.24078178405762,0.053957484662533,-0.056199390441179,0.077820748090744,-0.00143541208013,0.008216591990713,-0.001137779832209,-0.016404731327977,-0.0017244947091,-0.002696980831759,0,0,0,0,0,4660,1990,0,0,0
1.25129461288452,0.053828623145819,-0.056195367127657,0.077470660209656,0.000305221390999,0.007039102241296,-0.000492784868826,-0.013519255819077,0.001164790041606,-0.003448835743734,0,0,0,0,0,4657,1991,0,0,0
1.26188230514526,0.054013065993786,-0.056159511208534,0.077789671719074,0.002657189652044,0.003966223170632,0.000746523343552,-0.017155533114909,-0.001920958058029,-0.00271441110658,0,0,0,0,0,4646,1991,0,0,0
1.27264785766602,0.054062932729721,-0.056117370724678,0.077651157975197,0.004626824901341,0.001941284102418,0.001823796813023,-0.018042040157484,-0.002686296315225,-0.002466437121586,0,0,0,0,0,4636,1988,0,0,0
1.28313302993774,0.054065283387899,-0.056091230362654,0.077604934573174,0.005724920881143,0.000709955468536,0.002204700022303,-0.018220362761667,-0.002455260270185,-0.002367460086819,0,0,0,0,0,4627,1988,0,0,0
1.29375100135803,0.053892377763987,-0.056192614138126,0.077424630522728,0.005922919085836,-8.19844750148128E-05,0.001484112997663,-0.013919841545796,0.001879072613638,-0.002699222585315,0,0,0,0,0,4627,1988,0,0,0
1.30445456504822,0.054096408188343,-0.056142684072256,0.077658221125603,0.005215815041201,-0.000858116930218,0.000509598900947,-0.017885940798628,-0.00203750981762,-0.002282765158132,0,0,0,0,0,4628,1982,0,0,0
1.31498026847839,0.053855568170548,-0.056170120835304,0.077807612717152,0.004105386641858,-0.001288038612292,0.000750338146713,-0.011510286033344,0.002724405100555,-0.002741602651298,0,0,0,0,0,4623,1977,0,0,0
1.32545161247253,0.053980935364962,-0.056511104106903,0.07675314694643,0.002793051646555,-0.002167302142669,-0.000261677580386,-0.019868425307205,0.002024055979355,-0.003692888905295,0,0,0,0,0,4627,1974,0,0,0
1.33599328994751,0.054001487791538,-0.056579150259495,0.076762273907662,0.001835511421699,-0.004204596131816,-0.00499192040399,-0.01974903350948,0.002414193942605,-0.003792307248549,0,0,0,0,0,4630,1965,0,0,0
1.34667634963989,0.053938396275044,-0.056579694151878,0.076685771346092,0.001302694002707,-0.006240908151645,-0.010082732461118,-0.020451794134394,0.002056954447065,-0.003978064556786,0,0,0,0,0,4633,1965,0,0,0
1.357666015625,0.053828127682209,-0.056696847081184,0.076785951852799,0.000396646047669,-0.007643418512037,-0.012995347314553,-0.019635854640738,0.002581950682853,-0.003687395412781,0,0,0,0,0,4637,1962,0,0,0
1.36807537078857,0.053856015205383,-0.056683789938688,0.076761528849602,-0.000726763908692,-0.007337324024896,-0.011850323969418,-0.019104085167231,0.002800786098184,-0.003718749486243,0,0,0,0,0,4641,1962,0,0,0
1.37850689888,0.053224425762892,-0.05591993778944,0.077029325067997,-0.00276469143235,-0.005556102173863,-0.010217984727984,0.008322384813332,-0.01382619401013,-0.00282516685815,0,0,0,0,0,4648,1963,0,0,0
1.38896489143372,0.053474754095078,-0.056879363954067,0.076729968190193,-0.005878763059206,-0.002737317166015,-0.007871533105771,-0.018905444076119,0.001707279008386,-0.002776428290752,0,0,0,0,0,4648,1963,0,0,0
1.39950919151306,0.053261484950781,-0.056848824024201,0.076907843351364,-0.008149272458895,-0.003092190892043,-0.006090829653984,-0.017378975645158,0.001405316928329,-0.002372335192205,0,0,0,0,0,4652,1967,0,0,0
1.40990567207336,0.053347334265709,-0.05688514187932,0.076883569359779,-0.008764560283696,-0.004866836226614,-0.004194207509322,-0.017074889086556,0.001031938007241,-0.002270765198347,0,0,0,0,0,4647,1981,0,0,0
1.42029118537903,0.053389310836792,-0.056767832487822,0.077249430119991,-0.008497916508439,-0.005443962964086,-0.001705937063052,-0.018893053820065,-0.001862079823485,-0.000952085780789,0,0,0,0,0,4653,1989,0,0,0
1.43073391914368,0.053871318697929,-0.056381076574326,0.077380038797855,-0.006326274049198,-0.004178473608684,0.001753573410155,-0.01844613378697,-0.001504654750533,-0.002526766849261,0,0,0,0,0,4651,1989,0,0,0
1.44168496131897,0.053811572492123,-0.056372456252575,0.077357664704323,-0.002615636354867,-0.001230288566119,0.005477084844141,-0.012685369238897,0.001013595941546,-0.003404454321157,0,0,0,0,0,4652,1998,0,0,0
1.45211100578308,0.053863491863012,-0.056372288614512,0.07741741091013,0.001114497175191,0.001693728042134,0.006891758000113,-0.012152545856214,0.001562331989025,-0.003339899763297,0,0,0,0,0,4648,2002,0,0,0
1.46267437934876,0.053811445832253,-0.056344274431467,0.077314376831055,0.003272784675121,0.003460392459758,0.007617924115092,-0.012546215780649,0.000927415141795,-0.003249726081872,0,0,0,0,0,4648,2008,0,0,0
1.47362613677979,0.053507294505835,-0.056527227163315,0.077344372868538,0.003828138357906,0.004242096461293,0.007519124727828,-0.012377145580905,0.000775714697971,-0.002203657800586,0,0,0,0,0,4648,2006,0,0,0
1.48412394523621,0.0538624599576,-0.056325305253267,0.077351793646813,0.002826253684949,0.003630299905369,0.005903800589722,-0.01203923335044,0.001163865976618,-0.003034456161902,0,0,0,0,0,4650,2007,0,0,0
1.49467158317566,0.053855814039707,-0.05631996691227,0.077392913401127,0.003001621524156,0.0036308739777,0.004927541520005,-0.011896600171206,0.001612754840168,-0.002907157973574,0,0,0,0,0,4647,2004,0,0,0
1.50504779815674,0.053875334560871,-0.056312635540962,0.077394545078278,0.00349039714589,0.00364727725652,0.003925181406455,-0.011720223851359,0.001696912726352,-0.002790289007288,0,0,0,0,0,4647,1998,0,0,0
1.51575207710266,0.053760446608067,-0.05647074431181,0.077623724937439,0.003577562349119,0.003308734970303,0.003799946632789,-0.01639121623908,-0.002356742948316,-0.00134186518147,0,0,0,0,0,4645,1994,0,0,0
1.52632737159729,0.053872995078564,-0.056290078908205,0.077431000769138,0.002920137540238,0.002352571453792,0.003722632484818,-0.012534603632558,0.002038763646359,-0.002658573368929,0,0,0,0,0,4645,1994,0,0,0
1.5373375415802,0.053499411791563,-0.056506294757128,0.07744075357914,0.001905443672252,0.001697881644248,0.003309717906101,-0.012600795284326,0.001297838540013,-0.001831453047929,0,0,0,0,0,4648,1985,0,0,0
1.54790425300598,0.053917247802019,-0.056257031857967,0.07734988629818,0.000495120782831,0.000976494227591,0.00184066630991,-0.012541535107561,0.001498212733871,-0.002866318653988,0,0,0,0,0,4645,1980,0,0,0
1.5583872795105,0.05409450083971,-0.056245259940624,0.077611722052097,0.001013187006603,0.001130580358179,0.001080768694765,-0.015582126590828,-0.001248050287462,-0.001875970527246,0,0,0,0,0,4647,1974,0,0,0
1.56885409355164,0.053890075534582,-0.056348972022534,0.077427014708519,0.002427196249725,0.001482408993022,0.001041403960572,-0.011910205071068,0.002444397887754,-0.00282165534229,0,0,0,0,0,4645,1968,0,0,0
1.57934641838074,0.054058190435171,-0.056305609643459,0.077610284090042,0.002984512796874,0.001263883358002,0.001088680933674,-0.01584899856836,-0.001677800065762,-0.002205748593312,0,0,0,0,0,4646,1971,0,0,0
1.5900673866272,0.053748842328787,-0.056526485830546,0.077598623931408,0.00281148740875,0.00054506862585,0.001426904959079,-0.015051266912286,-0.001868900749929,-0.001534076259512,0,0,0,0,0,4643,1966,0,0,0
1.60057258605957,0.053221739828587,-0.05588886141777,0.077021278440952,0.000271528525216,0.000531965782794,0.000557274559096,0.0055506580724,-0.011062509076178,-0.00279829769803,0,0,0,0,0,4638,1970,0,0,0
1.61102223396301,0.054019704461098,-0.056370992213488,0.07756581902504,-0.002426048888469,0.001674704288783,-0.001290395730013,-0.014808970820533,-0.001504470705443,-0.002529502678332,0,0,0,0,0,4638,1972,0,0,0
1.62167859077454,0.054064486175776,-0.056442551314831,0.077589131891728,-0.001648274450943,0.001471206927328,-0.001263678686767,-0.014275738515549,-0.001645559271889,-0.002733968094895,0,0,0,0,0,4638,1972,0,0,0
1.63221716880798,0.053756579756737,-0.056531172245741,0.0774300172925,0.000274865292791,-0.00034286197769,-0.000176542994262,-0.014600944973533,-0.002687464699587,-0.002526922760702,0,0,0,0,0,4636,1975,0,0,0
1.64270782470703,0.053784433752298,-0.056534361094236,0.077399730682373,0.00029080861105,-0.001940869628681,-0.000177711652471,-0.013821201731842,-0.002471649937302,-0.002458454143308,0,0,0,0,0,4638,1981,0,0,0
1.65301203727722,0.053758397698403,-0.056579373776913,0.077428385615349,-0.000294272472325,-0.00297360625652,-0.000543770550048,-0.01373965287237,-0.002375157401589,-0.002519092523632,0,0,0,0,0,4639,1983,0,0,0
1.66366028785706,0.05375512316823,-0.056563191115856,0.077428884804249,-0.000729718031908,-0.003780458047925,-0.000714586127078,-0.013643088229999,-0.002726550765695,-0.002430810181363,0,0,0,0,0,4638,1983,0,0,0
1.67463827133179,0.053661048412323,-0.05652866140008,0.077455632388592,-0.001254112933152,-0.004004433441837,-0.000652871028126,-0.014411843321806,-0.004034027656,-0.002402282783861,0,0,0,0,0,4643,1990,0,0,0
1.6849672794342,0.053453780710697,-0.056554172188044,0.077290438115597,-0.00209164314728,-0.003150894115498,-0.000709584208002,-0.010775077824402,-0.000599406990072,-0.00307139181477,0,0,0,0,0,4643,1985,0,0,0
1.69568371772766,0.053568001836538,-0.056417983025313,0.077500715851784,-0.003548436072055,-0.002523797052461,-0.00099659935109,-0.015300802738482,-0.005274055605231,-0.002338987544284,0,0,0,0,0,4644,1990,0,0,0
1.70652914047241,0.053463496267796,-0.056303195655346,0.077607616782189,-0.004327275794474,-0.001033180236707,-0.000307688206328,-0.016654719146091,-0.006489092400556,-0.002083824659539,0,0,0,0,0,4644,1990,0,0,0
1.71706867218018,0.053428579121828,-0.056205026805401,0.077644661068916,-0.004413120594593,0.000975062736811,0.001101089708688,-0.017735594723468,-0.007303900912608,-0.001956027953392,0,0,0,0,0,4648,1994,0,0,0
1.72795009613037,0.053239643573761,-0.056205905973911,0.077461615204811,-0.005236513466984,0.002908682690629,0.001980339276556,-0.014626796946974,-0.004192235361683,-0.002579775110723,0,0,0,0,0,4652,1991,0,0,0
1.73853611946106,0.053342841565609,-0.056104127317667,0.077749632298946,-0.00549356340209,0.004040794129874,0.002126314388258,-0.02006486701576,-0.008720967360933,-0.001963552729621,0,0,0,0,0,4655,1990,0,0,0
1.74894452095032,0.053274631500244,-0.055888392031193,0.078252568840981,-0.005255763524751,0.00519998271476,0.003879097613323,-0.019376110443823,-0.006919508537993,-0.001927306302067,0,0,0,0,0,4652,1996,0,0,0
1.75942087173462,0.053252663463354,-0.055839084088802,0.07827689498663,-0.004924794114018,0.006834851096745,0.007495545226059,-0.020080115956285,-0.007171487993446,-0.001857737326725,0,0,0,0,0,4652,1996,0,0,0
1.76978993415833,0.053209453821182,-0.055791657418013,0.078356638550758,-0.004491874155105,0.007842932976924,0.010224008715336,-0.021357917141274,-0.007547987352725,-0.001931412218516,0,0,0,0,0,4653,1990,0,0,0
1.78031611442566,0.053178288042545,-0.055754370987415,0.07842380553484,-0.00428859174922,0.00847569594203,0.011976988237349,-0.021940296716833,-0.007382904388133,-0.001829739801811,0,0,0,0,0,4651,1988,0,0,0
1.79134273529053,0.053190320730209,-0.055642396211624,0.078384652733803,-0.004239431465675,0.009198302865573,0.013262481335938,-0.022912013973961,-0.007493682496034,-0.001710730381992,0,0,0,0,0,4651,1989,0,0,0
1.80196285247803,0.053239889442921,-0.055605128407478,0.078357897698879,-0.003264598688251,0.008409095079959,0.011318460598259,-0.022498769316677,-0.007118922533775,-0.001608464702557,0,0,0,0,0,4645,1987,0,0,0
1.81265330314636,0.053225487470627,-0.055587649345398,0.078384518623352,-0.002355723786335,0.00803960806874,0.009586178016785,-0.022673886355087,-0.006888914563246,-0.001513937919624,0,0,0,0,0,4643,1985,0,0,0
1.82342958450317,0.053245529532433,-0.055629141628742,0.078401081264019,-0.001487639970829,0.007188152459888,0.007758338103033,-0.023100395954176,-0.006971821357644,-0.001544738561506,0,0,0,0,0,4644,1982,0,0,0
1.83395147323608,0.054182890802622,-0.055780082941055,0.077065177261829,0.001255749068466,0.005233689743627,0.002912757750454,0.0055506580724,-0.011062509076178,-0.00279829769803,0,0,0,0,0,4644,1982,0,0,0
1.84464430809021,0.053241342306137,-0.055626757442951,0.07834766805172,0.004977577345477,0.003431037576229,-0.003166483375452,-0.022660095296874,-0.006981861515243,-0.001585496653473,0,0,0,0,0,4639,1979,0,0,0
1.85552573204041,0.053260967135429,-0.055633440613747,0.07833443582058,0.005044233538762,0.002285794400142,-0.004315471523176,-0.022404268790377,-0.00684737329979,-0.001607101095389,0,0,0,0,0,4637,1981,0,0,0
1.86637020111084,0.053275663405657,-0.055748879909515,0.078357726335526,0.00257351612416,0.001345959170036,-0.001771311722249,-0.021697083311578,-0.006354405300498,-0.001620070957427,0,0,0,0,0,4637,1981,0,0,0
1.8769543170929,0.053308583796024,-0.055759079754353,0.078309498727322,0.000959408039966,0.000109374980203,-7.87910395119517E-05,-0.021080127901349,-0.00657874919343,-0.00176543757133,0,0,0,0,0,4638,1976,0,0,0
1.88767004013062,0.053326267749071,-0.055823899805546,0.078280165791512,0.000145054225024,-0.001073967448609,0.000735275219341,-0.020227159724386,-0.00629133333229,-0.001653758124288,0,0,0,0,0,4638,1982,0,0,0
1.89827418327332,0.053367797285318,-0.055929072201252,0.078209571540356,-0.000151049280813,-0.002197197753309,0.000782883498574,-0.018576574068344,-0.005898088174791,-0.001754716767305,0,0,0,0,0,4639,1972,0,0,0
1.90883135795593,0.053337559103966,-0.056004524230957,0.078201599419117,-0.000171012851436,-0.003424672356438,0.000371995044341,-0.018171860038629,-0.005920703557003,-0.001722286638164,0,0,0,0,0,4641,1980,0,0,0
1.91925382614136,0.053193539381027,-0.056156199425459,0.077959336340427,-0.000503603474039,-0.004652621337773,-0.000596652959126,-0.013218599135175,-0.002405100651276,-0.002349399228214,0,0,0,0,0,4641,1978,0,0,0
1.92979764938355,0.053208332508803,-0.056222997605801,0.0779197961092,-0.001327348049277,-0.006112917465727,-0.002296967300384,-0.012146260847358,-0.002028981217462,-0.002352047246195,0,0,0,0,0,4645,1979,0,0,0
1.94059658050537,0.053164251148701,-0.056326556950808,0.077921636402607,-0.002140017744932,-0.007551121568951,-0.003987875278912,-0.010805716854901,-0.002521830476461,-0.002471639307739,0,0,0,0,0,4645,1981,0,0,0
1.95097541809082,0.053144186735153,-0.056383207440376,0.077875807881355,-0.002439091025193,-0.00774437193116,-0.004469843873519,-0.010174166778029,-0.003041850307372,-0.00249841102081,0,0,0,0,0,4646,1983,0,0,0
1.96152925491333,0.053089808672667,-0.056389816105366,0.077882409095764,-0.002871000893212,-0.008207028759109,-0.004865899798425,-0.009964840983633,-0.003857019569667,-0.002647007692302,0,0,0,0,0,4649,1989,0,0,0
1.97217750549316,0.052988197654486,-0.05639360845089,0.077935919165611,-0.003377150051054,-0.007907596414491,-0.004632053179045,-0.009681231935441,-0.004795962082966,-0.002523663431417,0,0,0,0,0,4649,1989,0,0,0
1.98263239860535,0.053220760077238,-0.055876471102238,0.07704072445631,-0.003299140890323,-0.005661271465712,-0.005524425574283,0.0055506580724,-0.011062509076178,-0.00279829769803,0,0,0,0,0,4649,1989,0,0,0
1.99321746826172,0.052522864192724,-0.056327745318413,0.078118182718754,-0.003787488130699,-0.002760712191914,-0.007247165330933,-0.011372920856284,-0.010665273504928,-0.002619133008279,0,0,0,0,0,4648,1987,0,0,0
2.00362372398376,0.052360817790032,-0.056266263127327,0.078186072409153,-0.006311182192706,-0.001252494208014,-0.004681171042164,-0.011978136126634,-0.012822482247867,-0.002641953504345,0,0,0,0,0,4646,1985,0,0,0
2.01407337188721,0.051962651312351,-0.056168489158154,0.078357182443142,-0.010421554053641,-0.000721438608999,4.67475482878363E-05,-0.01297098929781,-0.017528542568681,-0.0021981482558,0,0,0,0,0,4641,1978,0,0,0
2.02468109130859,0.051798358559609,-0.056189134716988,0.078496098518372,-0.014784826438155,0.000177057075254,0.004283987602566,-0.012950655696174,-0.019146097482566,-0.00187320504481,0,0,0,0,0,4638,1972,0,0,0
2.03503894805908,0.051653999835253,-0.05615683272481,0.078528895974159,-0.017143790567084,0.000889170342552,0.007267092510255,-0.012747004090892,-0.021137108915636,-0.001575966795671,0,0,0,0,0,4638,1972,0,0,0
2.04560303688049,0.05148334056139,-0.056199133396149,0.078642494976521,-0.019472902489858,0.001315013919429,0.009601895429006,-0.012378170492859,-0.022806896485544,-0.001119286701816,0,0,0,0,0,4631,1960,0,0,0
2.0569269657135,0.051302153617144,-0.056118234992027,0.0787757858634,-0.022825989207912,0.001691140507603,0.012264928653282,-0.012427035012995,-0.025572845957426,-0.000329307952094,0,0,0,0,0,4631,1966,0,0,0
2.06748175621033,0.050438091158867,-0.055583763867617,0.07804349064827,-0.021508472086595,0.002811673680226,0.009762524167654,-0.020647387190579,-0.026189975418833,0.005344234022839,0,0,0,0,0,4628,1958,0,0,0
2.07830095291138,0.050326514989138,-0.055442295968533,0.078135319054127,-0.02570111048706,0.006337186488279,0.005841795276756,-0.022180639571873,-0.027880823572179,0.005805829654969,0,0,0,0,0,4633,1976,0,0,0
2.08886861801147,0.051014315336943,-0.055738583207131,0.079177677631378,-0.025139280997958,0.008625857966393,0.003526402212233,-0.015872805920768,-0.029694619209957,0.001719447805268,0,0,0,0,0,4633,1976,0,0,0
2.09961915016174,0.05076439678669,-0.055380560457707,0.079615786671639,-0.021699926633425,0.009511412029632,0.007612227975868,-0.019462431443417,-0.033080986748417,0.003345343714612,0,0,0,0,0,4636,2019,0,0,0
2.1100926399231,0.050606362521649,-0.055264517664909,0.079857379198074,-0.016259468516499,0.009715916645163,0.013410730028881,-0.021390837761034,-0.035159354867262,0.004145221072807,0,0,0,0,0,4638,2048,0,0,0
2.12060737609863,0.050478972494602,-0.055059529840946,0.080139629542828,-0.013566286021379,0.010975685930134,0.018692085017724,-0.024283600606521,-0.037972985133069,0.004906683891772,0,0,0,0,0,4648,2060,0,0,0
2.13110280036926,0.050184361636639,-0.054756805300713,0.080962911248207,-0.012056046906263,0.012453643322083,0.023639403881668,-0.030573624958811,-0.043565565562541,0.006580977006405,0,0,0,0,0,4648,2060,0,0,0
2.14175701141357,0.05009188503027,-0.054630301892758,0.081486858427525,-0.01208014203569,0.014642213791003,0.030602657938697,-0.033639069528538,-0.045637996708023,0.0073369349484,0,0,0,0,0,4651,2059,0,0,0
2.15220952033997,0.050124406814575,-0.054410420358181,0.081995442509651,-0.011369982108288,0.015608379633455,0.035663565195751,-0.036114016345866,-0.047011041168234,0.00784355253827,0,0,0,0,0,4659,2058,0,0,0
2.16278767585754,0.050053708255291,-0.054319344460964,0.082626320421696,-0.010602718053882,0.016865949434865,0.041708819448982,-0.038764675994823,-0.04791956440923,0.008544086150121,0,0,0,0,0,4665,2043,0,0,0
2.17389631271362,0.050000682473183,-0.054138891398907,0.084079951047897,-0.010210001316521,0.01869899036717,0.052243955247661,-0.044315403377753,-0.049403075816315,0.009546280996792,0,0,0,0,0,4662,2024,0,0,0
2.1844494342804,0.049778655171394,-0.054150264710188,0.085100755095482,-0.008499619753956,0.016514516144313,0.056263844098248,-0.045345958334539,-0.049065312630409,0.009929595271781,0,0,0,0,0,4661,2018,0,0,0
2.19491648674011,0.049679078161717,-0.054092936217785,0.086039416491985,-0.00835055930482,0.014894893868863,0.064788115900201,-0.048519613771125,-0.051394075068967,0.009687743346231,0,0,0,0,0,4655,1994,0,0,0
2.2055356502533,0.049572870135307,-0.053973127156496,0.087848752737045,-0.008920253448488,0.013527824613408,0.076637878086881,-0.050846299706928,-0.053028583619197,0.008862484287848,0,0,0,0,0,4653,1990,0,0,0
2.2159595489502,0.049524579197168,-0.053944375365973,0.08886206895113,-0.00881694581017,0.01153003307956,0.085153702237946,-0.051396122589157,-0.052430336673042,0.008199810178471,0,0,0,0,0,4647,1974,0,0,0
2.2263810634613,0.049445193260908,-0.053887512534857,0.089900650084019,-0.008744752622414,0.010024973852465,0.094678346657067,-0.052753415864311,-0.052536092653894,0.007356012872288,0,0,0,0,0,4647,1974,0,0,0
2.23685383796692,0.0492880679667,-0.053852293640375,0.091068781912327,-0.008774899405489,0.008656477880409,0.102208555278454,-0.052293604512164,-0.052882964526481,0.006312861061806,0,0,0,0,0,4639,1969,0,0,0
2.24746346473694,0.049316711723805,-0.053685013204813,0.093325719237328,-0.008944546885497,0.007773891539169,0.111718605043783,-0.054288833454874,-0.052871981431644,0.004971909625046,0,0,0,0,0,4631,1960,0,0,0
2.25800442695618,0.049291092902422,-0.053658053278923,0.094337925314903,-0.008298728756083,0.007157999138681,0.119003136262212,-0.053661143780728,-0.052930753739093,0.003016093079086,0,0,0,0,0,4623,1950,0,0,0
2.2683846950531,0.049321491271257,-0.053632352501154,0.095471322536469,-0.007013066035018,0.006531309014142,0.121845614446617,-0.052002281181503,-0.051108968424272,0.001431390493021,0,0,0,0,0,4620,1944,0,0,0
2.27903962135315,0.049295663833618,-0.053634099662304,0.09654712677002,-0.005989306651068,0.006128666212645,0.129895055925639,-0.05034791738458,-0.049331598661945,-8.92852420636345E-05,0,0,0,0,0,4620,1941,0,0,0
2.28989934921265,0.04901372641325,-0.053666993975639,0.098854504525662,-0.005415586123705,0.005291460191819,0.135962468440353,-0.045617862249113,-0.043784469225985,-0.003182554868753,0,0,0,0,0,4614,1945,0,0,0
2.30029988288879,0.048716947436333,-0.053938742727041,0.10007131844759,-0.00589873729638,0.003147518467038,0.129152144809625,-0.045593798485026,-0.044541961828478,-0.007129047686109,0,0,0,0,0,4610,1960,0,0,0
2.31076121330261,0.048862244933844,-0.053874664008617,0.101116694509983,-0.007512249994201,0.00071807549097,0.133061363953239,-0.045979843175804,-0.04346486848641,-0.009764243204315,0,0,0,0,0,4605,2006,0,0,0
2.32124829292297,0.048612777143717,-0.053921837359667,0.10254080593586,-0.008405186117339,-0.001297371251167,0.133536313058535,-0.043188518589465,-0.040588205252278,-0.010942132455265,0,0,0,0,0,4605,2006,0,0,0
2.33178925514221,0.048388607800007,-0.053843557834625,0.105040699243546,-0.009497813949821,-0.002372453471193,0.136334770384604,-0.040338112874567,-0.037973369295639,-0.014070955876206,0,0,0,0,0,4592,2076,0,0,0
2.34233641624451,0.048169534653425,-0.053788878023625,0.106412403285503,-0.011230764322777,-0.002488729814271,0.141787904179833,-0.039505806324761,-0.036867519200844,-0.015831056711443,0,0,0,0,0,4579,2122,0,0,0
2.352694272995,0.052209455519915,-0.055709023028612,0.078015677630901,-0.003961270336606,-0.005851650624563,0.080390845259743,0.005579153634803,-0.030436320116225,-0.00285278459,0,0,0,0,0,4572,2119,0,0,0
2.36315369606018,0.048166163265705,-0.053430888801813,0.109127879142761,0.008848712077316,-0.010856804105074,-0.013406112859168,-0.036401269128399,-0.031033933326816,-0.01868476899762,0,0,0,0,0,4565,2105,0,0,0
2.37423610687256,0.048076651990414,-0.053175512701273,0.111698739230633,0.008533436676895,-0.007843872864996,0.002659818301535,-0.035192636693054,-0.027232650906559,-0.020533874433102,0,0,0,0,0,4563,2080,0,0,0
2.38475394248962,0.048105604946613,-0.053068194538355,0.113135293126106,-0.002347997739202,0.00185172695903,0.08982954418382,-0.035414894144868,-0.025212858631113,-0.021358730004542,0,0,0,0,0,4587,2061,0,0,0
2.39530515670776,0.048138711601496,-0.05299824103713,0.114563666284084,-0.008473991363304,0.0084446176365,0.151172792476221,-0.036353455483225,-0.024031460617606,-0.021762542502412,0,0,0,0,0,4622,2100,0,0,0
2.40647554397583,0.047855950891972,-0.052771020680666,0.117571666836739,-0.013154650029332,0.014115776597898,0.210786368864784,-0.035333216519731,-0.018113292263978,-0.021817624084768,0,0,0,0,0,4637,2164,0,0,0
2.41684556007385,0.047955963760614,-0.052596181631088,0.118842273950577,-0.013300662736612,0.01516094241671,0.207874911934597,-0.034948814363331,-0.016539308819084,-0.0221494623658,0,0,0,0,0,4632,2185,0,0,0
2.4278576374054,0.047786854207516,-0.05244255438447,0.120276011526585,-0.015228860058318,0.018921539267123,0.242141886050693,-0.034822950148369,-0.014488336114408,-0.021571857988643,0,0,0,0,0,4625,2211,0,0,0
2.43868613243103,0.047702819108963,-0.052330799400807,0.121889047324657,-0.014335297097797,0.019157752247444,0.231929476848521,-0.03537869784775,-0.012033219987888,-0.021273667929899,0,0,0,0,0,4634,2217,0,0,0
2.44946527481079,0.047785878181458,-0.052088789641857,0.124651059508324,-0.013154667651076,0.019028288108052,0.222449101696909,-0.036500134856727,-0.011034511339079,-0.021757122262446,0,0,0,0,0,4663,2219,0,0,0
2.46011161804199,0.047727659344673,-0.052006386220455,0.126320898532867,-0.010988686417991,0.018335110119511,0.2114033550597,-0.035814991854771,-0.00715749544199,-0.021994193001215,0,0,0,0,0,4675,2208,0,0,0
2.47061228752136,0.04771938547492,-0.052160877734423,0.127503708004951,-0.008699863543934,0.016619742992184,0.198918851145653,-0.03596097277532,-0.006773052096262,-0.0216663385466,0,0,0,0,0,4675,2208,0,0,0
2.48102116584778,0.047849129885435,-0.051966734230518,0.130964338779449,-0.006445618984898,0.014068874180925,0.189482340607405,-0.040913335082076,-0.008452384631674,-0.021149269572566,0,0,0,0,0,4679,2174,0,0,0
2.49157357215881,0.047982648015022,-0.05152390897274,0.13263900578022,-0.00385375261888,0.01311514487874,0.193914321825004,-0.040190673412244,-0.005847630032475,-0.021855182471549,0,0,0,0,0,4681,2120,0,0,0
2.50194668769836,0.049406569451094,-0.053694814443588,0.087572857737541,0.00202255563012,0.008523772612351,0.092122475652581,-0.033559236189622,-0.069053974667472,0.009468035793393,0,0,0,0,0,4673,2093,0,0,0
2.51243543624878,0.048152625560761,-0.051297087222338,0.135693058371544,0.009244294495689,0.002022510865953,-0.06183162727329,-0.041754732366247,-0.005924332347558,-0.021561571064309,0,0,0,0,0,4676,2057,0,0,0
2.52333998680115,0.048307970166206,-0.051190335303545,0.138985544443131,0.011815758986475,0.003511596632697,-0.045246683223493,-0.042031637275065,-0.002617516129618,-0.020790134340771,0,0,0,0,0,4671,2028,0,0,0
2.53383684158325,0.048363387584686,-0.051255695521832,0.14049120247364,0.009282524478977,0.009018622489073,0.08986583279217,-0.038351461233013,0.002441002611911,-0.020403102870982,0,0,0,0,0,4671,1944,0,0,0
2.54433369636536,0.048711463809013,-0.05115731805563,0.142322838306427,0.00863233868677,0.011944745097283,0.181175219564271,-0.042512540134676,-0.000604125522217,-0.018840946356321,0,0,0,0,0,4666,1876,0,0,0
2.55496287345886,0.048844717442989,-0.051174871623516,0.14403823018074,0.009518288402946,0.013259352045902,0.242136964665019,-0.04298399264526,0.001443219890246,-0.01808158775856,0,0,0,0,0,4662,1847,0,0,0
2.56544303894043,0.049031142145395,-0.051319494843483,0.147245317697525,0.010537561814848,0.012246397086887,0.26735009569188,-0.040315823232153,0.007395062988817,-0.015903304974435,0,0,0,0,0,4662,1847,0,0,0
2.57602143287659,0.049405604600906,-0.051292113959789,0.149047762155533,0.01242680484553,0.010327397922174,0.288752449757398,-0.044205963600616,0.004868746522943,-0.013089645127028,0,0,0,0,0,4666,1831,0,0,0
2.58653450012207,0.049514621496201,-0.051337026059628,0.150667294859886,0.014438608248434,0.007711811810294,0.288381550663068,-0.044736456692722,0.0056588778615,-0.01212479841208,0,0,0,0,0,4675,1827,0,0,0
2.597012758255,0.049368616193533,-0.050716608762741,0.150700658559799,0.015351343225365,0.006595734400781,0.273701416884804,-0.042769363178433,-0.002086534826128,-0.015218872676755,0,0,0,0,0,4686,1841,0,0,0
2.60781812667847,0.050143837928772,-0.051429193466902,0.155338972806931,0.016704659536015,0.006745862609083,0.268714895198158,-0.047239878028094,0.007051206240127,-0.007274244904799,0,0,0,0,0,4694,1848,0,0,0
2.61823487281799,0.049955658614636,-0.050362072885037,0.15686009824276,0.016942310227065,0.006238789040489,0.238862484487148,-0.048676148456502,0.007108755347971,-0.010300616810272,0,0,0,0,0,4699,1858,0,0,0
2.62892413139343,0.049945455044508,-0.049827668815851,0.158329740166664,0.017824671178898,0.010156815453692,0.239152948622052,-0.050405278480107,0.005634704817858,-0.012522420541194,0,0,0,0,0,4713,1867,0,0,0
2.63957762718201,0.050531044602394,-0.051300242543221,0.160900890827179,0.016975332478578,0.012864564641148,0.224511384034908,-0.05157082198342,0.002887290364901,-0.003346386044398,0,0,0,0,0,4723,1881,0,0,0
2.64999222755432,0.050644807517529,-0.051367521286011,0.162340313196182,0.016992549794818,0.007848187104664,0.20475001014069,-0.052866410160201,0.002294993224382,-0.002132869527983,0,0,0,0,0,4719,1885,0,0,0
2.66049671173096,0.050790436565876,-0.051430240273476,0.163680970668793,0.018184866048179,0.000931802424094,0.197018835423927,-0.053316381537649,0.002487323951597,-0.000491294064277,0,0,0,0,0,4719,1885,0,0,0
2.67118620872498,0.050915688276291,-0.051431879401207,0.164914533495903,0.018852911451494,-0.004092195942818,0.189865777136642,-0.053035378081667,0.00218187221942,0.000888780275231,0,0,0,0,0,0,0,0,0,0
2.68164539337158,0.051187541335821,-0.051669165492058,0.167214587330818,0.017944003206646,-0.007250849725653,0.170821014596857,-0.053072223408297,0.001080069657187,0.002798930558574,0,0,0,0,0,0,0,0,0,0
2.6921112537384,0.051323987543583,-0.051792312413454,0.168342143297195,0.017940775085503,-0.009950177371356,0.163045209756271,-0.052862311641035,0.000657459469408,0.003881826381609,0,0,0,0,0,0,0,0,0,0
2.70258402824402,0.05146399885416,-0.052002262324095,0.169418007135391,0.01780894932676,-0.012232284834982,0.155734529324224,-0.050891233310033,0.00211300190885,0.00520053791237,0,0,0,0,0,0,0,0,0,0
2.71321702003479,0.051451686769724,-0.05211578682065,0.170493096113205,0.017462350419136,-0.014331470353698,0.150451647859318,-0.049536819871759,0.002682347605875,0.005808939113991,0,0,0,0,0,0,0,0,0,0
2.72422885894775,0.052033111453056,-0.052144337445498,0.171765074133873,0.017887794507598,-0.01609647981486,0.149419471418253,-0.044921347804722,0.004206834859425,0.004837042598334,0,0,0,0,0,0,0,0,0,0
2.73482489585876,0.052096873521805,-0.052324958145619,0.172627106308937,0.01721220631589,-0.014843847438807,0.129514821071563,-0.044383635300682,0.003555076844219,0.005206381451204,0,0,0,0,0,4694,1972,0,0,0
2.74556994438171,0.053101923316717,-0.051836758852005,0.172200545668602,0.019999962041148,-0.013514855404605,0.119812733096475,-0.031595157513181,0.009057524911882,0.011570021527703,0,0,0,0,0,4687,1975,0,0,0
2.75648808479309,0.052183732390404,-0.052966874092817,0.175748869776726,0.022752143537348,-0.01225383691385,0.111443659939877,-0.045528347939432,0.001630922960327,0.006494454695823,0,0,0,0,0,4687,1975,0,0,0
2.76730227470398,0.052079904824495,-0.053260631859303,0.176397308707237,0.019640078530287,-0.014294491549793,0.107677102752672,-0.040302113510392,0.005530862948174,0.005878613751359,0,0,0,0,0,4685,1993,0,0,0
2.77821207046509,0.052237447351217,-0.053460612893105,0.177402704954147,0.01429065435783,-0.018722362297851,0.110652193974854,-0.042515737120201,0.002320795009086,0.006332034255646,0,0,0,0,0,0,0,0,0,0
2.78904819488525,0.052058819681406,-0.054074447602034,0.178556263446808,0.009414217774082,-0.022126014326553,0.10802146760126,-0.043600202092813,0.001552189633521,0.006493542463734,0,0,0,0,0,0,0,0,0,0
2.79952478408813,0.052181031554937,-0.054198205471039,0.178262114524841,0.005145870800641,-0.024171840219171,0.0976217439994,-0.030042700871739,0.013838752190129,0.006226798508368,0,0,0,0,0,0,0,0,0,0
2.80995678901672,0.051690250635147,-0.05471783131361,0.178894117474556,0.001471017699351,-0.026769184999176,0.088176138201468,-0.026775453065344,0.015229902824096,0.00652088523153,0,0,0,0,0,0,0,0,0,0
2.82069563865662,0.052694164216518,-0.054009180516005,0.179587796330452,-0.000724453785814,-0.028591755843015,0.082591564825768,-0.029934355381676,0.010015088649815,0.006123770865645,0,0,0,0,0,0,0,0,0,0
2.83150267601013,0.052209604531527,-0.055257450789213,0.182555571198463,9.80888559219564E-05,-0.027324035938741,0.080226208558198,-0.046867799383909,-0.007715177821692,0.004012076978492,0,0,0,0,0,0,0,0,0,0
2.84209942817688,0.052239738404751,-0.055511109530926,0.183166518807411,0.00072589043028,-0.027236066499445,0.083382867026923,-0.046354951415758,-0.008167534467727,0.003622282596166,0,0,0,0,0,0,0,0,0,0
2.85245943069458,0.052334025502205,-0.05569938197732,0.183751747012138,0.000361117438839,-0.028239833108375,0.086077407038642,-0.04761400156782,-0.010380034430526,0.002806427629578,0,0,0,0,0,0,0,0,0,0
2.86304140090942,0.051885470747948,-0.055996909737587,0.184333145618439,-0.000352045238374,-0.030107814236558,0.090564545704811,-0.043316851748604,-0.006202534989747,0.001833547055237,0,0,0,0,0,0,0,0,0,0
2.87374019622803,0.051946971565485,-0.056412111967802,0.185308590531349,-0.002373574630547,-0.031049495615689,0.090767607230434,-0.043388437059007,-0.008212928573332,0.000714070514046,0,0,0,0,0,0,0,0,0,0
2.88416457176208,0.052127566188574,-0.056548103690147,0.186049148440361,-0.003554729990493,-0.029760605247976,0.084604817428213,-0.046423479627453,-0.010974569158018,0.000937007658766,0,0,0,0,0,0,0,0,0,0
2.89462351799011,0.052238333970308,-0.056622326374054,0.186461329460144,-0.002962847658055,-0.028962623100021,0.082310062448367,-0.046164414212847,-0.011571186601229,0.000679598090517,0,0,0,0,0,0,0,0,0,0
2.90509867668152,0.052301451563835,-0.056806709617376,0.186860799789429,-0.001354324973831,-0.026880358161594,0.077696566290794,-0.045957482058575,-0.012112219741726,0.000568292641365,0,0,0,0,0,0,0,0,0,0
2.91553449630737,0.052414074540138,-0.057197321206331,0.186360254883766,0.000506524705581,-0.024751071384031,0.068890760261897,-0.028259240524855,0.003255036288703,0.00023324914365,0,0,0,0,0,0,0,0,0,0
2.92597341537476,0.052588097751141,-0.05740375071764,0.187031760811806,0.002588970761466,-0.023822222732697,0.057866441385857,-0.033357044302474,-0.001827565817041,0.000368059551701,0,0,0,0,0,0,0,0,0,0
2.93636655807495,0.052697621285915,-0.057507794350386,0.187360972166061,0.004823756289899,-0.022871567955168,0.047948784505949,-0.0331876805861,-0.001962238342129,0.000554189225055,0,0,0,0,0,0,0,0,0,0
2.94682359695435,0.05286580324173,-0.057580415159464,0.187651887536049,0.007062761040491,-0.021657091661888,0.041650518582439,-0.033014781247241,-0.002196076433165,0.001025992638321,0,0,0,0,0,0,0,0,0,0
2.95757102966309,0.053035881370306,-0.057642988860607,0.187929645180702,0.00954276633171,-0.020468469408831,0.038001677047987,-0.027645054688146,0.002085053184945,0.001917227058499,0,0,0,0,0,0,0,0,0,0
2.96791243553162,0.053118601441383,-0.057707164436579,0.188209161162376,0.010539974789646,-0.016595134994936,0.031219614771097,-0.027662680537105,0.001787642041402,0.002381723730003,0,0,0,0,0,4615,1949,0,0,0
2.9785783290863,0.05322141200304,-0.057768363505602,0.188523426651955,0.012183126999985,-0.014881354144376,0.029758908653155,-0.027800922000999,0.000898156523121,0.002846949078334,0,0,0,0,0,4616,1965,0,0,0
2.98931574821472,0.053450860083103,-0.057825222611427,0.189091697335243,0.012998479018677,-0.012561067116098,0.028548394520764,-0.028011340334625,0.000361119768266,0.004779111908889,0,0,0,0,0,4617,1971,0,0,0
2.99991798400879,0.05365813523531,-0.057882644236088,0.189656034111977,0.013567295761866,-0.010130637715059,0.028633211482818,-0.032505252585469,-0.004216111899669,0.006149440315771,0,0,0,0,0,4619,1982,0,0,0
3.01060390472412,0.053751237690449,-0.057882413268089,0.18993453681469,0.01463181830417,-0.008356670627699,0.031083898812229,-0.032637907747395,-0.004258377019455,0.006758508881375,0,0,0,0,0,4624,1988,0,0,0
3.02110767364502,0.054124150425196,-0.057794734835625,0.190423667430878,0.015032432775826,-0.006149849107431,0.032006634330003,-0.031447077551838,-0.002822240372012,0.00732182343487,0,0,0,0,0,4627,1981,0,0,0
3.03154635429382,0.054340429604054,-0.057754196226597,0.190888494253159,0.01625844209625,-0.003886193305956,0.033569553637863,-0.03121836977773,-0.002282714019362,0.010100770788528,0,0,0,0,0,4632,1982,0,0,0
3.04196405410767,0.054453741759062,-0.057761866599321,0.191144153475761,0.017563631860423,-0.001826819859173,0.035205713046395,-0.031103850590448,-0.002532999840659,0.011137224709984,0,0,0,0,0,4632,1982,0,0,0
