T,Px,Py,Pz,Vx,Vy,Vz,Roll,Pitch,Yaw,R_rate,P_rate,Y_rate,T,M1,M2,M3,Wb1,Wb2,Wb3
0,0.0830598995089531,0.04218193143606186,0.10505279898643494,0.0,0.0,0.0,-0.00010699629230368082,-7.34585455894663e-05,6.070753529080977e-05,0.0,0.0,0.0,0.0,0.0,0.0,0.0,0.0,0.0,0.0
0.0002243518829345703,0.00046058810514863286,0.00023383947766640432,0.0005824603221033758,0.0005105819234515791,0.0002592212194609249,0.000645682570325602,-9.183296264746927e-07,1.5574598916010232e-06,4.439576367239437e-07,0.0,0.0,0.0,0.0,0.0,0.0,0.0,0.0,0.0,0.0
0.005623817443847656,0.0022006773028713207,0.0011173985034719327,0.002783226424162999,0.0038582655498651456,0.0019589651010677184,0.004879441508557418,-3.963516889521598e-06,5.72519359756704e-06,2.0237116517663495e-06,0.0,0.0,0.0,0.0,0.0,0.0,0.0,0.0,0.0,0.0
0.01102900505065918,0.005386774356496812,0.0027354208517590814,0.006813320498781324,0.014353996214095215,0.00728848895199954,0.018154172001422216,-9.125655774001463e-06,9.96473592705681e-06,4.307129308981447e-06,0.0,0.0,0.0,0.0,0.0,0.0,0.0,0.0,0.0,0.0
0.016409635543823242,0.009659908111431486,0.004905638712510202,0.012218810551266964,0.036170537400183986,0.01836733409237196,0.04574905164081476,-1.5405708008992524e-05,1.2359170240288061e-05,6.247233669091687e-06,0.0,0.0,0.0,0.0,0.0,0.0,0.0,0.0,0.0,0.0
0.02172231674194336,0.014708878153477196,0.007469869576306816,0.018605861776265168,0.07144218750840456,0.03627985377366981,0.09036510727132878,-2.1106582023454806e-05,1.3467111229511431e-05,7.95054781704001e-06,0.0,0.0,0.0,0.0,0.0,0.0,0.0,0.0,0.0,0.0
0.027105093002319336,0.02026718721702215,0.010292752784881504,0.025637429290317183,0.1201964696192335,0.061040083125197514,0.15203795586585891,-2.6145771283549246e-05,1.3889715447527662e-05,9.953900220363366e-06,0.0,0.0,0.0,0.0,0.0,0.0,0.0,0.0,0.0,0.0
0.03239250183105469,0.026110109830116347,0.013260234729884331,0.033029278642995145,0.18097155790384048,0.09190554993957512,0.22891902865367886,-3.217592010894594e-05,1.3271805825599884e-05,1.2279236821615328e-05,0.0,0.0,0.0,0.0,0.0,0.0,0.0,0.0,0.0,0.0
0.037698984146118164,0.032051714278208236,0.0162779022520713,0.040545846801968446,0.251330533577148,0.12763874107130743,0.3179258741047773,-3.9380662022940495e-05,1.2488465051530706e-05,1.5260163888241566e-05,0.0,0.0,0.0,0.0,0.0,0.0,0.0,0.0,0.0,0.0
0.04307746887207031,0.03794117016376489,0.01926905969764269,0.04799583915696663,0.3282808757541601,0.166719955020123,0.41527180962928145,-4.708175446526385e-05,1.464782810111849e-05,1.9015164674561286e-05,0.0,0.0,0.0,0.0,0.0,0.0,0.0,0.0,0.0,0.0
0.04835939407348633,0.04365831873966125,0.022172665297597677,0.055227425445742384,0.40860631079766857,0.20751561275835906,0.5168860058472337,-5.504804611161574e-05,2.020736673182458e-05,2.2783431543838887e-05,0.0,0.0,0.0,0.0,0.0,0.0,0.0,0.0,0.0,0.0
0.05364847183227539,0.04911044167394267,0.024941683730855042,0.06212374051568911,0.48912002279616973,0.2484070331025168,0.6187356714017422,-6.365184074270716e-05,2.7963348423225726e-05,2.58109433305689e-05,0.0,0.0,0.0,0.0,0.0,0.0,0.0,0.0,0.0,0.0
0.05900716781616211,0.054229388813209135,0.02754142813248546,0.06859852246837521,0.5668515136751687,0.2878854479937471,0.7170630800406016,-7.240497787943939e-05,3.7370990861952455e-05,2.824003881495332e-05,0.0,0.0,0.0,0.0,0.0,0.0,0.0,0.0,0.0,0.0
0.06435585021972656,0.05896781958197153,0.029947850561971218,0.07459200489384799,0.6391773287796202,0.3246182568591164,0.8085500722477551,-7.920050461705283e-05,4.593806698512314e-05,3.0659340693251137e-05,0.0,0.0,0.0,0.0,0.0,0.0,0.0,0.0,0.0,0.0
0.06971955299377441,0.06329628657813983,0.032146150654819496,0.08006713132206142,0.7039032979078492,0.3574910069868066,0.8904219039839344,-8.445475695102378e-05,5.197601331529831e-05,3.2996326797942176e-05,0.0,0.0,0.0,0.0,0.0,0.0,0.0,0.0,0.0,0.0
0.0750281810760498,0.0672004676386353,0.034129097430806825,0.08500585848822229,0.7593071756700674,0.38562933481514305,0.9605013165219828,-8.963830193114827e-05,5.616210836010541e-05,3.431161529816766e-05,0.0,0.0,0.0,0.0,0.0,0.0,0.0,0.0,0.0,0.0
0.08031129837036133,0.07067859460377261,0.0358956100778271,0.08940575193204414,0.8041501049787151,0.4084043772600424,1.0172224225925184,-9.474834677771426e-05,6.103853866104221e-05,3.435040913159702e-05,0.0,0.0,0.0,0.0,0.0,0.0,0.0,0.0,0.0,0.0
0.08566498756408691,0.07373870119144857,0.03744966654192117,0.09327670839915284,0.8376632600239213,0.4254254454121196,1.0596129926061009,-0.0001002833554979524,6.736379842014089e-05,3.46447289538331e-05,0.0,0.0,0.0,0.0,0.0,0.0,0.0,0.0,0.0,0.0
0.09098291397094727,0.07639591616503957,0.03879906357881762,0.0966381527610661,0.8595147762616945,0.43652350953533003,1.0872529595235525,-0.00010538696167677917,7.219122807753159e-05,3.6096955316627245e-05,0.0,0.0,0.0,0.0,0.0,0.0,0.0,0.0,0.0,0.0
0.0962667465209961,0.07867155923781483,0.03995459275581332,0.09951692572361556,0.8697635256878187,0.441728187047171,1.100216757923453,-0.00010839787673308439,7.68544950350756e-05,3.851015340781281e-05,0.0,0.0,0.0,0.0,0.0,0.0,0.0,0.0,0.0,0.0
0.10166525840759277,0.08059166193440545,0.04092935780338705,0.10194530998137391,0.868806792197514,0.44124095209478614,1.0990062068807793,-0.00010996770344457416,8.404987417780304e-05,4.1437216006349034e-05,0.0,0.0,0.0,0.0,0.0,0.0,0.0,0.0,0.0,0.0
0.1070261001586914,0.08218449948994286,0.04173778759064006,0.1039591699531977,0.8573238493842334,0.4354063504114947,1.0844785069747969,-0.00011116138092699821,9.03621529295741e-05,4.4667299418245465e-05,0.0,0.0,0.0,0.0,0.0,0.0,0.0,0.0,0.0,0.0
0.1123049259185791,0.08347945045244029,0.04239496409268039,0.10559647612147935,0.8362161496713274,0.42468208603439755,1.0577727526901524,-0.00011188746254959297,9.228838746624563e-05,4.7746253344558616e-05,0.0,0.0,0.0,0.0,0.0,0.0,0.0,0.0,0.0,0.0
0.11767220497131348,0.08450713166353892,0.04291669703844519,0.10689631164401714,0.8065493869870768,0.40961005648680704,1.0202383984544172,-0.00011852491558293628,8.368568775649551e-05,5.605804493949275e-05,0.0,0.0,0.0,0.0,0.0,0.0,0.0,0.0,0.0,0.0
0.12306404113769531,0.08529882781739172,0.04331936266154692,0.10789793580376325,0.7695018617496377,0.3907905328046044,0.973368433720442,-0.0001351437176255997,5.837208858180715e-05,8.9520537981968e-05,0.0,0.0,0.0,0.0,0.0,0.0,0.0,0.0,0.0,0.0
0.1283571720123291,0.08588483203292152,0.04361814347941565,0.10863909214553015,0.7263176801933706,0.36885796260719966,0.9187376339680893,-0.00015324886127651046,2.3599075507471558e-05,0.00015695153137358845,0.0,0.0,0.0,0.0,0.0,0.0,0.0,0.0,0.0,0.0
0.1337137222290039,0.08629359396818803,0.04382606428728809,0.10915499959905174,0.6782625614869059,0.34445568545135447,0.8579453910772399,-0.00017107232711001044,-1.3077453292956504e-05,0.0002318432688000884,0.0,0.0,0.0,0.0,0.0,0.0,0.0,0.0,0.0,0.0
0.13909506797790527,0.0865510884929909,0.04395576655736821,0.10947868444879041,0.6265835406727461,0.3182133661098082,0.7925656417033771,-0.00019266872358633303,-4.839857395993734e-05,0.0002812424206537776,0.0,0.0,0.0,0.0,0.0,0.0,0.0,0.0,0.0,0.0
0.1443769931793213,0.08668121809072293,0.044020452399777046,0.10964115966706643,0.5724752149379693,0.2907331380392029,0.7241071505732286,-0.00021781125626801903,-7.681941133359527e-05,0.000309192328364195,0.0,0.0,0.0,0.0,0.0,0.0,0.0,0.0,0.0,0.0
0.14969706535339355,0.08670678624908679,0.04403246959635873,0.10967101291731678,0.5170551474832082,0.26258160871622177,0.6539834590448794,-0.00024640277866694397,-9.787391920649413e-05,0.0003424656545599214,0.0,0.0,0.0,0.0,0.0,0.0,0.0,0.0,0.0,0.0
0.15506696701049805,0.08664849517761485,0.04400176956057213,0.10959379399624622,0.4613473718842981,0.23428044503173195,0.5834895373389994,-0.0002764699921551159,-0.00011121937835359595,0.00038155152568201175,0.0,0.0,0.0,0.0,0.0,0.0,0.0,0.0,0.0,0.0
0.1603527069091797,0.08652438005846287,0.0439364703521017,0.10943232449502738,0.4062694857154505,0.20629546715909167,0.513784244871585,-0.0003086112397450442,-0.00011817104831361018,0.00040764341640105623,0.0,0.0,0.0,0.0,0.0,0.0,0.0,0.0,0.0,0.0
0.16571831703186035,0.08635028020153379,0.04384379906225851,0.10920647804046005,0.35262283177427306,0.1790297365742903,0.445879066023375,-0.00033336396055265146,-0.0001276190877693112,0.00040419510952957827,0.0,0.0,0.0,0.0,0.0,0.0,0.0,0.0,0.0,0.0
0.17106223106384277,0.08613997244571504,0.04373069751555388,0.108933224862543,0.30108777796552044,0.1528227972620056,0.38063226260030014,-0.0003282827296391584,-0.00014100602683020708,0.0003590273193238025,0.0,0.0,0.0,0.0,0.0,0.0,0.0,0.0,0.0,0.0
0.17636728286743164,0.08590586742292658,0.04360490271510769,0.10862824384247059,0.25222420943499413,0.12795506159821743,0.3187492304091365,-0.00029740062306275164,-0.0001617436809350705,0.00028477964037459935,0.0,0.0,0.0,0.0,0.0,0.0,0.0,0.0,0.0,0.0
0.18175745010375977,0.08565844859195161,0.043472976035499364,0.10830524435894465,0.20647566358270433,0.10465351573826416,0.26078904566898675,-0.00026649450277771414,-0.00019436722947248705,0.00020877581342475642,0.0,0.0,0.0,0.0,0.0,0.0,0.0,0.0,0.0,0.0
0.18704986572265625,0.08540493355732565,0.04333942297396666,0.10797525937176947,0.16417326506500848,0.08309332548838369,0.20717245127934947,-0.0002469221966326432,-0.00022552008882738232,0.0001479584715045674,0.0,0.0,0.0,0.0,0.0,0.0,0.0,0.0,0.0,0.0
0.19237947463989258,0.08515143247977452,0.04320803769491109,0.10764748917803012,0.12554017210696852,0.06339762536663854,0.15818993549707644,-0.00024018644185815603,-0.00025626527219442486,0.00012154683072804117,0.0,0.0,0.0,0.0,0.0,0.0,0.0,0.0,0.0,0.0
0.19772911071777344,0.08490438727818786,0.043081874151453134,0.10732921591390528,0.09070242764585774,0.04564047642615353,0.1140120814756162,-0.00025177509037061337,-0.00029943513570024056,0.00014780214839660289,0.0,0.0,0.0,0.0,0.0,0.0,0.0,0.0,0.0,0.0
0.20313692092895508,0.08466852019711815,0.042963403792485214,0.10702647168441157,0.05970311151141804,0.029851924174239902,0.07470200003806868,-0.0002829452201607772,-0.0003498025375144108,0.0002156594467864162,0.0,0.0,0.0,0.0,0.0,0.0,0.0,0.0,0.0,0.0
0.20841574668884277,0.08444566172131099,0.04285269223779151,0.10674416357525834,0.0325112607995987,0.01602132123269917,0.0402291937340029,-0.00031979317817279815,-0.0003981682891176493,0.00028151197597867854,0.0,0.0,0.0,0.0,0.0,0.0,0.0,0.0,0.0,0.0
0.21377134323120117,0.08423610889645582,0.04274894762745402,0.10648544223674927,0.00902728796338793,0.004098739097637866,0.010483052450420091,-0.0003398023928883717,-0.0004470659821972101,0.0003140620507570618,0.0,0.0,0.0,0.0,0.0,0.0,0.0,0.0,0.0,0.0
0.21916866302490234,0.0840413595766386,0.04265538095767034,0.10625249811417803,-0.01090641565820857,-0.005996230939132085,-0.014714941767229338,-0.0003253785767545108,-0.0005026287045268556,0.000333622930189619,0.0,0.0,0.0,0.0,0.0,0.0,0.0,0.0,0.0,0.0
0.22452688217163086,0.08386409853360871,0.042577043094254585,0.10604783865043454,-0.027488149704344836,-0.014356659781455885,-0.035597454291859724,-0.0002958005738501647,-0.0005688678486954544,0.00038679922838079204,0.0,0.0,0.0,0.0,0.0,0.0,0.0,0.0,0.0,0.0
0.22985076904296875,0.08370553071365258,0.04251618825594859,0.10587365924836309,-0.040942080584844845,-0.021078278504251497,-0.05243606102655542,-0.00029827618559390574,-0.0006500728287334061,0.0004958389050101532,0.0,0.0,0.0,0.0,0.0,0.0,0.0,0.0,0.0,0.0
0.23525190353393555,0.08356562687622474,0.04247285679689415,0.1057300221177351,-0.05151145222542643,-0.026263441012596315,-0.06553018160769399,-0.0003533159249742774,-0.0007370875869770295,0.0006508579390304201,0.0,0.0,0.0,0.0,0.0,0.0,0.0,0.0,0.0,0.0
0.24053549766540527,0.08344394022793124,0.04244707773764281,0.10561610632979541,-0.05945423257357523,-0.030025556615199806,-0.07520094899523211,-0.0004653044038027329,-0.0008225900911170438,0.0008295740775464504,0.0,0.0,0.0,0.0,0.0,0.0,0.0,0.0,0.0,0.0
0.245896577835083,0.08333950169370014,0.04243831039935092,0.1055319596393433,-0.06503733411144089,-0.03248748426351793,-0.08178312419795905,-0.000641451745487756,-0.0009074130876912843,0.0010099541632945998,0.0,0.0,0.0,0.0,0.0,0.0,0.0,0.0,0.0,0.0
0.25125813484191895,0.0832517171874145,0.04244497557633655,0.10547646947334992,-0.06853011957435436,-0.033779353207179466,-0.08561529898413059,-0.0008837618848723595,-0.0009805032410051492,0.0011848059755129444,0.0,0.0,0.0,0.0,0.0,0.0,0.0,0.0,0.0,0.0
0.2565793991088867,0.08317987945276871,0.042465894171039326,0.1054466814674157,-0.07019781490390926,-0.03403672019483237,-0.08703527721053453,-0.0011938654977634929,-0.00102411629984182,0.0013596449772014046,0.0,0.0,0.0,0.0,0.0,0.0,0.0,0.0,0.0,0.0
0.2619132995605469,0.08312341566001613,0.042500298202176184,0.10544050463860662,-0.07029613919567498,-0.033396291357203366,-0.08637715495680114,-0.0015885842820996018,-0.0010194585775873618,0.001539804489581827,0.0,0.0,0.0,0.0,0.0,0.0,0.0,0.0,0.0,0.0
0.2672278881072998,0.08308164888242037,0.04254693154327874,0.10545665154632243,-0.06906747173798022,-0.03199184847193923,-0.08396388865687576,-0.0020909892443472886,-0.0009646229702887851,0.0017300966911079952,0.0,0.0,0.0,0.0,0.0,0.0,0.0,0.0,0.0,0.0
0.2725341320037842,0.08305275897585919,0.04260416728689916,0.10549241923634853,-0.06673948458732423,-0.029952902975612955,-0.08010118440152153,-0.0026793040178987853,-0.0008700601207118629,0.0019288098669670794,0.0,0.0,0.0,0.0,0.0,0.0,0.0,0.0,0.0,0.0
0.27788519859313965,0.0830354221969515,0.04267089898155115,0.10554570438428389,-0.06352512424924957,-0.027403461459037142,-0.07507573923076981,-0.0032992885143615777,-0.0007387635377820338,0.0021252988541618453,0.0,0.0,0.0,0.0,0.0,0.0,0.0,0.0,0.0,0.0
0.2831881046295166,0.08302918535906456,0.04274577778503739,0.10561666852756536,-0.0596200254526637,-0.024459898715479902,-0.06915040039324549,-0.003920269804769711,-0.0005817561364021585,0.0023095144772799113,0.0,0.0,0.0,0.0,0.0,0.0,0.0,0.0,0.0,0.0
0.28859400749206543,0.08303332626020649,0.04282625413251062,0.10570553293774998,-0.055199440051488136,-0.02123118935070145,-0.06255733628057847,-0.0045533434173743075,-0.00042238380746304074,0.002475729456795835,0.0,0.0,0.0,0.0,0.0,0.0,0.0,0.0,0.0,0.0
0.29398536682128906,0.08304707232094831,0.04291008210814484,0.10581216070332494,-0.0504180989795691,-0.01782056001796906,-0.05549675412758157,-0.005227913203435453,-0.00028033794016594875,0.0026303057268675456,0.0,0.0,0.0,0.0,0.0,0.0,0.0,0.0,0.0,0.0
0.2993495464324951,0.08306967523916377,0.04299566662809275,0.10593739160616265,-0.04541125243832706,-0.01432428213182534,-0.04813847301982603,-0.00594630953480357,-0.0001598655260660571,0.00278371533471842,0.0,0.0,0.0,0.0,0.0,0.0,0.0,0.0,0.0,0.0
0.3046588897705078,0.08309869324876383,0.04308152854827903,0.10608290555302531,-0.04029743109167884,-0.01082901482888017,-0.04062151242833208,-0.006675583011814047,-5.053794459831103e-05,0.002923120780229614,0.0,0.0,0.0,0.0,0.0,0.0,0.0,0.0,0.0,0.0
0.3100159168243408,0.08313052287339086,0.043165716762322434,0.1062490701910242,-0.03518416407644973,-0.007411343066432197,-0.03305565458872188,-0.007362170764463188,5.1882939905743326e-05,0.003022654416981655,0.0,0.0,0.0,0.0,0.0,0.0,0.0,0.0,0.0,0.0
0.3154158592224121,0.08316367201043565,0.04324574995480566,0.10643667826743937,-0.030169898804510993,-0.0041395920341953645,-0.025526341350301823,-0.00794961938963572,0.00013787793722018946,0.003075963273373504,0.0,0.0,0.0,0.0,0.0,0.0,0.0,0.0,0.0,0.0
0.32078099250793457,0.08319782657556053,0.04331983607169845,0.1066476610214023,-0.025338928176523237,-0.0010748922833496086,-0.018096878541707162,-0.008387346751638481,0.00021061723838758592,0.003091323092684684,0.0,0.0,0.0,0.0,0.0,0.0,0.0,0.0,0.0,0.0
0.3261377811431885,0.08323285126631381,0.04338772333242453,0.10688273641450409,-0.02075719077039366,0.001731390290604851,-0.010809791455914538,-0.008669031006788692,0.00027002339219378297,0.0030854976116964964,0.0,0.0,0.0,0.0,0.0,0.0,0.0,0.0,0.0,0.0
0.33149123191833496,0.08326385989075359,0.043438986282966795,0.10711172395031048,-0.016478029366212704,0.004229749218100725,-0.0037257016123125077,-0.008837114981884282,0.0003336344003803565,0.003077211547391192,0.0,0.0,0.0,0.0,0.0,0.0,0.0,0.0,0.0,0.0
0.33678460121154785,0.08328623518420918,0.04346506550209368,0.10731303894323294,-0.01255355416978772,0.006354484784717223,0.00302130128831445,-0.008930495005379284,0.00041700756724205796,0.003068852262582578,0.0,0.0,0.0,0.0,0.0,0.0,0.0,0.0,0.0,0.0
0.34217071533203125,0.08330694163123438,0.043480890524311186,0.10753317550737009,-0.00902556446975187,0.0080472840281314,0.009301540599650302,-0.008984097458058754,0.0004672012969608658,0.00304956112733049,0.0,0.0,0.0,0.0,0.0,0.0,0.0,0.0,0.0,0.0
0.3475351333618164,0.0833321778367882,0.04349905947879364,0.10780653311877353,-0.005901548967368354,0.009308603335693028,0.01513880671691805,-0.009005023745414972,0.00045284140249195583,0.0030164662417644494,0.0,0.0,0.0,0.0,0.0,0.0,0.0,0.0,0.0,0.0
0.3529071807861328,0.08336186454058503,0.04352013461437451,0.10813108046802553,-0.0031571727595134996,0.010193478930448559,0.02068752772988207,-0.00899359819417573,0.0003819046737076534,0.002987722142027957,0.0,0.0,0.0,0.0,0.0,0.0,0.0,0.0,0.0,0.0
0.35827064514160156,0.083396250457859,0.04354462823990872,0.10850862326223133,-0.0007575600507743006,0.01077011009427286,0.0261133987860968,-0.00897629217502191,0.00025648196050756777,0.0029788194732441185,0.0,0.0,0.0,0.0,0.0,0.0,0.0,0.0,0.0,0.0
0.36367034912109375,0.08343563201892049,0.04357180873399409,0.1089372906378023,0.0013336536601308857,0.01110089311583376,0.031551510369785346,-0.00897022495272948,8.599534636250257e-05,0.002986351144018713,0.0,0.0,0.0,0.0,0.0,0.0,0.0,0.0,0.0,0.0
0.3689877986907959,0.08347983764643628,0.04360092866045399,0.10941222038007294,0.003153169358272166,0.011239363058090106,0.03710223577658788,-0.008974763399994376,-0.00011143823368883194,0.002992955234606461,0.0,0.0,0.0,0.0,0.0,0.0,0.0,0.0,0.0,0.0
0.3743562698364258,0.08352807114246691,0.04363171272983442,0.1099324248087006,0.00473546665465146,0.011229881353836171,0.042829508688514206,-0.00898767275227234,-0.0003143760602624404,0.002984073404906225,0.0,0.0,0.0,0.0,0.0,0.0,0.0,0.0,0.0,0.0
0.3796730041503906,0.08357949456206613,0.04366345100554997,0.11050169913781809,0.006110531911776023,0.011109027070757322,0.04877724056617196,-0.00903603392260081,-0.0005168285981049681,0.00295711550560587,0.0,0.0,0.0,0.0,0.0,0.0,0.0,0.0,0.0,0.0
0.385040283203125,0.0836328005982887,0.04369513244447769,0.11111826563346068,0.007302783179172328,0.01090556210327164,0.05498105679420189,-0.009138689797512622,-0.0007083829452610197,0.002912423680018916,0.0,0.0,0.0,0.0,0.0,0.0,0.0,0.0,0.0,0.0
0.39040040969848633,0.08368718403464048,0.04372644145140251,0.11178023945011935,0.008331107711595382,0.010640972186201893,0.06146198499832155,-0.009294735785236576,-0.0008724477983254991,0.0028606054677127995,0.0,0.0,0.0,0.0,0.0,0.0,0.0,0.0,0.0,0.0
0.39568185806274414,0.08374286511235092,0.04375746888124776,0.11249174354566072,0.009211274576283538,0.010332098575493703,0.06822914125990244,-0.009508395151675893,-0.001001809131278183,0.0028156496826009605,0.0,0.0,0.0,0.0,0.0,0.0,0.0,0.0,0.0,0.0
0.40099120140075684,0.08379987538828677,0.04378724160309223,0.11325108386502568,0.00995882712687071,0.009992182425796844,0.07528865342536871,-0.009746565773243862,-0.0010975775605387692,0.0027675104632400994,0.0,0.0,0.0,0.0,0.0,0.0,0.0,0.0,0.0,0.0
0.4063539505004883,0.08385814297889088,0.04381437507433344,0.11405223916772786,0.010589387121889473,0.009628923904065436,0.08263308670995341,-0.009961914248581366,-0.001178951307985537,0.0026977206938423896,0.0,0.0,0.0,0.0,0.0,0.0,0.0,0.0,0.0,0.0
0.41173458099365234,0.08391669456994388,0.043837826827804564,0.11489654909152083,0.011116854982494179,0.00924370281575816,0.09023642786928751,-0.010133121440870519,-0.0012610063102288286,0.0026034599441306563,0.0,0.0,0.0,0.0,0.0,0.0,0.0,0.0,0.0,0.0
0.4171128273010254,0.08397393873834615,0.04385593604564644,0.11578962562726781,0.011550646075049263,0.008832423887270064,0.09807462163820592,-0.010245475348308504,-0.0013410336172216077,0.0024881526074416894,0.0,0.0,0.0,0.0,0.0,0.0,0.0,0.0,0.0,0.0
0.4224708080291748,0.08402952676632436,0.043868271485814826,0.11673027278238414,0.011895383292019645,0.008387069489442529,0.10613579911854067,-0.01030128149835223,-0.0014202914117403284,0.002367794951945021,0.0,0.0,0.0,0.0,0.0,0.0,0.0,0.0,0.0,0.0
0.4278390407562256,0.08408420384659619,0.04387636470269473,0.11771980446824482,0.012155031838980014,0.007900875171130023,0.11441053796663987,-0.010311918446043174,-0.0015270876004169133,0.0022659424025804334,0.0,0.0,0.0,0.0,0.0,0.0,0.0,0.0,0.0,0.0
0.4331512451171875,0.0841385806096058,0.04388204103081024,0.11876587325377706,0.012336596051365946,0.007374270399687985,0.12289662835473415,-0.010277228325670379,-0.0017077201983337763,0.002195233929431285,0.0,0.0,0.0,0.0,0.0,0.0,0.0,0.0,0.0,0.0
0.4385409355163574,0.08419225091729819,0.043885372290246534,0.11986601556122985,0.012449145894644366,0.006814319364054017,0.13160330675470117,-0.010191664478442358,-0.001964664712171857,0.0021512523215119783,0.0,0.0,0.0,0.0,0.0,0.0,0.0,0.0,0.0,0.0
0.4439055919647217,0.0842446972269931,0.04388459589444788,0.1210096627545022,0.01250067747816732,0.0062276471912933225,0.14052438457672534,-0.01004414403591304,-0.002262276137171199,0.0021202970659809947,0.0,0.0,0.0,0.0,0.0,0.0,0.0,0.0,0.0,0.0
0.4492149353027344,0.08429658111506201,0.04387861953072492,0.12219544210586392,0.01249808266268312,0.00561511266360188,0.1496224682644718,-0.009832892069395461,-0.002575692912239417,0.002094662181452078,0.0,0.0,0.0,0.0,0.0,0.0,0.0,0.0,0.0,0.0
0.45459508895874023,0.08434938355285218,0.04386773145121504,0.12342894173447638,0.01245061527263944,0.004973920771026438,0.15885512400918883,-0.009562455094349852,-0.0028998510670168124,0.002077107234903253,0.0,0.0,0.0,0.0,0.0,0.0,0.0,0.0,0.0,0.0
0.4600205421447754,0.08440405572986562,0.04385286332947558,0.12470715619528434,0.012371751922293265,0.004302929625453928,0.16819292307606526,-0.009254260342542665,-0.0032416763971998687,0.002080230679120205,0.0,0.0,0.0,0.0,0.0,0.0,0.0,0.0,0.0,0.0
0.46541261672973633,0.08446100649081528,0.0438337220997578,0.1260274663696993,0.012277184608697134,0.003603945740317941,0.17760659567087267,-0.008918973984946107,-0.003569346038232656,0.002106060819056937,0.0,0.0,0.0,0.0,0.0,0.0,0.0,0.0,0.0,0.0
0.47071266174316406,0.08452086093320547,0.04380906565149534,0.12739456482627098,0.01218248152200608,0.002878042514576465,0.18706708371910463,-0.00854019200777892,-0.003832083477147285,0.0021367924994800513,0.0,0.0,0.0,0.0,0.0,0.0,0.0,0.0,0.0,0.0
0.47607874870300293,0.08458359116999956,0.043779510892026564,0.12880432914321627,0.012101920923919384,0.0021242814795509844,0.19655301004032782,-0.008114029307727097,-0.004016678421582612,0.0021597791039083855,0.0,0.0,0.0,0.0,0.0,0.0,0.0,0.0,0.0,0.0
0.48143649101257324,0.08464865015922321,0.04374671341936633,0.13024519010729152,0.012046648032898403,0.0013443548448437727,0.206029928916614,-0.007634021980741694,-0.0041214930708888915,0.002178776721045334,0.0,0.0,0.0,0.0,0.0,0.0,0.0,0.0,0.0,0.0
0.48673081398010254,0.08471632762716153,0.04371093363001136,0.13171649011640893,0.012024104739543434,0.0005448409845189125,0.21543950701370337,-0.007104757885915802,-0.004126527617795132,0.002192651816037129,0.0,0.0,0.0,0.0,0.0,0.0,0.0,0.0,0.0,0.0
0.49209094047546387,0.08478718927167411,0.04367154153043645,0.13322487881903744,0.012040187915132266,-0.00026684360746349694,0.22472961233448238,-0.006544933631315008,-0.004010632387369942,0.002193564650816708,0.0,0.0,0.0,0.0,0.0,0.0,0.0,0.0,0.0,0.0
0.4974679946899414,0.08486066025717003,0.04362845199994137,0.13476694790221255,0.01209970155266809,-0.0010856923969630003,0.23387138185787754,-0.005969282645193173,-0.003791518837246174,0.0021881878527339207,0.0,0.0,0.0,0.0,0.0,0.0,0.0,0.0,0.0,0.0
0.5028443336486816,0.08493599589133971,0.04358217366309938,0.13634132175979966,0.012204056927814021,-0.0019078605644495838,0.24284328071280292,-0.005389667226350853,-0.003493815284234477,0.002189558294599693,0.0,0.0,0.0,0.0,0.0,0.0,0.0,0.0,0.0,0.0
0.5081686973571777,0.08501267212959102,0.043533037800095195,0.13795505900442684,0.01235052080960032,-0.002728795031421137,0.25163282657524283,-0.00479576535079603,-0.0031175068772586675,0.0021946552934570597,0.0,0.0,0.0,0.0,0.0,0.0,0.0,0.0,0.0,0.0
0.51352858543396,0.08509011929667859,0.043481572640612726,0.1396058897523686,0.01253335195132925,-0.003542993157835351,0.2602456748649683,-0.004185628050341213,-0.002689628506525339,0.0021945095310245354,0.0,0.0,0.0,0.0,0.0,0.0,0.0,0.0,0.0,0.0
0.5189409255981445,0.08516782032874708,0.04342870721987132,0.14128445783603155,0.012744729320243186,-0.004343629520025566,0.26868269252688337,-0.003587756400860455,-0.0022569636404353877,0.002196584933321914,0.0,0.0,0.0,0.0,0.0,0.0,0.0,0.0,0.0,0.0
0.5243217945098877,0.08524550659374086,0.04337453153104211,0.14299296138272988,0.012975681242398455,-0.005122793898059388,0.27692764914899315,-0.003033029578777247,-0.0018592560116537894,0.0022087211106088757,0.0,0.0,0.0,0.0,0.0,0.0,0.0,0.0,0.0,0.0
0.5297079086303711,0.0853243346706846,0.04331902201665999,0.14474165494926072,0.013218702542443284,-0.005873424535317967,0.28497767487723685,-0.002551470279845817,-0.0015338987960307488,0.002228987112736832,0.0,0.0,0.0,0.0,0.0,0.0,0.0,0.0,0.0,0.0
0.5350761413574219,0.08540484128396361,0.04326290244991324,0.14652734941478812,0.013470376895678057,-0.00658964910982091,0.29285642999617556,-0.0021643472593432063,-0.0012972121314435245,0.002255569803212444,0.0,0.0,0.0,0.0,0.0,0.0,0.0,0.0,0.0,0.0
0.5403580665588379,0.08548562317006458,0.04320522601063563,0.14834632996761465,0.013728693158657003,-0.007266998900605672,0.30058683797608776,-0.0018574508302510728,-0.00114097677079282,0.002278103200478549,0.0,0.0,0.0,0.0,0.0,0.0,0.0,0.0,0.0,0.0
0.5456998348236084,0.0855654350239087,0.04314403770465869,0.1502041373410879,0.013987996895864885,-0.00790622127634475,0.30818491578194207,-0.001596343110871466,-0.0010458294391415782,0.0022821934454496807,0.0,0.0,0.0,0.0,0.0,0.0,0.0,0.0,0.0,0.0
0.5510673522949219,0.08564376267889885,0.043078691574384737,0.1520962855192421,0.014238851623082619,-0.008514860105041617,0.31566961703011776,-0.0013618150446140218,-0.00100005630196102,0.002263499054737146,0.0,0.0,0.0,0.0,0.0,0.0,0.0,0.0,0.0,0.0
0.5563583374023438,0.08572024249213912,0.04300885535228212,0.15401021709851198,0.014470964359919965,-0.009103602273045162,0.32304090931265045,-0.0011435271957288926,-0.0010005596003665959,0.0022299672119882132,0.0,0.0,0.0,0.0,0.0,0.0,0.0,0.0,0.0,0.0
0.5616455078125,0.08579472953166938,0.042934486189770645,0.1559439053943404,0.014674971119370548,-0.009682947231040582,0.33026622058626154,-0.0009274769608250788,-0.0010325259185952765,0.002190420180130349,0.0,0.0,0.0,0.0,0.0,0.0,0.0,0.0,0.0,0.0
0.5669631958007812,0.08586801472408294,0.042855242779989325,0.15790486382816524,0.014844148665587371,-0.010262352996736517,0.33731261878922913,-0.0007015475111151597,-0.0010713874615015165,0.0021416106877813782,0.0,0.0,0.0,0.0,0.0,0.0,0.0,0.0,0.0,0.0
0.5722432136535645,0.08594103952686755,0.0427717208809863,0.15989117105691597,0.014976521743554867,-0.010849536010386927,0.34416997984557846,-0.0004732704925306588,-0.0011151073014579395,0.0020895831636129148,0.0,0.0,0.0,0.0,0.0,0.0,0.0,0.0,0.0,0.0
0.5775961875915527,0.08601405349954903,0.04268547394885064,0.1618907508033841,0.015074565267978988,-0.011447838621993452,0.35082506957789455,-0.00024711580031328896,-0.0011727791130956605,0.0020422240437679732,0.0,0.0,0.0,0.0,0.0,0.0,0.0,0.0,0.0,0.0
0.5828931331634521,0.08608791999263388,0.04259562255156738,0.16390141817769302,0.01514357627635322,-0.012056561180931112,0.3572404484594595,4.5945165357924546e-06,-0.0012206014750887671,0.0019834508295801037,0.0,0.0,0.0,0.0,0.0,0.0,0.0,0.0,0.0,0.0
0.5882177352905273,0.0861638672048544,0.04250079189183241,0.16593178055834326,0.01519199260873762,-0.012676664112003492,0.36338275990041696,0.0002985018590283895,-0.0012337821669136469,0.0019100030523650094,0.0,0.0,0.0,0.0,0.0,0.0,0.0,0.0,0.0,0.0
0.5935723781585693,0.08624242747266608,0.04240155977990799,0.16797999111750025,0.015231298114573985,-0.013312046619084467,0.36924595996948806,0.0006057326792847886,-0.0012164762015042876,0.00184604465395968,0.0,0.0,0.0,0.0,0.0,0.0,0.0,0.0,0.0,0.0
0.5989511013031006,0.08632327244620001,0.04229826832194734,0.1700429419234011,0.015273068843559391,-0.013965356160929521,0.3748333986099731,0.0008995505001244128,-0.0011543388082668965,0.0018050033004616494,0.0,0.0,0.0,0.0,0.0,0.0,0.0,0.0,0.0,0.0
0.604233980178833,0.08640528832657057,0.042189852226814525,0.17212508881289307,0.015325147714238603,-0.014638097286240874,0.38014987398088085,0.0012111511940826455,-0.0010144760940876709,0.0017752845131862663,0.0,0.0,0.0,0.0,0.0,0.0,0.0,0.0,0.0,0.0
0.6096160411834717,0.08648735585911513,0.042076077348355785,0.17422012572512638,0.015389512694671387,-0.015333286191168726,0.38520467910941275,0.0015797473624176927,-0.0007882059694615763,0.0017421579112056648,0.0,0.0,0.0,0.0,0.0,0.0,0.0,0.0,0.0,0.0
0.6149752140045166,0.08656891267605096,0.04195800882623517,0.1763160065396963,0.01546313576478662,-0.016053359857075008,0.38998866208910915,0.0019868560640225923,-0.00048247328378300044,0.0017049661722454011,0.0,0.0,0.0,0.0,0.0,0.0,0.0,0.0,0.0,0.0
0.6202683448791504,0.08665065181467171,0.0418360439467797,0.17841427276734173,0.015541667519500727,-0.01679717575316432,0.3944685094050626,0.0023924699949423823,-0.00011042053871528433,0.0016717833026044203,0.0,0.0,0.0,0.0,0.0,0.0,0.0,0.0,0.0,0.0
0.6256206035614014,0.08673431760398481,0.041710229409721813,0.18052438648590313,0.015624362893167279,-0.01756117921130395,0.3986248395980787,0.0027617490326371378,0.0002985879572843731,0.0016538412018973466,0.0,0.0,0.0,0.0,0.0,0.0,0.0,0.0,0.0,0.0
0.6309897899627686,0.08682026551943271,0.04158172134458397,0.18264508335632035,0.015715562575076433,-0.01834025050173775,0.4024705901055621,0.0030607174816001245,0.0007233843346586781,0.0016573190005059726,0.0,0.0,0.0,0.0,0.0,0.0,0.0,0.0,0.0,0.0
0.6363503932952881,0.08690756833218305,0.041450767725358356,0.18477382441895343,0.015820247963779132,-0.019127065766167725,0.4060278785108325,0.0033153262917766397,0.0011538520186430686,0.0016682719135772946,0.0,0.0,0.0,0.0,0.0,0.0,0.0,0.0,0.0,0.0
0.6417229175567627,0.08699632507879462,0.04131599263854767,0.1869138820437545,0.015940557285998046,-0.019915282209051546,0.40931740898394375,0.0035824270010767984,0.0015617570852090464,0.0016715949926139344,0.0,0.0,0.0,0.0,0.0,0.0,0.0,0.0,0.0,0.0
0.6471154689788818,0.0870871350906059,0.04117643856503194,0.1890619243831863,0.016077712527210103,-0.020703626518954726,0.412362444988772,0.003855553279587148,0.001918148702374274,0.0016727771743034368,0.0,0.0,0.0,0.0,0.0,0.0,0.0,0.0,0.0,0.0
0.6523969173431396,0.0871794133466218,0.04103145805530658,0.19120987308669293,0.0162331088027489,-0.02149544207865641,0.41517432198979287,0.004101727872517335,0.0022165192002233857,0.0016707016939786052,0.0,0.0,0.0,0.0,0.0,0.0,0.0,0.0,0.0,0.0
0.6577122211456299,0.08727201268379794,0.040880105409768025,0.19335801733201308,0.016405554567466347,-0.022296874569750477,0.4177460034579379,0.00432171175547533,0.0024659826506594814,0.0016632755521412048,0.0,0.0,0.0,0.0,0.0,0.0,0.0,0.0,0.0,0.0
0.6630809307098389,0.08736508099898131,0.04072134976250438,0.19551424270426868,0.016590689695618457,-0.02311658943833431,0.42007760730907534,0.004526827170060677,0.002671842380650027,0.0016637705943533332,0.0,0.0,0.0,0.0,0.0,0.0,0.0,0.0,0.0,0.0
0.6683955192565918,0.08745841978707625,0.04055526992211769,0.19767549860265993,0.016783577421325083,-0.02396436716601106,0.422188972569825,0.004727504480365555,0.0028378470467012463,0.0016732855700991819,0.0,0.0,0.0,0.0,0.0,0.0,0.0,0.0,0.0,0.0
0.6737897396087646,0.08755132954666228,0.040381138094957476,0.19983790908009558,0.01697904090690331,-0.02484919263537269,0.42409855067703484,0.004958546469777277,0.0029849548977758968,0.001684105626528926,0.0,0.0,0.0,0.0,0.0,0.0,0.0,0.0,0.0,0.0
0.6790993213653564,0.08764447027414479,0.040196986456163535,0.20200761663395048,0.017171838147941255,-0.0257811472218988,0.4258204255768945,0.005242651416051743,0.0031181307528697286,0.0016892358690721477,0.0,0.0,0.0,0.0,0.0,0.0,0.0,0.0,0.0,0.0
0.6843798160552979,0.08773807923245279,0.040003271441449176,0.20418026213343,0.017358781304315587,-0.026771922875029705,0.42737452678275956,0.005563753215794771,0.0032216302007358906,0.0016764671436243083,0.0,0.0,0.0,0.0,0.0,0.0,0.0,0.0,0.0,0.0
0.689755916595459,0.08783141649297971,0.039801042860426294,0.2063417173311919,0.017537884759572228,-0.027829584126818917,0.42876201646776946,0.0059144486222184635,0.0033404020962596696,0.0016332201832860013,0.0,0.0,0.0,0.0,0.0,0.0,0.0,0.0,0.0,0.0
0.6950721740722656,0.08792520534257803,0.039590449055274285,0.20849083984514113,0.017707156564936963,-0.028956108222355576,0.42995009700751313,0.006292071050222577,0.003513022161019629,0.001568435230884855,0.0,0.0,0.0,0.0,0.0,0.0,0.0,0.0,0.0,0.0
0.7003889083862305,0.08802072069437866,0.039371611009394736,0.2106361298288473,0.017867416182159774,-0.030149925033246018,0.43090815330476084,0.0066768794974962865,0.0036967284869014816,0.0014978981603353961,0.0,0.0,0.0,0.0,0.0,0.0,0.0,0.0,0.0,0.0
0.7057754993438721,0.08811646590849,0.039143522272253185,0.21277265139623713,0.018021488944161158,-0.031408968278227666,0.4316288761006088,0.007063794683819816,0.003897734846060793,0.0014147723129803711,0.0,0.0,0.0,0.0,0.0,0.0,0.0,0.0,0.0,0.0
0.7111372947692871,0.08821203410810657,0.038905360044277526,0.21489709938486107,0.018169418628279328,-0.03273314652907429,0.4321064895961759,0.007452754353605957,0.004137442445838425,0.0013234367673704282,0.0,0.0,0.0,0.0,0.0,0.0,0.0,0.0,0.0,0.0
0.7165231704711914,0.08831082812409786,0.03865877782752464,0.21701823358811975,0.0183125875031756,-0.03412204940356608,0.43233866959591627,0.007820962934483984,0.004346075906481745,0.0012453280107438298,0.0,0.0,0.0,0.0,0.0,0.0,0.0,0.0,0.0,0.0
0.7218766212463379,0.08841364986513965,0.03840600711447914,0.2191349240150828,0.018460190326208,-0.03556868571038043,0.4323435010145925,0.008151497636204943,0.00449454107996116,0.0011814268575307666,0.0,0.0,0.0,0.0,0.0,0.0,0.0,0.0,0.0,0.0
0.7272846698760986,0.08851759816763483,0.0381474539334098,0.22123707828352274,0.01862182600009392,-0.037058946393091236,0.43213652429470795,0.008444428223043254,0.0046321902323385195,0.0011175307331304958,0.0,0.0,0.0,0.0,0.0,0.0,0.0,0.0,0.0,0.0
0.7325794696807861,0.08862261579903385,0.03788300339586148,0.2233236602257621,0.018799263605115184,-0.03857731914418866,0.4317101032650234,0.00868779648447013,0.00476472649310025,0.0010679357779692267,0.0,0.0,0.0,0.0,0.0,0.0,0.0,0.0,0.0,0.0
0.737938642501831,0.08873125632933401,0.037612859248383375,0.22540144086845593,0.01899305727076049,-0.04011033715359332,0.431057008989705,0.00887241839066171,0.004861294893857059,0.0010637062830523897,0.0,0.0,0.0,0.0,0.0,0.0,0.0,0.0,0.0,0.0
0.7433242797851562,0.08884273044551295,0.03733735112743186,0.22746628486264137,0.01920801117132266,-0.041646201684760055,0.43018575716413465,0.009032252362084662,0.004932853980352064,0.0010892136675380686,0.0,0.0,0.0,0.0,0.0,0.0,0.0,0.0,0.0,0.0
0.7486329078674316,0.08895539015952203,0.0370556409388829,0.22951528066155835,0.019446757262878502,-0.04317537353755566,0.42910311389532635,0.00920235808948616,0.005016046218351932,0.0011138751134194035,0.0,0.0,0.0,0.0,0.0,0.0,0.0,0.0,0.0,0.0
0.7539894580841064,0.08907029755168769,0.036766264465512136,0.23155591733769054,0.019707524370992623,-0.04469347793732066,0.427816446827728,0.009382990855058861,0.005110956492148466,0.0011390568633617023,0.0,0.0,0.0,0.0,0.0,0.0,0.0,0.0,0.0,0.0
0.7593612670898438,0.08918765397022582,0.03647022293402973,0.23358506893636977,0.01998915697068162,-0.0462003223852238,0.4263460904671596,0.009573190662563444,0.005193490887456232,0.001166281273035401,0.0,0.0,0.0,0.0,0.0,0.0,0.0,0.0,0.0,0.0
0.7646784782409668,0.0893060127854039,0.036169605145042256,0.23559175212184758,0.020290287225169804,-0.04769309018618789,0.4247015972352003,0.009768457016610438,0.005272216734558198,0.0011923607155470933,0.0,0.0,0.0,0.0,0.0,0.0,0.0,0.0,0.0,0.0
0.7700545787811279,0.08942532594634314,0.03586341465432358,0.23757536432366375,0.020606350120151325,-0.04916520146081366,0.4228659932603574,0.0099675591088486,0.00537701673840318,0.0012186155314339187,0.0,0.0,0.0,0.0,0.0,0.0,0.0,0.0,0.0,0.0
0.7753729820251465,0.08954709081557836,0.035549019027923186,0.23954349786984613,0.020933308617016314,-0.05061465684200237,0.42082482788219533,0.01017497593451074,0.0055042692729079185,0.001246399337847062,0.0,0.0,0.0,0.0,0.0,0.0,0.0,0.0,0.0,0.0
0.7806754112243652,0.08967165713031085,0.03522661232237302,0.24149505514567135,0.021271342494832066,-0.05204708334853295,0.4185860345702577,0.010367057561107455,0.0056295566940447244,0.001275486624814356,0.0,0.0,0.0,0.0,0.0,0.0,0.0,0.0,0.0,0.0
0.7860264778137207,0.08979913469510423,0.034895920451965004,0.24342998902609078,0.021622907182642166,-0.05347015641999793,0.4161662787290261,0.010513243207569595,0.005754773502007206,0.0013111925497588535,0.0,0.0,0.0,0.0,0.0,0.0,0.0,0.0,0.0,0.0
0.791306734085083,0.08993044046963,0.03455482472717517,0.24535615685621084,0.021991316639478987,-0.05489297115362958,0.4135903071294782,0.010594527586919977,0.005903694331681883,0.0013590421973491008,0.0,0.0,0.0,0.0,0.0,0.0,0.0,0.0,0.0,0.0
0.7966203689575195,0.0900652797631859,0.03420374286542614,0.2472698685653745,0.022380679254286263,-0.05632735475169724,0.4108946780633859,0.010593941440387819,0.006076381102750918,0.001406492308380048,0.0,0.0,0.0,0.0,0.0,0.0,0.0,0.0,0.0,0.0
0.8019685745239258,0.09020179602914333,0.03384469890776398,0.24915870825342573,0.022792125558236086,-0.05778170078343534,0.40809808585399404,0.010525232283527516,0.006250665227403993,0.0014392047178221701,0.0,0.0,0.0,0.0,0.0,0.0,0.0,0.0,0.0,0.0
0.8073537349700928,0.09033862315389189,0.033477655746147354,0.25102120285246665,0.02322011407019836,-0.05925737885991339,0.40518448871266644,0.010416633518200803,0.006426824193644988,0.0014547506510405384,0.0,0.0,0.0,0.0,0.0,0.0,0.0,0.0,0.0,0.0
0.8126571178436279,0.09047573111656532,0.03310009296286088,0.25286450833031104,0.023654720267701233,-0.060755645346188006,0.4021345376505864,0.010287370203239823,0.006629275271276797,0.0014432411941689546,0.0,0.0,0.0,0.0,0.0,0.0,0.0,0.0,0.0,0.0
0.818016529083252,0.0906135301180098,0.03271151594429532,0.25468446743135337,0.024086723617349374,-0.06228318295965875,0.3989453849753789,0.010176006664260745,0.006854695370791186,0.0013854438792087016,0.0,0.0,0.0,0.0,0.0,0.0,0.0,0.0,0.0,0.0
0.8234133720397949,0.090753654153237,0.032313394922729,0.25647824136809527,0.02451148552493061,-0.06384695504930918,0.39561340525321,0.010091660502271366,0.007060394425717734,0.0012960122732730524,0.0,0.0,0.0,0.0,0.0,0.0,0.0,0.0,0.0,0.0
0.8287420272827148,0.09089854605094048,0.031906611886893185,0.25825459496532643,0.024932237357080667,-0.06544804547876402,0.39213767567886904,0.009995561898841472,0.00720600926165562,0.0012188088088102825,0.0,0.0,0.0,18480.0,21494.0,19828.0,21459.0,0.0,0.0,0.0
0.8341076374053955,0.09104769524327147,0.03149311546265666,0.2600135361546643,0.025358317038880886,-0.06708074943043915,0.3885369385779798,0.009889395985862762,0.007301886652532589,0.00116228725076847,0.0,0.0,0.0,18480.0,21494.0,19828.0,21459.0,0.0,0.0,0.0
0.8395085334777832,0.09119767869452113,0.03107352562804587,0.26174691326332333,0.025794865707055338,-0.06873381230380449,0.3848296716707001,0.009823409286589235,0.007414573138906665,0.0011163340142320232,0.0,0.0,0.0,18885.0,22170.0,20431.0,21846.0,0.0,0.0,0.0
0.8448145389556885,0.09134843107871024,0.03064447037062549,0.26345429610569676,0.026237540720075492,-0.07039797335067882,0.3810144927688944,0.009827692168597798,0.007590719312368017,0.0010897935076544353,0.0,0.0,0.0,18885.0,22170.0,20431.0,21846.0,0.0,0.0,0.0
0.8501675128936768,0.09150426851241827,0.030203518676816404,0.26514386144707747,0.026683573838294387,-0.07207505413938797,0.3770917615725908,0.00989129439249703,0.00781448296570545,0.0010889096378567317,0.0,0.0,0.0,18836.0,21920.0,20259.0,21797.0,0.0,0.0,0.0
0.8555307388305664,0.09166742258214958,0.029753864475410927,0.26681551504485346,0.027142644395323767,-0.07377181412654257,0.373081697905961,0.00999849250264661,0.008021599534905222,0.0011095976327437742,0.0,0.0,0.0,18147.0,20863.0,19367.0,21298.0,0.0,0.0,0.0
0.8608622550964355,0.09183654978376357,0.029300054212461638,0.26845864341044295,0.02763045746698644,-0.07548380373152908,0.36899951993678126,0.01014285063113198,0.00815368952362593,0.0011508758309881483,0.0,0.0,0.0,18147.0,20863.0,19367.0,21298.0,0.0,0.0,0.0
0.8661494255065918,0.09200945073229039,0.028841294538854825,0.2700712455778298,0.02815600950443635,-0.07719438105178372,0.36483315959471363,0.010301283360036037,0.008236688525277445,0.0012137284508198787,0.0,0.0,0.0,18169.0,20854.0,19361.0,21289.0,0.0,0.0,0.0
0.871535062789917,0.09218254302116091,0.028373355258628746,0.27165880649274987,0.02871533137032431,-0.07889165886621781,0.3605646976053904,0.010451942713424171,0.008322199492773087,0.001274691916627,0.0,0.0,0.0,18169.0,20854.0,19361.0,21289.0,0.0,0.0,0.0
0.8768646717071533,0.09235271231230816,0.027896046456849396,0.2732190139478781,0.029290662863075675,-0.08057688142121708,0.35618942710993046,0.010582999368222037,0.008383236327128426,0.001304098386832066,0.0,0.0,0.0,17692.0,20080.0,18761.0,20987.0,0.0,0.0,0.0
0.8822228908538818,0.09252099280998809,0.02740965926231491,0.27475027935006646,0.02985769706788248,-0.08225610007313747,0.35170513979224044,0.010703049780526733,0.008402019349174918,0.0013004007043648722,0.0,0.0,0.0,17028.0,18815.0,17808.0,20530.0,0.0,0.0,0.0
0.8875274658203125,0.09269085493947349,0.02691214797698839,0.2762579165980025,0.030399840559945168,-0.0839361266921703,0.3471122896808575,0.010841675168612477,0.008407980552459546,0.0012772273951705462,0.0,0.0,0.0,17028.0,18815.0,17808.0,20530.0,0.0,0.0,0.0
0.8928892612457275,0.0928645747062642,0.026406322853245907,0.2777414435981729,0.030915720875165833,-0.08562349580318517,0.3424231332234605,0.01098438213225154,0.008381759162445776,0.0012587013677840568,0.0,0.0,0.0,16421.0,17785.0,16998.0,20104.0,0.0,0.0,0.0
0.898256778717041,0.09304163769005097,0.025896635035316806,0.2791933280225265,0.031413144179970404,-0.08731438036627975,0.33764609254262773,0.01109863256180668,0.008306683323771474,0.0012589967125748221,0.0,0.0,0.0,16421.0,17785.0,16998.0,20104.0,0.0,0.0,0.0
0.9035968780517578,0.0932207953630981,0.02538203671350864,0.2806131195916479,0.031898769370266936,-0.08899381541937529,0.33277212716437654,0.011155586697593124,0.008214654051980748,0.00126671084982939,0.0,0.0,0.0,16350.0,17526.0,16814.0,20023.0,0.0,0.0,0.0
0.9089124202728271,0.09340187401294042,0.02485870186963838,0.2820079200621952,0.0323746595624302,-0.09065170093256343,0.327794670742288,0.011130639051093813,0.008138375585103167,0.0012640915165117255,0.0,0.0,0.0,16018.0,17952.0,16537.0,20265.0,0.0,0.0,0.0
0.9143154621124268,0.09358365721631712,0.02432638263979625,0.2833770787302313,0.03283956509798995,-0.09229034547239179,0.32272528413879603,0.011056630581039438,0.008105823209857454,0.001230171183594978,0.0,0.0,0.0,16018.0,17952.0,16537.0,20265.0,0.0,0.0,0.0
0.9196972846984863,0.09376550134333961,0.02378599010603968,0.28471860098394297,0.03328912581095337,-0.09391580520330783,0.3175794823198905,0.010969571231625005,0.008122618888025741,0.0011567397472834104,0.0,0.0,0.0,19842.0,13237.0,18210.0,16744.0,0.0,0.0,0.0
0.9250533580780029,0.09394873346846015,0.02323602195971891,0.28603565255058927,0.033718885955171106,-0.09553314243073241,0.3123697496880379,0.010870800740549871,0.008171744330459576,0.0010607529018763554,0.0,0.0,0.0,19842.0,13237.0,18210.0,16744.0,0.0,0.0,0.0
0.9304325580596924,0.09413481696741985,0.02267793350941303,0.28732799349681587,0.034129567316397845,-0.097147298647186,0.3071120427894373,0.010732740351026265,0.008214654861097041,0.0009711667303523835,0.0,0.0,0.0,16493.0,18846.0,17181.0,20580.0,0.0,0.0,0.0
0.9359197616577148,0.09432545847070949,0.022116029962956377,0.28859393817260726,0.03452877832065347,-0.09875596785766177,0.30182131207652174,0.010504376004098578,0.008218176229808716,0.0009217762674523239,0.0,0.0,0.0,16493.0,18846.0,17181.0,20580.0,0.0,0.0,0.0
0.9412703514099121,0.09452242303702975,0.02154997581317334,0.2898346494868468,0.034930228731317334,-0.1003466386986198,0.29650754800375334,0.01019821844661611,0.008198575633225614,0.0009337451867049422,0.0,0.0,0.0,16493.0,18846.0,17181.0,20580.0,0.0,0.0,0.0
0.9467184543609619,0.09472574157951674,0.020975533840037183,0.29105078230521886,0.03535068714469086,-0.10191035955763408,0.29118069722392936,0.009894250280987211,0.008180936638486836,0.000995031568145494,0.0,0.0,0.0,19707.0,16164.0,18215.0,17596.0,0.0,0.0,0.0
0.9521162509918213,0.09493192550480734,0.020391717518101555,0.29223673246435855,0.03580131839719952,-0.10345141927983657,0.2858455437571906,0.009669454906373814,0.008183405698714771,0.00106645769374883,0.0,0.0,0.0,19707.0,16164.0,18215.0,17596.0,0.0,0.0,0.0
0.9575035572052002,0.09513802444526018,0.019798731050175912,0.293391313052076,0.036279423504607805,-0.10498041278826802,0.28049308802355305,0.00953756123545998,0.008230167095924383,0.0011137538192611718,0.0,0.0,0.0,16824.0,21140.0,18497.0,22258.0,0.0,0.0,0.0
0.9627864360809326,0.09534482928618071,0.019195788698603743,0.2945210530940783,0.036772700245986174,-0.10650760393905331,0.27511490050447196,0.009453118460682058,0.008337588257180978,0.0011298756500242178,0.0,0.0,0.0,16824.0,21140.0,18497.0,22258.0,0.0,0.0,0.0
0.9682056903839111,0.09555290184607591,0.018584935416594763,0.2956233951886772,0.03727006625290614,-0.10804050077667464,0.2697151259978934,0.009406301942716737,0.008464840039100195,0.0011180813499130965,0.0,0.0,0.0,16824.0,21140.0,18497.0,22258.0,0.0,0.0,0.0
0.9735746383666992,0.09576313573633236,0.017966196125463116,0.29669676681464024,0.03776566901103303,-0.10958129882201717,0.2642973867900416,0.00940230794593205,0.008566385051879679,0.0010906798661123698,0.0,0.0,0.0,21839.0,16838.0,21129.0,17688.0,0.0,0.0,0.0
0.9788806438446045,0.09597732405590494,0.017336026568062046,0.29774728908907455,0.03825945264654933,-0.11113318786820475,0.25886544602750483,0.009417284035255009,0.008683348841991591,0.0010644682169240773,0.0,0.0,0.0,21839.0,16838.0,21129.0,17688.0,0.0,0.0,0.0
0.9842660427093506,0.09619436381599529,0.01669472395155999,0.298772442809653,0.038755156099300955,-0.11270597724550546,0.25343166730397276,0.00944543793143808,0.008867663934344778,0.0010362155210632176,0.0,0.0,0.0,16294.0,22972.0,18401.0,24840.0,0.0,0.0,0.0
0.9896886348724365,0.09641252231931047,0.016046534474125396,0.2997669719438806,0.03925335249406417,-0.11430562184682878,0.24800136586062216,0.009483778034290055,0.009122003004434023,0.0010009310628800925,0.0,0.0,0.0,16158.0,21948.0,21571.0,23137.0,0.0,0.0,0.0
0.9949784278869629,0.09663216795847086,0.015393521451311204,0.3007325273095607,0.03974978964776835,-0.11592426403027854,0.2425661053396562,0.009509388501847843,0.00942302241790544,0.0009637918867891256,0.0,0.0,0.0,16158.0,21948.0,21571.0,23137.0,0.0,0.0,0.0
1.0002732276916504,0.09685438808194725,0.014734788977885705,0.30167238813890973,0.04024120276610139,-0.11754690168741191,0.23712070846799727,0.009505689536606058,0.00975346298887228,0.0009360008984954404,0.0,0.0,0.0,18527.0,19499.0,20830.0,24659.0,0.0,0.0,0.0
1.0056796073913574,0.0970793560610863,0.014071217705432555,0.3025859667033618,0.040728100095292485,-0.11916015529123503,0.23166970282670335,0.009466259199810437,0.010099545297919028,0.0009293929923707507,0.0,0.0,0.0,18527.0,19499.0,20830.0,24659.0,0.0,0.0,0.0
1.011085033416748,0.09721088936904276,0.013597803970463208,0.3023357175851817,0.041105956002216504,-0.12053639729246418,0.224958152079167,0.00925423432440934,0.010415024186949423,0.0009507597763781575,0.0,0.0,0.0,18527.0,19499.0,20830.0,24659.0,0.0,0.0,0.0
1.016542673110962,0.09717600152759637,0.013463371427534931,0.30003979620872395,0.04099952211542392,-0.1209003201533843,0.21250879569622005,0.008758385409846506,0.010656506395756722,0.0009930410673047669,0.0,0.0,0.0,18119.0,21528.0,19836.0,24338.0,0.0,0.0,0.0
1.0219056606292725,0.09711304961083345,0.013391082335570334,0.2973097353354234,0.040003970625584626,-0.1194142693204541,0.18943375325145798,0.008147469454364037,0.010832813104437207,0.001023614872670786,0.0,0.0,0.0,18119.0,21528.0,19836.0,24338.0,0.0,0.0,0.0
1.0272986888885498,0.09713091230687274,0.013160230364934264,0.2954411140137213,0.03816136458948947,-0.11614192272715705,0.15608592864011872,0.00757446970869715,0.010967116875691468,0.0010146864222033778,0.0,0.0,0.0,21421.0,18125.0,21502.0,20142.0,0.0,0.0,0.0
1.032625436782837,0.09721754282575265,0.012790498911087213,0.29431629885986743,0.03590558209810786,-0.11194826943227995,0.11750414841542982,0.00703192232839454,0.01106281519778913,0.0009734955679992264,0.0,0.0,0.0,21421.0,18125.0,21502.0,20142.0,0.0,0.0,0.0
1.0380072593688965,0.09736297288528276,0.012298477217720481,0.2938263133748299,0.03367617205784022,-0.10772905399260368,0.07889415660295768,0.006509685852874329,0.011126865389491694,0.00091947872661503,0.0,0.0,0.0,21180.0,19648.0,21785.0,18644.0,0.0,0.0,0.0
1.0433213710784912,0.09755736429459326,0.011702477315712452,0.2938654433469719,0.03177818069643466,-0.10412325837959309,0.04393615139280718,0.00605613722064409,0.011185537500289602,0.0008582225283292032,0.0,0.0,0.0,21180.0,19648.0,21785.0,18644.0,0.0,0.0,0.0
1.0486805438995361,0.0977926876276522,0.011018520286986962,0.2943378724887025,0.03040677863500392,-0.1015522316705614,0.01503487822722379,0.005729768349505809,0.011267478939651887,0.000789630748530943,0.0,0.0,0.0,21180.0,19648.0,21785.0,18644.0,0.0,0.0,0.0
1.0540943145751953,0.09806449603093083,0.010259088702721911,0.29516147962185113,0.029672946553753677,-0.1002607923113774,-0.006438876114910232,0.005534677002062806,0.011381687011903228,0.0007218939337375111,0.0,0.0,0.0,19054.0,23005.0,20336.0,21985.0,0.0,0.0,0.0
1.0594627857208252,0.09836753390273846,0.009440264399074338,0.29625980060342183,0.029626836503720187,-0.10035335957399319,-0.019925106627252834,0.005442316532367323,0.011492769846606455,0.0006631743398845178,0.0,0.0,0.0,19054.0,23005.0,20336.0,21985.0,0.0,0.0,0.0
1.0647878646850586,0.09869384294055399,0.008579154282411124,0.2975602079831367,0.030267959205192436,-0.10181441200916139,-0.02549352338754982,0.005426754340993492,0.011539500554188646,0.0005969363931964483,0.0,0.0,0.0,21199.0,18983.0,21601.0,18957.0,0.0,0.0,0.0
1.0700771808624268,0.09903532757267995,0.007684896301860901,0.29900150859912633,0.03154824169064338,-0.10453529476865073,-0.023689115690761584,0.005474703241644537,0.01151131156348241,0.0005034408458679176,0.0,0.0,0.0,21199.0,18983.0,21601.0,18957.0,0.0,0.0,0.0
1.075361967086792,0.0993853716902427,0.006760998661074387,0.3005350101195966,0.0333809113187019,-0.10835795285736388,-0.015381933136109232,0.005579830399962689,0.01145943561776922,0.00038717340924917176,0.0,0.0,0.0,18096.0,21639.0,21515.0,22564.0,0.0,0.0,0.0
1.0807569026947021,0.09973850954201277,0.005815142572031874,0.3021165126088363,0.035654531621807636,-0.11310496533754258,-0.001637673871195055,0.005755986818044312,0.011435474379569164,0.0002546807734973753,0.0,0.0,0.0,18096.0,21639.0,21515.0,22564.0,0.0,0.0,0.0
1.0861279964447021,0.10009180485223192,0.004857923075711359,0.30370798550077477,0.03824738044351898,-0.11858109533899974,0.016375572294763892,0.005998211436421413,0.011463821210986113,0.00012087492668529981,0.0,0.0,0.0,18096.0,21639.0,21515.0,22564.0,0.0,0.0,0.0
1.0915184020996094,0.10044726039640389,0.00389552609353902,0.3052839901473657,0.041044555947680805,-0.12457496904424196,0.037466234337766656,0.006246513729618567,0.01150607566414178,1.0577344192283796e-05,0.0,0.0,0.0,20602.0,17525.0,21810.0,20694.0,0.0,0.0,0.0
1.0968422889709473,0.10080713162894717,0.002930983210467535,0.3068258893515533,0.043953199946985724,-0.13087701848096184,0.0604926516742008,0.006451057647356731,0.011478411784595034,-6.588464527841486e-05,0.0,0.0,0.0,20602.0,17525.0,21810.0,20694.0,0.0,0.0,0.0
1.1022145748138428,0.10116766474762771,0.001969283626319691,0.3083132232757987,0.046899539455097894,-0.13729347914394524,0.0844054613600517,0.0066251681617459845,0.011375645128578832,-0.00011641131556628277,0.0,0.0,0.0,19498.0,21499.0,19926.0,22839.0,0.0,0.0,0.0
1.1075248718261719,0.10152492975760588,0.0010124551569085185,0.3097284874413686,0.049813482320624485,-0.1436499772532665,0.10825925282877932,0.006799923581757817,0.01124265598791338,-0.00016620938405251137,0.0,0.0,0.0,17972.0,21855.0,20999.0,23029.0,0.0,0.0,0.0
1.1128411293029785,0.10187887532065036,5.748530154590025e-05,0.3110621356374952,0.05262668552141071,-0.14980151614565956,0.1312261753233786,0.006982363523045807,0.011084258458679053,-0.0002345901845810284,0.0,0.0,0.0,17972.0,21855.0,20999.0,23029.0,0.0,0.0,0.0
1.1181979179382324,0.1022288284525438,-0.0008956029236793209,0.3123086817679746,0.0552814368467611,-0.15564093177284802,0.15261629559253828,0.00716788932164977,0.01090762925623407,-0.00032197314419534764,0.0,0.0,0.0,21271.0,19228.0,21380.0,18347.0,0.0,0.0,0.0
1.1235272884368896,0.10257501435151813,-0.0018461157536914638,0.3134658500105536,0.057733733888235717,-0.16109184631580806,0.1718868039487985,0.007343454826349514,0.010737688648126712,-0.00043249196123992253,0.0,0.0,0.0,21271.0,19228.0,21380.0,18347.0,0.0,0.0,0.0
1.128901720046997,0.10291914031495224,-0.002795860227496879,0.31453407962137203,0.05995447385318894,-0.1661021491509577,0.18863937025839628,0.007503106952062432,0.010595067069693397,-0.0005740703332823722,0.0,0.0,0.0,18945.0,24045.0,19177.0,21190.0,0.0,0.0,0.0
1.1342849731445312,0.10326129562878539,-0.0037422427954410943,0.31551510746452655,0.06192961881580917,-0.17064024092869085,0.2026112120693299,0.007633161303871174,0.010471165851148734,-0.0007424824938989467,0.0,0.0,0.0,18319.0,23253.0,20849.0,20932.0,0.0,0.0,0.0
1.1396617889404297,0.10360097715253277,-0.004679291594665497,0.31641120173122783,0.06365490503745061,-0.17468091912253825,0.2136603956782957,0.0076989138366850545,0.010342057803150888,-0.0009248907772988432,0.0,0.0,0.0,18319.0,23253.0,20849.0,20932.0,0.0,0.0,0.0
1.145021915435791,0.10394056135007242,-0.005606794204027411,0.31722631755387287,0.06513407557491599,-0.17819867889458563,0.22174939667406932,0.007683130998407791,0.010217330228267514,-0.0011031656315782607,0.0,0.0,0.0,19997.0,22480.0,19186.0,21571.0,0.0,0.0,0.0
1.1503040790557861,0.1042826985285289,-0.006529723699090555,0.3179661934533299,0.06638323353094522,-0.1811831113036375,0.22693143988962047,0.007590784154921402,0.010100012633196988,-0.0012651978486641758,0.0,0.0,0.0,19997.0,22480.0,19186.0,21571.0,0.0,0.0,0.0
1.1555917263031006,0.10449074410556426,-0.007129601361296211,0.31760389021403956,0.06727740781057559,-0.18329544794069866,0.22819229819436526,0.007321777390434266,0.009938114413406033,-0.001386163126754521,0.0,0.0,0.0,19997.0,22480.0,19186.0,21571.0,0.0,0.0,0.0
1.1609582901000977,0.10445844227774978,-0.007159156408122504,0.3153396116092558,0.06730658742195904,-0.18330904476435758,0.22164965096610909,0.0068187676584366905,0.00971062123810703,-0.001445455533075199,0.0,0.0,0.0,19037.0,22111.0,18740.0,22918.0,0.0,0.0,0.0
1.166341781616211,0.1043770905666087,-0.0070768340194240316,0.3126352914287887,0.06590653870551327,-0.17989507095889368,0.20307652873140125,0.0062858600641379474,0.009470487773392926,-0.001480272872500552,0.0,0.0,0.0,19037.0,22111.0,18740.0,22918.0,0.0,0.0,0.0
1.1717276573181152,0.10439923773177522,-0.007246468957303697,0.3106721687226892,0.06313255006605459,-0.17321101653945356,0.1730187694031143,0.005876094681841472,0.009268094038273757,-0.0015261645260429505,0.0,0.0,0.0,22463.0,18276.0,19669.0,19187.0,0.0,0.0,0.0
1.1771018505096436,0.10451101184988507,-0.007628463403514144,0.30935175968839695,0.05959425588378309,-0.16472646423035708,0.13629845895602297,0.005572509200319039,0.00910947828707225,-0.0015756365552974877,0.0,0.0,0.0,22463.0,18276.0,19669.0,19187.0,0.0,0.0,0.0
1.182488203048706,0.104701444321297,-0.008192543760284832,0.30858012196049284,0.055922990800342805,-0.15594015360706373,0.09791181961054264,0.005379412511052425,0.008946591849805278,-0.0016280611579327796,0.0,0.0,0.0,19605.0,21393.0,18661.0,22521.0,0.0,0.0,0.0
1.1877992153167725,0.1049592259202308,-0.00891715421229453,0.30826798530885763,0.052575044611954266,-0.14792405887626744,0.061480371415684666,0.005325172467953811,0.008773950697307877,-0.00170338916264875,0.0,0.0,0.0,19031.0,21830.0,19448.0,21974.0,0.0,0.0,0.0
1.1931571960449219,0.10527148044004025,-0.00977712161405333,0.30833381592311865,0.04985714059447757,-0.14141028722526447,0.029468446104840354,0.005391863080027428,0.008652712888446714,-0.0018044714667356148,0.0,0.0,0.0,19031.0,21830.0,19448.0,21974.0,0.0,0.0,0.0
1.1985101699829102,0.10562791933774085,-0.01074659190620315,0.3087047680394275,0.04794844524288015,-0.13684343726296358,0.0033910222266157596,0.005524556448508159,0.008600118922813252,-0.0019167736013979396,0.0,0.0,0.0,17634.0,22591.0,20498.0,21657.0,0.0,0.0,0.0
1.2039272785186768,0.10602201148853468,-0.011806497599518389,0.3093158190754692,0.04693017023762164,-0.13443001642528846,-0.01599424395612043,0.005668027869352563,0.008597278759990432,-0.0020380025150980815,0.0,0.0,0.0,17634.0,22591.0,20498.0,21657.0,0.0,0.0,0.0
1.2092931270599365,0.10644545772391284,-0.01293644984957744,0.31010896042148695,0.04681252335783535,-0.1341941164708006,-0.028518208725476904,0.005784665087950265,0.008619863528392634,-0.0021728667032431016,0.0,0.0,0.0,17875.0,22084.0,20218.0,21665.0,0.0,0.0,0.0
1.2146515846252441,0.10689060596875237,-0.014113573653242966,0.3110327034760016,0.04754958864111356,-0.13601505369921715,-0.03445531019479344,0.005871100044067373,0.008655889589336033,-0.0023177184987398535,0.0,0.0,0.0,20607.0,18803.0,21188.0,18096.0,0.0,0.0,0.0
1.2200160026550293,0.10735369845891815,-0.015323584030093334,0.3120401349484185,0.04905531580296655,-0.13966142910596172,-0.03440182080146151,0.005935890284259276,0.008709257308481209,-0.0024579361647753817,0.0,0.0,0.0,20607.0,18803.0,21188.0,18096.0,0.0,0.0,0.0
1.2253789901733398,0.10768151522032209,-0.016172374175482566,0.31223498677142514,0.051057088701394956,-0.1444135527140969,-0.030122693976896528,0.005889876393249713,0.00876239001793697,-0.002546918461801941,0.0,0.0,0.0,21009.0,18759.0,20553.0,18380.0,0.0,0.0,0.0
1.2307453155517578,0.10775221479685261,-0.016347685054496144,0.310920386357981,0.05284666365653051,-0.1484348222327045,-0.02593661828710924,0.005642367348417755,0.008799113092696008,-0.0025548886872474473,0.0,0.0,0.0,21009.0,18759.0,20553.0,18380.0,0.0,0.0,0.0
1.2361690998077393,0.107772217273812,-0.01638856017476031,0.30928370431130486,0.05365042340793661,-0.14973904857735335,-0.026522275206861505,0.005296675124657249,0.008819446607426866,-0.00252438001021113,0.0,0.0,0.0,18161.0,22285.0,19167.0,21720.0,0.0,0.0,0.0
1.2415156364440918,0.1079087061080525,-0.01673356393198064,0.308280458150571,0.053378624426844615,-0.14813104675042338,-0.032601348851902766,0.004970454146457232,0.008827632294297828,-0.0024969881124079136,0.0,0.0,0.0,19238.0,21595.0,18850.0,21516.0,0.0,0.0,0.0
1.246873378753662,0.1081429379610418,-0.017335716780916267,0.30780490268227517,0.0525619540057705,-0.14503688836619044,-0.041312477836474536,0.00467199601324001,0.008795142984569062,-0.002481250648963279,0.0,0.0,0.0,19238.0,21595.0,18850.0,21516.0,0.0,0.0,0.0
1.2522385120391846,0.10845755630653106,-0.018148684521256703,0.3077620465622287,0.05176200225768343,-0.14196217120711735,-0.04958643706965722,0.0043775446194825145,0.00867460072022518,-0.002498579346255718,0.0,0.0,0.0,18770.0,21763.0,18179.0,22008.0,0.0,0.0,0.0
1.2575974464416504,0.10883929039361348,-0.019136749755728474,0.30806690028241646,0.051354151428283236,-0.13991775083226465,-0.055397117174495775,0.004072092058390387,0.008508627432011471,-0.0025623497367358757,0.0,0.0,0.0,18770.0,21763.0,18179.0,22008.0,0.0,0.0,0.0
