T,Px,Py,Pz,Vx,Vy,Vz,Roll,Pitch,Yaw,R_rate,P_rate,Y_rate,T,M1,M2,M3,Wb1,Wb2,Wb3
0,0.06955158710479736,0.9347794651985168,0.10847536474466324,0.0,0.0,0.0,0.008305109273017091,0.0013274143495896214,-0.0747179764466579,0.0,0.0,0.0,0.0,0.0,0.0,0.0,0.0,0.0,0.0
0.0008361339569091797,0.00038550771089684865,0.005181248293396618,0.000601185293958235,0.00042735204477677445,0.005743638817309368,0.0006664400150779919,4.651451316482945e-05,6.409209818286372e-06,-0.0004140238617062695,0.0,0.0,0.0,0.0,0.0,0.0,0.0,0.0,0.0,0.0
0.007463693618774414,0.001842239166380327,0.024759260564296576,0.0028729031538279066,0.0032296561185249355,0.04340617326683271,0.005036529354747921,0.00022198227204489737,3.139859131108227e-05,-0.0019782443969266965,0.0,0.0,0.0,0.0,0.0,0.0,0.0,0.0,0.0,0.0
0.014032125473022461,0.004510016217396691,0.06061339721026258,0.007033285134189755,0.012016543358513838,0.1614997390493364,0.018739444279759904,0.0005417429207264066,7.921442232014434e-05,-0.004841525838091566,0.0,0.0,0.0,0.0,0.0,0.0,0.0,0.0,0.0,0.0
0.020482778549194336,0.008087865344468124,0.10870642139384087,0.012613101574968555,0.03028243350736332,0.4069968093275118,0.04722500023808241,0.000964124991178746,0.0001499616100418449,-0.008680221710903458,0.0,0.0,0.0,0.0,0.0,0.0,0.0,0.0,0.0,0.0
0.026914119720458984,0.012314708456055931,0.16553397556158267,0.019205170550573577,0.05981380716047077,0.8039361337615122,0.09327978639482268,0.0014552410232551972,0.0002422526742477094,-0.013215046250728463,0.0,0.0,0.0,0.0,0.0,0.0,0.0,0.0,0.0,0.0
0.0336148738861084,0.016967657216506664,0.2280961877499894,0.026461770525451643,0.10063196071311402,1.3526399943665077,0.15693740203313136,0.0019906639483784115,0.0003500701346258537,-0.018206069780508722,0.0,0.0,0.0,0.0,0.0,0.0,0.0,0.0,0.0,0.0
0.040224313735961914,0.021858282794335396,0.2938634886234263,0.03408900048856807,0.15151124990092915,2.036661876940009,0.2362863737766813,0.0025480761989786927,0.0004683272234908666,-0.0234519662597446,0.0,0.0,0.0,0.0,0.0,0.0,0.0,0.0,0.0,0.0
0.04680776596069336,0.026830810806666286,0.36073946280345137,0.04184397685521785,0.21040958427033216,2.828573520355105,0.3281417821788306,0.003113245657566473,0.0005900497844553109,-0.02878603411181788,0.0,0.0,0.0,0.0,0.0,0.0,0.0,0.0,0.0,0.0
0.05351400375366211,0.03175951389949388,0.4270209261635396,0.04953052859141953,0.2748202420620487,3.6946781646394933,0.4285940965888103,0.0036763979992766736,0.0007083359010834116,-0.03407054224590037,0.0,0.0,0.0,0.0,0.0,0.0,0.0,0.0,0.0,0.0
0.060237884521484375,0.03654418750139499,0.4913569023456319,0.05699235637884291,0.34205110859855925,4.59874874124225,0.5334445138229014,0.004225567204335452,0.0008196384913832192,-0.03919726299345923,0.0,0.0,0.0,0.0,0.0,0.0,0.0,0.0,0.0,0.0
0.06664204597473145,0.04110718116070043,0.5527086867988891,0.06410878178828011,0.4094361894690224,5.504898045404657,0.6385353408546869,0.00475123108181406,0.0009231852099784103,-0.04408252133523407,0.0,0.0,0.0,0.0,0.0,0.0,0.0,0.0,0.0,0.0
0.0735020637512207,0.04539104210157701,0.6103104500347585,0.07079041202006994,0.4744902024111346,6.379691951902912,0.7399918410617395,0.005246150182758168,0.0010205055067489413,-0.048665241574338006,0.0,0.0,0.0,0.0,0.0,0.0,0.0,0.0,0.0,0.0
0.08072400093078613,0.04935626664578711,0.6636317969801837,0.07697528175024569,0.5350173603746573,7.193614175565381,0.8343910311465669,0.005704923658709403,0.0011114019891173737,-0.05290594255478628,0.0,0.0,0.0,0.0,0.0,0.0,0.0,0.0,0.0,0.0
0.08739185333251953,0.05297878943824291,0.7123430899140056,0.08262539056180329,0.5891816861099026,7.921987270251982,0.918869640300202,0.00612536163576922,0.001193774356972068,-0.056781463846031555,0.0,0.0,0.0,0.0,0.0,0.0,0.0,0.0,0.0,0.0
0.09386253356933594,0.05624685754398477,0.7562826891815064,0.0877221917334203,0.6355438185293452,8.545448184271544,0.991181200253415,0.006507647315808676,0.001265541575680471,-0.06028019722896964,0.0,0.0,0.0,0.0,0.0,0.0,0.0,0.0,0.0,0.0
0.10062789916992188,0.059158734558857826,0.7954270443645715,0.09226317947800496,0.6730694352203135,9.050067035225627,1.0497104647430615,0.006851997594998731,0.001326237158692901,-0.06339765413572915,0.0,0.0,0.0,0.0,0.0,0.0,0.0,0.0,0.0,0.0
0.10718035697937012,0.06172068829693442,0.8298635983995779,0.09625830083084905,0.7011162310347976,9.427189104606196,1.093454417078402,0.007157341321956814,0.001377769178174277,-0.06613976262540236,0.0,0.0,0.0,0.0,0.0,0.0,0.0,0.0,0.0,0.0
0.11262631416320801,0.06394556651255687,0.8597665807306563,0.09972748539317138,0.7194062137074797,9.673071288181296,1.1219790105517586,0.007422925260670148,0.0014223264863613646,-0.06852240737211715,0.0,0.0,0.0,0.0,0.0,0.0,0.0,0.0,0.0,0.0
0.11928558349609375,0.06585126940434238,0.8853756480539795,0.10269863454687785,0.7279883592006322,9.788374686438118,1.1353602280921655,0.007650498639247513,0.0014627430483494163,-0.07057025854457386,0.0,0.0,0.0,0.0,0.0,0.0,0.0,0.0,0.0,0.0
0.12468194961547852,0.06745879608464946,0.9069783708521731,0.10520484587512814,0.7271943257969966,9.777567020517367,1.1341153015572818,0.00784971009832232,0.0015059180604150635,-0.07231009321979696,0.0,0.0,0.0,0.0,0.0,0.0,0.0,0.0,0.0,0.0
0.13001227378845215,0.06879111777616173,0.9248946375020416,0.10728318007091239,0.7175894489623709,9.648279893962844,1.1191280994092327,0.00802560539843494,0.001560661943697582,-0.07375609583202108,0.0,0.0,0.0,0.0,0.0,0.0,0.0,0.0,0.0,0.0
0.1353287696838379,0.06987274080280913,0.939461496360646,0.10897279362505258,0.6999231688376081,9.410653145115923,1.0915733675982093,0.008164593452324244,0.0016230566431158662,-0.07492004514592025,0.0,0.0,0.0,0.0,0.0,0.0,0.0,0.0,0.0,0.0
0.1407613754272461,0.07072957566192734,0.9510226937101905,0.11031330946365511,0.6750828875455681,9.076691700254202,1.052842299307391,0.008267476569579402,0.0016837264534066776,-0.07583560186338321,0.0,0.0,0.0,0.0,0.0,0.0,0.0,0.0,0.0,0.0
0.14613604545593262,0.07138557058817047,0.9599186757422684,0.11134370131219959,0.6440494527007996,8.65965810753667,1.004471213018797,0.00836541830885423,0.001758359910140541,-0.07658422947889096,0.0,0.0,0.0,0.0,0.0,0.0,0.0,0.0,0.0,0.0
0.1515049934387207,0.07186261103988426,0.9664799367980489,0.11210173299781394,0.607851716474316,8.173517056132578,0.9480763189269903,0.008478794604977836,0.0018694800004688534,-0.0772489982403902,0.0,0.0,0.0,0.0,0.0,0.0,0.0,0.0,0.0,0.0
0.1569070816040039,0.07218472009965926,0.9710256841250577,0.11262457326098979,0.5675297837080724,7.632447667654052,0.8852979101408902,0.008609389586502396,0.0020175771645637927,-0.07783848938738286,0.0,0.0,0.0,0.0,0.0,0.0,0.0,0.0,0.0,0.0
0.16229677200317383,0.07237630125517473,0.9738583444264989,0.11294796774669083,0.5241125847017573,7.050431759847299,0.8177549605607184,0.008759930930743185,0.0021924853081375377,-0.07832440430598822,0.0,0.0,0.0,0.0,0.0,0.0,0.0,0.0,0.0,0.0
0.16773271560668945,0.07246036300476534,0.9752577272849104,0.11310580108171574,0.4785989555074972,6.4409083717339355,0.7470075997246476,0.008910577823199536,0.002373602128596984,-0.0786879366174636,0.0,0.0,0.0,0.0,0.0,0.0,0.0,0.0,0.0,0.0
0.17305278778076172,0.07245819105719623,0.975479035092984,0.11312830552196716,0.43193690665712386,5.816487904301989,0.6745244926086295,0.009043691261678448,0.0025453799769287857,-0.07892216552651557,0.0,0.0,0.0,0.0,0.0,0.0,0.0,0.0,0.0,0.0
0.1784219741821289,0.07238717569836928,0.974752388819302,0.11304039826337056,0.38500304502822,5.188730167275856,0.6016524449285865,0.00917751545043152,0.0027255308583495103,-0.079039673459549,0.0,0.0,0.0,0.0,0.0,0.0,0.0,0.0,0.0,0.0
0.18381214141845703,0.07226183316013195,0.9732830892227751,0.11286447768194734,0.3385836298351646,4.567986962974204,0.5295921923467515,0.009315632440206717,0.002931836721456286,-0.07905384946517861,0.0,0.0,0.0,0.0,0.0,0.0,0.0,0.0,0.0,0.0
0.18910431861877441,0.07209600927901372,0.9712526052670467,0.11262181914295046,0.29336370415925467,3.9633039587466308,0.45938815456320703,0.00943798402188583,0.003157870756572898,-0.07896646690399245,0.0,0.0,0.0,0.0,0.0,0.0,0.0,0.0,0.0,0.0
0.19450902938842773,0.0719020056336934,0.9688193280902699,0.11233101324398148,0.24992568471887028,3.382374381084732,0.3919281591343384,0.009536835683176141,0.003399715934786818,-0.07877603719016349,0.0,0.0,0.0,0.0,0.0,0.0,0.0,0.0,0.0,0.0
0.19999098777770996,0.07168975904678532,0.9661190167781223,0.11200819366728318,0.2087501037336888,2.8315351800081334,0.32794502943832704,0.009619507965875646,0.0036539037659867745,-0.07847958353244476,0.0,0.0,0.0,0.0,0.0,0.0,0.0,0.0,0.0,0.0
0.20530128479003906,0.07146759841813118,0.9632656792471878,0.11166791338562791,0.17021651303154298,2.3157968279456904,0.2680210381046949,0.009698320281437349,0.003907369849075114,-0.07808151127238028,0.0,0.0,0.0,0.0,0.0,0.0,0.0,0.0,0.0,0.0
0.21060967445373535,0.07124266163001261,0.9603521312036905,0.11132288129961085,0.13460767744739893,1.838899658702898,0.21259671443311928,0.009777921188552693,0.004139504528787519,-0.07761198198776702,0.0,0.0,0.0,0.0,0.0,0.0,0.0,0.0,0.0,0.0
0.21597862243652344,0.0710209320888828,0.9574523087684932,0.11098356509024274,0.10211688256583873,1.4033919233357743,0.16198098712963976,0.009879541388329362,0.0043326655364726765,-0.07712176058227746,0.0,0.0,0.0,0.0,0.0,0.0,0.0,0.0,0.0,0.0
0.2212986946105957,0.07080734181808095,0.9546234683105855,0.11065942825194425,0.07285642806979163,1.0107269125431233,0.11636242318166232,0.010051606252312042,0.004474017100240105,-0.07666564830179248,0.0,0.0,0.0,0.0,0.0,0.0,0.0,0.0,0.0,0.0
0.2265913486480713,0.07060516231789687,0.9519092320226222,0.1103576508980394,0.04686581858000201,0.6613758257778123,0.07582178081447744,0.010345623148856484,0.004560161049488413,-0.07628708112998417,0.0,0.0,0.0,0.0,0.0,0.0,0.0,0.0,0.0,0.0
0.2318735122680664,0.0704158161428384,0.9493439644472774,0.11008094060679946,0.024118491722536196,0.35495397343217155,0.040340560593177116,0.010801320617671513,0.004610967127234615,-0.07599058103975442,0.0,0.0,0.0,0.0,0.0,0.0,0.0,0.0,0.0,0.0
0.23716187477111816,0.07024091941780222,0.9469528678646112,0.10983239801479097,0.004529841955979427,0.09035400071918831,0.009809175930660422,0.011425093307142638,0.004631092453064881,-0.07575155741465892,0.0,0.0,0.0,0.0,0.0,0.0,0.0,0.0,0.0,0.0
0.2425086498260498,0.07008190193725085,0.9447514996463584,0.10961677856437788,-0.012031168634592764,-0.13412687615799612,-0.015954725093773853,0.012219681639120029,0.004601985367488334,-0.07554377621756943,0.0,0.0,0.0,0.0,0.0,0.0,0.0,0.0,0.0,0.0
0.24790191650390625,0.06993882047700817,0.9427470393477895,0.10943598911761229,-0.025731576487661622,-0.3206713374663836,-0.03718677537664188,0.013202700683272152,0.004531057575466587,-0.07534861724683878,0.0,0.0,0.0,0.0,0.0,0.0,0.0,0.0,0.0,0.0
0.2532515525817871,0.06981156256144652,0.9409415348032037,0.10928908963516154,-0.03676698069126233,-0.4718329288009734,-0.05416768821465946,0.014382575628411418,0.00444734433699642,-0.07515800974757779,0.0,0.0,0.0,0.0,0.0,0.0,0.0,0.0,0.0,0.0
0.25867652893066406,0.06969925438724803,0.9393329288350238,0.10917597975169518,-0.045354258037861646,-0.5904307865972686,-0.06721659253828732,0.01573795029909937,0.0043543847437712176,-0.07497322730935894,0.0,0.0,0.0,0.0,0.0,0.0,0.0,0.0,0.0,0.0
0.26413559913635254,0.06960010895381338,0.9379139763510838,0.10909776828162776,-0.05172540408611045,-0.6794547713669364,-0.07667625910886831,0.01721519428192234,0.0042303839490985444,-0.07480441073119831,0.0,0.0,0.0,0.0,0.0,0.0,0.0,0.0,0.0,0.0
0.2694664001464844,0.06951260740145279,0.9366754027835431,0.10905423873626878,-0.05612194935621828,-0.7419834745117643,-0.08289864908729941,0.018756313905214563,0.004052526519164052,-0.074659431284763,0.0,0.0,0.0,0.0,0.0,0.0,0.0,0.0,0.0,0.0
0.2748887538909912,0.0694350033724455,0.9356069272752822,0.10904421599304925,-0.05878837506797648,-0.7811096543869798,-0.08623794061718343,0.020291415322908214,0.0038104317232757175,-0.07453965482152715,0.0,0.0,0.0,0.0,0.0,0.0,0.0,0.0,0.0,0.0
0.2804286479949951,0.06936519767325454,0.9346965572299561,0.10906640386826544,-0.059966703279036776,-0.7998752234717748,-0.087045963502765,0.021734991785805305,0.0035056668274232416,-0.07443750056016397,0.0,0.0,0.0,0.0,0.0,0.0,0.0,0.0,0.0,0.0
0.2857542037963867,0.06930140566385418,0.9339315840196789,0.1091181128075086,-0.05989230666708276,-0.8012196392326731,-0.08566774232178183,0.023018368078364475,0.0031416132088345444,-0.07433848743070129,0.0,0.0,0.0,0.0,0.0,0.0,0.0,0.0,0.0,0.0
0.2911105155944824,0.06924243653921262,0.9332995244096275,0.10919516461463703,-0.05878905010143299,-0.7879383777483647,-0.0824400761633862,0.02409775797350274,0.002722810897716008,-0.07423125095234993,0.0,0.0,0.0,0.0,0.0,0.0,0.0,0.0,0.0,0.0
0.2965726852416992,0.06918702048149739,0.9327883368970346,0.10929538926081374,-0.05686504199846782,-0.7626494406444948,-0.07768832891459217,0.024926691993561942,0.002243278419134071,-0.07409902539984398,0.0,0.0,0.0,0.0,0.0,0.0,0.0,0.0,0.0,0.0
0.30193662643432617,0.06913353444553938,0.9323856743276896,0.10941962473138683,-0.05431106747515175,-0.7277697737758799,-0.07171535695045148,0.025440870376229968,0.001688741766873982,-0.07392154659734901,0.0,0.0,0.0,0.0,0.0,0.0,0.0,0.0,0.0,0.0
0.3073282241821289,0.06908101244334643,0.932078630466425,0.10956760359570564,-0.05129995158101564,-0.6855025389565484,-0.06479160821406055,0.0255951169438018,0.0010671299268066989,-0.07369432054340239,0.0,0.0,0.0,0.0,0.0,0.0,0.0,0.0,0.0,0.0
0.31270837783813477,0.06902934931050472,0.9318538302613386,0.10973918994571501,-0.047984285769215505,-0.6378329512259115,-0.057154552314960166,0.02537229163502893,0.0003921877967441711,-0.07342042647767658,0.0,0.0,0.0,0.0,0.0,0.0,0.0,0.0,0.0,0.0
0.3180367946624756,0.06897900722034171,0.9316985783007689,0.1099363860138681,-0.044493809474662485,-0.5865285850894058,-0.0490085484013262,0.02478064550873759,-0.0003454369429530137,-0.07310280541078099,0.0,0.0,0.0,0.0,0.0,0.0,0.0,0.0,0.0,0.0
0.32341837882995605,0.0689301195616922,0.9316014324000317,0.11015922323875753,-0.04093523811407622,-0.5331411629000171,-0.04052420832519216,0.023862626482003872,-0.001145704892795937,-0.07274874020343164,0.0,0.0,0.0,0.0,0.0,0.0,0.0,0.0,0.0,0.0
0.3288002014160156,0.06888179746023562,0.9315518987475689,0.11040786600722594,-0.03739571668433509,-0.4790105657663594,-0.03184318822219889,0.022657723904782046,-0.0019867789696768937,-0.07235365760452545,0.0,0.0,0.0,0.0,0.0,0.0,0.0,0.0,0.0,0.0
0.3342714309692383,0.06883296100163738,0.9315402618979678,0.11068399093375492,-0.03394762875229807,-0.42527297070470693,-0.02308102935681634,0.021197783925012967,-0.002846398470249029,-0.07190491396589177,0.0,0.0,0.0,0.0,0.0,0.0,0.0,0.0,0.0,0.0
0.3396294116973877,0.06878290161807467,0.9315579669053774,0.11098569283883153,-0.03065107720771494,-0.37287217444108317,-0.014330268940611799,0.01954019949014485,-0.0036977961212308276,-0.0713989906166501,0.0,0.0,0.0,0.0,0.0,0.0,0.0,0.0,0.0,0.0
0.34501051902770996,0.06873117005856579,0.9315976756156693,0.11130900664556377,-0.027554099013008343,-0.3225722056149593,-0.005671519112509167,0.01774913826980725,-0.004508913642491368,-0.07083817891366652,0.0,0.0,0.0,0.0,0.0,0.0,0.0,0.0,0.0,0.0
0.3503692150115967,0.06867770541359733,0.9316516111050378,0.11165365497336817,-0.024692586607773872,-0.2749726971256536,0.002821495285315185,0.015888305061057838,-0.005246781355007727,-0.07023103274353652,0.0,0.0,0.0,0.0,0.0,0.0,0.0,0.0,0.0,0.0
0.35573840141296387,0.06862305739328839,0.9317127217302315,0.1120225471693026,-0.022090085949865355,-0.23052715886531613,0.011091624403370706,0.01405165288978321,-0.005889199113669386,-0.06959158983749045,0.0,0.0,0.0,0.0,0.0,0.0,0.0,0.0,0.0,0.0
0.3611137866973877,0.06856794691221117,0.9317762464033326,0.11241677568744092,-0.019757759789797373,-0.18955836953203112,0.019105397870809098,0.012327543473812718,-0.006443451222963538,-0.0689292757265014,0.0,0.0,0.0,0.0,0.0,0.0,0.0,0.0,0.0,0.0
0.3664834499359131,0.06851302926001672,0.9318384563456193,0.11283541272225468,-0.017695623159534782,-0.1522702349287139,0.026846314844042925,0.010753341530505202,-0.006927785422642205,-0.06824908847240646,0.0,0.0,0.0,0.0,0.0,0.0,0.0,0.0,0.0,0.0
0.37186169624328613,0.06845911605926025,0.9318955753681549,0.11328052830777909,-0.015894546042014325,-0.11876217101740999,0.03430865959938635,0.009318153769605741,-0.007344032823927492,-0.06755256495192834,0.0,0.0,0.0,0.0,0.0,0.0,0.0,0.0,0.0,0.0
0.37717437744140625,0.06840656119433251,0.9319442433838313,0.11375638426432036,-0.014338511028202959,-0.08904621336681459,0.04150231650381652,0.007996778952421872,-0.007683069968707716,-0.06683666801837766,0.0,0.0,0.0,0.0,0.0,0.0,0.0,0.0,0.0,0.0
0.3825571537017822,0.0683547256899619,0.9319830386290782,0.11426266119334326,-0.01300828255875716,-0.06306113756287574,0.048452547509077425,0.006777370437888324,-0.007937777889661695,-0.06610616533550172,0.0,0.0,0.0,0.0,0.0,0.0,0.0,0.0,0.0,0.0
0.3879551887512207,0.06830204350469171,0.9320111818477322,0.11480061592085503,-0.011886210812026093,-0.04068293885589794,0.05519038894154514,0.005637952771635264,-0.008107000854377999,-0.06537334998070209,0.0,0.0,0.0,0.0,0.0,0.0,0.0,0.0,0.0,0.0
0.393324613571167,0.06824675687849797,0.9320277271762949,0.11537618295166695,-0.010959675683888774,-0.021736698611162664,0.06175441471658106,0.004550736943499297,-0.008197409712019803,-0.06464974846044538,0.0,0.0,0.0,0.0,0.0,0.0,0.0,0.0,0.0,0.0
0.39869022369384766,0.06818836271915833,0.9320334098901953,0.11598903779187536,-0.010220426576104663,-0.006008397838212873,0.06819355941526234,0.003516162524791426,-0.008209751560382833,-0.06394541378472637,0.0,0.0,0.0,0.0,0.0,0.0,0.0,0.0,0.0,0.0
0.4040517807006836,0.06812688979391548,0.9320293093945462,0.11663863850050352,-0.009660736156749868,0.0067464731571045215,0.07455503716169053,0.00254501627450518,-0.008142838277354252,-0.06325898356887429,0.0,0.0,0.0,0.0,0.0,0.0,0.0,0.0,0.0,0.0
0.40940213203430176,0.06806156126435908,0.9320156770883878,0.11733054371063463,-0.009271790465070309,0.016793128813041437,0.0808829798356486,0.0016127638416697499,-0.008018875740611713,-0.06257777134346976,0.0,0.0,0.0,0.0,0.0,0.0,0.0,0.0,0.0,0.0
0.41477537155151367,0.06800050063404525,0.9320054853618122,0.11796383988166016,-0.009035430870922663,0.024420131439705055,0.08711332802869276,0.0006607195599687472,-0.007777620465976206,-0.061860631923245465,0.0,0.0,0.0,0.0,0.0,0.0,0.0,0.0,0.0,0.0
0.4201531410217285,0.06795069130241292,0.9320103062961269,0.11845584600161266,-0.008908842173159697,0.029954076066240756,0.09288771895677296,-0.000337810920323104,-0.00738175308365072,-0.06108037614714327,0.0,0.0,0.0,0.0,0.0,0.0,0.0,0.0,0.0,0.0
0.42551279067993164,0.06789929141160003,0.9320152307456666,0.11895336120461728,-0.008845051826659444,0.03372641510277305,0.0977968389092536,-0.001361695212120276,-0.0070066967392295575,-0.06027757389466981,0.0,0.0,0.0,0.0,0.0,0.0,0.0,0.0,0.0,0.0
0.4309060573577881,0.06783526044838668,0.9320086161184802,0.11957891027350734,-0.008838020800467493,0.03600849980763962,0.10190172717842126,-0.0023691779818781817,-0.006795640411101083,-0.059472531472722544,0.0,0.0,0.0,0.0,0.0,0.0,0.0,0.0,0.0,0.0
0.4362783432006836,0.06776026144289721,0.9319938855203465,0.12032226389077776,-0.008918524612398435,0.03701212380791727,0.10569213636985374,-0.003318844991060874,-0.006761907531255216,-0.05865011914198941,0.0,0.0,0.0,0.0,0.0,0.0,0.0,0.0,0.0,0.0
0.4416065216064453,0.0676759571626566,0.9319717648016781,0.12117411341201205,-0.009115976211370462,0.03693072422600014,0.10967005966279778,-0.0042165039534759995,-0.006890200914099946,-0.057816245368169206,0.0,0.0,0.0,0.0,0.0,0.0,0.0,0.0,0.0,0.0
0.44688987731933594,0.06758197128875146,0.9319420162150206,0.12212907074768362,-0.009446223855330067,0.03594840231850602,0.11419538652566033,-0.005084017863683844,-0.007140727084078848,-0.056981571982407164,0.0,0.0,0.0,0.0,0.0,0.0,0.0,0.0,0.0,0.0
0.4522514343261719,0.06747870920197611,0.9319059594667354,0.12317429810705832,-0.00991755636696038,0.03423430157148947,0.11950768483642603,-0.005903248030666947,-0.007485206891464423,-0.056155929183342196,0.0,0.0,0.0,0.0,0.0,0.0,0.0,0.0,0.0,0.0
0.45757436752319336,0.06736826851863825,0.9318647347450342,0.1242927964588946,-0.010530676585926739,0.03194402300736906,0.12572807375171613,-0.0066359354291944395,-0.007921924320183649,-0.05534359198995911,0.0,0.0,0.0,0.0,0.0,0.0,0.0,0.0,0.0,0.0
0.4629857540130615,0.06725144221437973,0.9318188873514476,0.12547734938150526,-0.011277024763658442,0.029219542038131346,0.1328734933601525,-0.007251327087068049,-0.008438670877969423,-0.05453707413529253,0.0,0.0,0.0,0.0,0.0,0.0,0.0,0.0,0.0,0.0
0.4683501720428467,0.06712749691714619,0.9317695927494125,0.12672855433459312,-0.012143522031330161,0.026187955575351585,0.14090281930692505,-0.007725073048462571,-0.008995262173381124,-0.053729390475823424,0.0,0.0,0.0,0.0,0.0,0.0,0.0,0.0,0.0,0.0
0.4736356735229492,0.06699696373060492,0.9317188042933934,0.12803890676568083,-0.013117189136584715,0.022963227931105917,0.14974852790906443,-0.008042890009382755,-0.009556755177612165,-0.05292212389574347,0.0,0.0,0.0,0.0,0.0,0.0,0.0,0.0,0.0,0.0
0.47904205322265625,0.06686068083964458,0.9316673393472957,0.12939935261101052,-0.014183962518814987,0.019647444028177165,0.1593124333519238,-0.008203636977447772,-0.010106675873521244,-0.05212275776601797,0.0,0.0,0.0,0.0,0.0,0.0,0.0,0.0,0.0,0.0
0.4844241142272949,0.06671902183511232,0.9316147204061613,0.13080843261542205,-0.01532765457251599,0.01632782074936898,0.16946997471113348,-0.008225245800962018,-0.01062933063948963,-0.05133610622719084,0.0,0.0,0.0,0.0,0.0,0.0,0.0,0.0,0.0,0.0
0.48973608016967773,0.066573584963852,0.9315603329779105,0.13226035141963222,-0.016530067692793204,0.013073452949815666,0.18008854531873963,-0.0081516495810148,-0.011087732471597481,-0.050564112170926365,0.0,0.0,0.0,0.0,0.0,0.0,0.0,0.0,0.0,0.0
0.495147705078125,0.06642639423646665,0.931504114353521,0.13374396897530025,-0.01776912599493948,0.009936263968712378,0.19102491629475526,-0.00800342312247073,-0.011449647077937837,-0.04980573506420236,0.0,0.0,0.0,0.0,0.0,0.0,0.0,0.0,0.0,0.0
0.5005731582641602,0.06627796248519488,0.931447167936877,0.13525497892831992,-0.01901951096629917,0.0069556391459193595,0.2021214470195261,-0.007763228900968864,-0.011718241704548757,-0.04906475922126549,0.0,0.0,0.0,0.0,0.0,0.0,0.0,0.0,0.0,0.0
0.5059003829956055,0.06612755677568243,0.9313906518231773,0.13679564609685746,-0.020258128145091717,0.00416330782785948,0.2132289614474137,-0.007433372570616879,-0.011904700474842036,-0.04835293185020435,0.0,0.0,0.0,0.0,0.0,0.0,0.0,0.0,0.0,0.0
0.5112276077270508,0.06597635422321627,0.9313357442108243,0.13836461596739785,-0.021466495926282313,0.001585601181456126,0.22422650146898382,-0.007065445030852446,-0.012006793742686,-0.04766693285445242,0.0,0.0,0.0,0.0,0.0,0.0,0.0,0.0,0.0,0.0
0.5166277885437012,0.06582617223958853,0.9312835445579251,0.13996233458210006,-0.022626672889855568,-0.0007560383764368933,0.23501964377049164,-0.0066956355120568216,-0.012001197646365987,-0.046992014104692274,0.0,0.0,0.0,0.0,0.0,0.0,0.0,0.0,0.0,0.0
0.5219302177429199,0.06567551302399484,0.9312343945670482,0.14159089670755862,-0.023721686065454873,-0.0028455510437066017,0.24553911510434337,-0.006299593465232473,-0.011858059036747174,-0.046331990937606704,0.0,0.0,0.0,0.0,0.0,0.0,0.0,0.0,0.0,0.0
0.5272409915924072,0.06552227865523155,0.9311882177930632,0.14324384621194922,-0.02474301990268021,-0.004673774321929858,0.2557334906277096,-0.005871465392289861,-0.011585669298081202,-0.04569914193853437,0.0,0.0,0.0,0.0,0.0,0.0,0.0,0.0,0.0,0.0
0.5325992107391357,0.06536702711324724,0.9311451943453775,0.14491282397637686,-0.02569118176701172,-0.006238754905145474,0.26554753873507214,-0.005433432831323434,-0.011203366591996495,-0.04508384479578022,0.0,0.0,0.0,0.0,0.0,0.0,0.0,0.0,0.0,0.0
0.5379581451416016,0.06521158589286752,0.931106586560696,0.14660146014852682,-0.026567262933644944,-0.007543050969501659,0.2749237963807597,-0.005001179274725505,-0.010728083514006207,-0.04445530251490952,0.0,0.0,0.0,0.0,0.0,0.0,0.0,0.0,0.0,0.0
0.5432727336883545,0.06505562713327942,0.9310732311066473,0.14831918024037707,-0.027369428578472046,-0.008590564859838033,0.28383518369649824,-0.004603776494300082,-0.010199250193120093,-0.04379012388399729,0.0,0.0,0.0,0.0,0.0,0.0,0.0,0.0,0.0,0.0
0.5486643314361572,0.06489749633802923,0.9310449580261472,0.15006393186049904,-0.028098383260528166,-0.009387048753040934,0.2922929678215498,-0.004250275514536898,-0.00964654847412706,-0.04308851221939211,0.0,0.0,0.0,0.0,0.0,0.0,0.0,0.0,0.0,0.0
0.5540528297424316,0.06473856669052092,0.9310215532255031,0.1518274306288343,-0.02875882372009097,-0.00994236122009497,0.3003129429518911,-0.003914931443610464,-0.009096402107744352,-0.0423583250604673,0.0,0.0,0.0,0.0,0.0,0.0,0.0,0.0,0.0,0.0
0.5595278739929199,0.06457969137744446,0.9310022311944952,0.15361037322414556,-0.029353873958815384,-0.01027127785212594,0.30789759367050573,-0.0035672592819288047,-0.00858407900527594,-0.04161349048096662,0.0,0.0,0.0,0.0,0.0,0.0,0.0,0.0,0.0,0.0
0.5648446083068848,0.06441788588070463,0.9309853866494087,0.1554198019675019,-0.02988738008898946,-0.01039440877727719,0.3150587288794585,-0.00319220383114672,-0.008131930194511233,-0.04087099024434369,0.0,0.0,0.0,0.0,0.0,0.0,0.0,0.0,0.0,0.0
0.5701525211334229,0.06425209460824982,0.9309697168091531,0.1572543587802447,-0.030370627884932062,-0.010338695103737255,0.32183007513275297,-0.0028084479060598577,-0.0077509978276629685,-0.0401332561671106,0.0,0.0,0.0,0.0,0.0,0.0,0.0,0.0,0.0,0.0
0.5755164623260498,0.06408280823532249,0.9309551808060286,0.15911346246473065,-0.030818874167956374,-0.010134389691611971,0.32825143416152985,-0.0024244227738024963,-0.007432953059855671,-0.03939232737238989,0.0,0.0,0.0,0.0,0.0,0.0,0.0,0.0,0.0,0.0
0.5808253288269043,0.06390779784217673,0.9309418175738244,0.16100365905402747,-0.031247665809270922,-0.009810505156169085,0.33436690132544533,-0.0020269237058285023,-0.007168257434934492,-0.038645058162597716,0.0,0.0,0.0,0.0,0.0,0.0,0.0,0.0,0.0,0.0
0.5861268043518066,0.06372590024532983,0.930928966920887,0.16292066110374157,-0.03167557132413043,-0.009393616884716195,0.34022768621648874,-0.0016309168723227666,-0.0069564126337631135,-0.037897724254324534,0.0,0.0,0.0,0.0,0.0,0.0,0.0,0.0,0.0,0.0
0.5914831161499023,0.06353937042159677,0.9309161310872416,0.16485291546256506,-0.03212003006833923,-0.008909040822393412,0.34586538789390775,-0.0012527218762093217,-0.006794822178230203,-0.03716156017299179,0.0,0.0,0.0,0.0,0.0,0.0,0.0,0.0,0.0,0.0
0.5967936515808105,0.06334913247912585,0.9309035424771268,0.16679987189219447,-0.03258990607057842,-0.00838012854025016,0.3512792797949865,-0.0008807046523699438,-0.00669694198863983,-0.03645100981385824,0.0,0.0,0.0,0.0,0.0,0.0,0.0,0.0,0.0,0.0
0.6020703315734863,0.06315407160656847,0.9308920087647798,0.1687679123027006,-0.03308842139477615,-0.00782570419688862,0.3564667896718894,-0.0005103042604630004,-0.006676448833442575,-0.03577016749110547,0.0,0.0,0.0,0.0,0.0,0.0,0.0,0.0,0.0,0.0
0.6074538230895996,0.06295519150880224,0.9308828960254277,0.17075252389076334,-0.03361785588873482,-0.007257845185015025,0.3614394133954325,-0.00016445113234269545,-0.006710062896157801,-0.035101618057654146,0.0,0.0,0.0,0.0,0.0,0.0,0.0,0.0,0.0,0.0
0.6127464771270752,0.0627527961827223,0.9308772157983157,0.17275050135464382,-0.03417802327787657,-0.006681475586302633,0.3662046372333958,0.0001393093519964987,-0.006764076830081656,-0.03443909722748658,0.0,0.0,0.0,0.0,0.0,0.0,0.0,0.0,0.0,0.0
0.6180517673492432,0.06254475500747471,0.9308741380453877,0.17476698389282444,-0.03476866826582454,-0.006097890414608455,0.3707666423982964,0.0003947273126635153,-0.00682049984800403,-0.03380340845597442,0.0,0.0,0.0,0.0,0.0,0.0,0.0,0.0,0.0,0.0
0.6233534812927246,0.06233143089794486,0.9308723945968251,0.1767952480375112,-0.03539289516658826,-0.005510411448605381,0.37513367032792777,0.0005868582348444165,-0.006842127673761597,-0.03319376475707729,0.0,0.0,0.0,0.0,0.0,0.0,0.0,0.0,0.0,0.0
0.6287498474121094,0.062116199023748014,0.930872462999315,0.17882243201802075,-0.036050261132658024,-0.00492498750091621,0.3792931762831664,0.0007067875849872379,-0.006792099763389805,-0.03257991987960381,0.0,0.0,0.0,0.0,0.0,0.0,0.0,0.0,0.0,0.0
0.634040117263794,0.06190171204302016,0.9308753938201003,0.1808493823358567,-0.03672885087072306,-0.00434551929430424,0.3832046848106673,0.0007604813353361396,-0.006665882720329277,-0.031947207290115194,0.0,0.0,0.0,0.0,0.0,0.0,0.0,0.0,0.0,0.0
0.6393401622772217,0.06168822011970787,0.9308806529879263,0.1828836228935755,-0.037408752019592484,-0.0037727319550116276,0.38683724088738464,0.0007494631961387031,-0.006464280344151708,-0.031301846080457635,0.0,0.0,0.0,0.0,0.0,0.0,0.0,0.0,0.0,0.0
0.64463210105896,0.06147564507344951,0.9308871222567932,0.18492037074580306,-0.03807058107694806,-0.003208317152635238,0.39018455769377247,0.0006478695157582726,-0.0061845820938729625,-0.03064709272632532,0.0,0.0,0.0,0.0,0.0,0.0,0.0,0.0,0.0,0.0
0.6499426364898682,0.06126498508995234,0.9308957227773849,0.18694880841470501,-0.03869800583963452,-0.0026554941084242843,0.39323366945381855,0.0004659424723936672,-0.005837432383191407,-0.029971747998980044,0.0,0.0,0.0,0.0,0.0,0.0,0.0,0.0,0.0,0.0
0.6552815437316895,0.061055352304906566,0.9309076656236893,0.18896893242176704,-0.03927756804728974,-0.002114438608968191,0.39595151535770834,0.00027131698621872866,-0.005450878703909286,-0.029280429549177575,0.0,0.0,0.0,0.0,0.0,0.0,0.0,0.0,0.0,0.0
0.660590410232544,0.0608439264779301,0.9309216647500524,0.19098677609365122,-0.03980353974290314,-0.0015827499736135267,0.39831365352171333,0.00010218377195892663,-0.005048733315251264,-0.028604371095960725,0.0,0.0,0.0,0.0,0.0,0.0,0.0,0.0,0.0,0.0
0.6658999919891357,0.06063071063532798,0.9309364220276762,0.19300028029952035,-0.04027975571088291,-0.001061245838414689,0.40031948708764115,-4.723283143820664e-05,-0.004643506532010102,-0.02794268814504579,0.0,0.0,0.0,0.0,0.0,0.0,0.0,0.0,0.0,0.0
0.6711862087249756,0.06041632388093227,0.9309517935893203,0.19501024866776404,-0.04071282333035034,-0.0005548183541646656,0.4019794514620973,-0.00020075165130614952,-0.004239544293986684,-0.027262571575878473,0.0,0.0,0.0,0.0,0.0,0.0,0.0,0.0,0.0,0.0
0.6765115261077881,0.06019868543122259,0.9309672779472404,0.19702425587350408,-0.0411099211215182,-6.936482500346521e-05,0.4033174675011992,-0.0003600455150166428,-0.0038567736472814537,-0.026561186994187004,0.0,0.0,0.0,0.0,0.0,0.0,0.0,0.0,0.0,0.0
0.6818218231201172,0.05997630116413297,0.9309821386540116,0.19903829832406536,-0.04148317841829404,0.0003887694741631187,0.40437307537759337,-0.0004979882215270755,-0.00353749294999468,-0.02586630475031974,0.0,0.0,0.0,0.0,0.0,0.0,0.0,0.0,0.0,0.0
0.687190055847168,0.05974975166824077,0.9309959088101329,0.201039812776378,-0.0418478126175492,0.0008124026542050976,0.4051697938434263,-0.0005884579374724655,-0.0032677281619683104,-0.025195247738518174,0.0,0.0,0.0,0.0,0.0,0.0,0.0,0.0,0.0,0.0
0.6925995349884033,0.05951927504680745,0.9310079489637307,0.20302578876321453,-0.04221630616862665,0.0011939879581820687,0.40569656738928983,-0.0006046247084817104,-0.003002764012645096,-0.024547497931166676,0.0,0.0,0.0,0.0,0.0,0.0,0.0,0.0,0.0,0.0
0.6979131698608398,0.059283714402274645,0.9310176648100443,0.20500362638355557,-0.04259868045273751,0.0015258200497205807,0.4059381296104791,-0.0005450158016204497,-0.002772127139586779,-0.023920747457217506,0.0,0.0,0.0,0.0,0.0,0.0,0.0,0.0,0.0,0.0
0.7033240795135498,0.05904325492532743,0.931025035013623,0.20697355692595015,-0.04300474857324181,0.001800781410261576,0.40590190433466544,-0.0004375690047970865,-0.0026185647684056476,-0.023312766686086263,0.0,0.0,0.0,0.0,0.0,0.0,0.0,0.0,0.0,0.0
0.7087514400482178,0.058797945415010766,0.9310301262096006,0.20893433167316464,-0.04344266136784448,0.002013800938370784,0.4056073272335619,-0.0002948395364662304,-0.0025254239230606047,-0.022720666544225818,0.0,0.0,0.0,0.0,0.0,0.0,0.0,0.0,0.0,0.0
0.714026689529419,0.05854680859598841,0.9310329986780843,0.21089153336618802,-0.04391900989338253,0.002162381894565612,0.4050793669186651,-0.0001229680338367803,-0.0024689590903078573,-0.022140905506002027,0.0,0.0,0.0,0.0,0.0,0.0,0.0,0.0,0.0,0.0
0.7194058895111084,0.05829134667341681,0.9310337997687852,0.2128411356125985,-0.04443866748086002,0.0022463244001181704,0.4043497223623771,5.760182956122743e-05,-0.0024427201763790977,-0.02157534452584154,0.0,0.0,0.0,0.0,0.0,0.0,0.0,0.0,0.0,0.0
0.7247872352600098,0.05803419455222884,0.9310327809524849,0.21477101475864285,-0.044999408433342915,0.002267573758740472,0.4034320719527788,0.00024288522822474764,-0.0024332040169856876,-0.021046226969858712,0.0,0.0,0.0,0.0,0.0,0.0,0.0,0.0,0.0,0.0
0.7301602363586426,0.05777634424880489,0.9310308179398442,0.21668136788122655,-0.045589932786843396,0.0022307693757692665,0.40231041347603586,0.00041575895995147406,-0.002439223307767046,-0.020562525466785064,0.0,0.0,0.0,0.0,0.0,0.0,0.0,0.0,0.0,0.0
0.7354843616485596,0.0575174657042769,0.9310289854425247,0.218581099016994,-0.046195776767919354,0.0021443252586385384,0.40097332320424645,0.0005132456573938685,-0.0024649818700486523,-0.020094617580047793,0.0,0.0,0.0,0.0,0.0,0.0,0.0,0.0,0.0,0.0
0.7407960891723633,0.05725794261140431,0.9310274371767593,0.22046647305637718,-0.046804224834906066,0.0020196038163669953,0.3994322482558986,0.0004954763747025771,-0.002473346584840505,-0.019616868774012138,0.0,0.0,0.0,0.0,0.0,0.0,0.0,0.0,0.0,0.0
0.7460699081420898,0.05699859528057258,0.9310269225990409,0.2223330923524538,-0.047403642468248415,0.001868915709613372,0.39769759249762343,0.00038185655885775887,-0.002416924197985669,-0.019121103140770514,0.0,0.0,0.0,0.0,0.0,0.0,0.0,0.0,0.0,0.0
0.7513413429260254,0.056739207018237287,0.9310291911171076,0.22418635813791138,-0.04798290910117276,0.0017064663572859684,0.3957740762326472,0.0002114564676480762,-0.0022953826170233217,-0.01860511330407992,0.0,0.0,0.0,0.0,0.0,0.0,0.0,0.0,0.0,0.0
0.7566618919372559,0.05647933341046149,0.9310344847932711,0.2260231633255671,-0.04853362985043396,0.0015488699840962442,0.3936733223721828,1.9924374377327697e-05,-0.0021231977065485352,-0.018089645857797945,0.0,0.0,0.0,0.0,0.0,0.0,0.0,0.0,0.0,0.0
0.7619736194610596,0.05622043330388564,0.9310412398893478,0.22783390896433306,-0.04904932328199554,0.0014100662063449222,0.39139702605032956,-0.00017168361571010064,-0.0018990177910439786,-0.0176010932793131,0.0,0.0,0.0,0.0,0.0,0.0,0.0,0.0,0.0,0.0
0.7673337459564209,0.05596436502531066,0.9310483997151788,0.2296189244354087,-0.04952077385880804,0.0012964312637155858,0.38892607574753846,-0.00035654873924602257,-0.0016240230891325985,-0.017131670035359953,0.0,0.0,0.0,0.0,0.0,0.0,0.0,0.0,0.0,0.0
0.7726407051086426,0.055711144660631526,0.9310557440716668,0.23138503055111243,-0.04993582755817526,0.001208192905014539,0.3862471331354763,-0.0005342612345369852,-0.001286929308447181,-0.01664856921613842,0.0,0.0,0.0,0.0,0.0,0.0,0.0,0.0,0.0,0.0
0.777958869934082,0.055461135968422864,0.9310624040369843,0.23313062484552913,-0.05028350283232977,0.001142347622687375,0.3833678392795381,-0.0007059843865705197,-0.0008669424826011941,-0.016128220561722632,0.0,0.0,0.0,0.0,0.0,0.0,0.0,0.0,0.0,0.0
0.7833001613616943,0.0552141939399305,0.931066986668414,0.23485457653451547,-0.05055583589920838,0.0010922790130094343,0.38030150996352186,-0.000855540363604714,-0.00036924127759787104,-0.015577502696111713,0.0,0.0,0.0,0.0,0.0,0.0,0.0,0.0,0.0,0.0
0.7885777950286865,0.054968859267732754,0.9310688021471112,0.2365631430900213,-0.05074965570374994,0.0010475226530477042,0.37706560847070864,-0.0009530730157073731,0.00017382606343991502,-0.01501791898227859,0.0,0.0,0.0,0.0,0.0,0.0,0.0,0.0,0.0,0.0
0.7938735485076904,0.05472375301406716,0.9310685424755226,0.2382540708794583,-0.05086908833617186,0.000997274416976489,0.37368800059307516,-0.0009776431099593943,0.0007199432390263303,-0.014468295020257994,0.0,0.0,0.0,0.0,0.0,0.0,0.0,0.0,0.0,0.0
0.7992653846740723,0.05447796232560126,0.9310670975548967,0.23991834341094279,-0.05092477407675188,0.0009347601214895601,0.3701860880915524,-0.0009345908343603999,0.001229587579850048,-0.013946075965892639,0.0,0.0,0.0,0.0,0.0,0.0,0.0,0.0,0.0,0.0
0.804645299911499,0.05423208851211782,0.9310647107409735,0.2415578511796626,-0.05092953292362344,0.0008578368054308721,0.3665561693843829,-0.0008450861266477496,0.0016811612978210773,-0.013443049290127707,0.0,0.0,0.0,0.0,0.0,0.0,0.0,0.0,0.0,0.0
0.8099591732025146,0.05398801184113613,0.9310614197259257,0.24318300151844535,-0.05089235468201774,0.0007666756587634727,0.36280385144358784,-0.0007333955663127085,0.0020664224657550544,-0.01292535186898682,0.0,0.0,0.0,0.0,0.0,0.0,0.0,0.0,0.0,0.0
0.8153753280639648,0.05374702334243426,0.9310571049296202,0.24479300031554452,-0.0508151017363792,0.0006619502133969115,0.35896062739434076,-0.000613851625475221,0.0023924032150618984,-0.01237922286748034,0.0,0.0,0.0,0.0,0.0,0.0,0.0,0.0,0.0,0.0
0.8206963539123535,0.053507094353223796,0.9310511911251207,0.24638254375739232,-0.050697456157521456,0.0005436395675725366,0.3550576293401091,-0.0004717924859662625,0.0026936151160055757,-0.01182231090372016,0.0,0.0,0.0,0.0,0.0,0.0,0.0,0.0,0.0,0.0
0.8259665966033936,0.053363059399124974,0.9310584221367402,0.2471044674690732,-0.05043799725429353,0.0004269644606889712,0.3501693553583483,-0.0003821622185921003,0.0030317227643842214,-0.011514249398193158,0.0,0.0,0.0,0.0,0.0,0.0,0.0,0.0,0.0,0.0
0.8312385082244873,0.05339145010666666,0.9310903705803187,0.2462960921032729,-0.049665805038627726,0.0003689568626766096,0.34095778010664013,-0.0004198733171920522,0.003418861139414989,-0.011646362584432988,0.0,0.0,0.0,0.0,0.0,0.0,0.0,0.0,0.0,0.0
0.8366179466247559,0.05345529664464827,0.9311253926897294,0.24515361489407927,-0.047972245096681965,0.00043199602590134224,0.32376335579935034,-0.000461052544476561,0.003787655284737931,-0.01188099422283638,0.0,0.0,0.0,0.0,0.0,0.0,0.0,0.0,0.0,0.0
0.8419363498687744,0.05344280365417292,0.9311458632811823,0.24464692120107623,-0.04539327482687949,0.0006086560643765201,0.29882511799230255,-0.0004035323281259397,0.004106473143202506,-0.011948731215931388,0.0,0.0,0.0,22797.0,20388.0,19594.0,17824.0,0.0,0.0,0.0
0.8472304344177246,0.053362758898185446,0.9311530321733392,0.24469307053821973,-0.04236727474036335,0.0008287870948966759,0.2698905876418755,-0.0002604582275542565,0.0044017415674719555,-0.011875590214077362,0.0,0.0,0.0,22797.0,20388.0,19594.0,17824.0,0.0,0.0,0.0
0.8525469303131104,0.05322458125194943,0.9311493914104138,0.24520598330487678,-0.03934921769572476,0.0010212443295920385,0.2408452415405688,-3.7251829880346334e-05,0.004704320635453744,-0.011677200647321234,0.0,0.0,0.0,22826.0,20371.0,19596.0,17806.0,0.0,0.0,0.0
0.8578500747680664,0.05303863660240927,0.9311375231777278,0.2461009073882536,-0.036661155940358854,0.0011394414075642336,0.21442629618457665,0.0002656808493081934,0.0050325728089897145,-0.01135949169528035,0.0,0.0,0.0,22417.0,19796.0,19881.0,18054.0,0.0,0.0,0.0
0.8632447719573975,0.052813464268710114,0.9311186376961929,0.24730702026098797,-0.03451078397343802,0.0011575473108369017,0.1924056565793901,0.0006350219786717729,0.005385638018945657,-0.010936412545503912,0.0,0.0,0.0,22417.0,19796.0,19881.0,18054.0,0.0,0.0,0.0
0.8685534000396729,0.052555727822613585,0.9310928993019176,0.24876631331154794,-0.033014692742574334,0.001062823403385033,0.17578947852187338,0.001039630276392078,0.005753231455386285,-0.010435224420792956,0.0,0.0,0.0,21369.0,18295.0,20436.0,18561.0,0.0,0.0,0.0
0.8738727569580078,0.052272415688774776,0.9310606566139458,0.2504224651739587,-0.03221975571869469,0.0008496624759405232,0.1649941179680339,0.0014372048734257812,0.00612266507563024,-0.009887809934733446,0.0,0.0,0.0,21369.0,18295.0,20436.0,18561.0,0.0,0.0,0.0
0.8792786598205566,0.051969600956659326,0.9310230327404125,0.2522252760887908,-0.03211835101649474,0.000518400218700137,0.1599791182461724,0.0018160636972852713,0.006476682474511278,-0.009316098284856845,0.0,0.0,0.0,18677.0,14787.0,21842.0,19822.0,0.0,0.0,0.0
0.8845536708831787,0.05165185041744656,0.9309814570268556,0.2541342738543056,-0.032662724770174005,7.638484164776954e-05,0.16036532882171797,0.0022119799148420053,0.006809646598468227,-0.00873262811036379,0.0,0.0,0.0,16223.0,11772.0,22874.0,20631.0,0.0,0.0,0.0
0.8898591995239258,0.05132411604493724,0.9309371167821417,0.2561084618379273,-0.03377797135375688,-0.0004623135154596962,0.16553854986807195,0.00265252199418046,0.007138043567410069,-0.008145591028072902,0.0,0.0,0.0,16223.0,11772.0,22874.0,20631.0,0.0,0.0,0.0
0.8952665328979492,0.051106342110452715,0.9309084882067098,0.25717867696003804,-0.03524244451911247,-0.0010595853724273908,0.1736906786908304,0.003007973226181709,0.00747199537096821,-0.007819254608512034,0.0,0.0,0.0,16214.0,11756.0,22858.0,20664.0,0.0,0.0,0.0
0.9006507396697998,0.05109217269707295,0.9309098555457972,0.2565948344350043,-0.03649568182433502,-0.0016254996997673548,0.1802820700225958,0.0031412706954976038,0.007796116781618,-0.007958253276066043,0.0,0.0,0.0,16214.0,11756.0,22858.0,20664.0,0.0,0.0,0.0
0.9059686660766602,0.051121891227699535,0.9309165021160958,0.25565817932551127,-0.03693001900551254,-0.0020639831483194493,0.18041709098887487,0.0031827214991273943,0.008097483015466991,-0.008190919111814313,0.0,0.0,0.0,13716.0,8690.0,23826.0,21491.0,0.0,0.0,0.0
0.9113380908966064,0.05106596847607967,0.9309085414738143,0.2554122983774366,-0.036470878407456,-0.0023619344939513577,0.17352878220198714,0.0032589623392281627,0.008374667695328708,-0.008224410535214015,0.0,0.0,0.0,11335.0,5895.0,24664.0,22144.0,0.0,0.0,0.0
0.9166533946990967,0.05093600796543257,0.9308877218260481,0.25574632415350557,-0.035529714528358736,-0.0025815294879061733,0.16295214220344945,0.0033528677691191692,0.008636385437911138,-0.008096740598507575,0.0,0.0,0.0,11335.0,5895.0,24664.0,22144.0,0.0,0.0,0.0
0.9219241142272949,0.050743064638310825,0.9308554560107168,0.2565627522734187,-0.03455231596540817,-0.0027908987323519378,0.1522425908204205,0.0034689601968241482,0.008910461170857562,-0.007842384017515667,0.0,0.0,0.0,5065.0,9498.0,23518.0,26083.0,0.0,0.0,0.0
0.927220344543457,0.050499666816135325,0.93081336442829,0.2577678002307954,-0.033845213795250115,-0.003037961475328947,0.14380722538570806,0.003633616115535457,0.009203240087338313,-0.007500379907796142,0.0,0.0,0.0,5065.0,9498.0,23518.0,26083.0,0.0,0.0,0.0
0.9326066970825195,0.05021782547963718,0.9307636094133149,0.25927277365735374,-0.03359454025438168,-0.0033527000772616547,0.13910890176931173,0.0038610860871788667,0.009516709096228973,-0.0071062117689701535,0.0,0.0,0.0,10259.0,0.0,27357.0,21283.0,0.0,0.0,0.0
0.9379305839538574,0.049908291370096336,0.9307080937954649,0.26100570111833976,-0.033886795871005765,-0.003748924321905022,0.1388558367945577,0.004143245898789185,0.009856558687045814,-0.006672330751492414,0.0,0.0,0.0,5295.0,8920.0,24121.0,26058.0,0.0,0.0,0.0
0.9432458877563477,0.04957986142034885,0.9306480029288945,0.2629094993409762,-0.034732311482290404,-0.004227956716075062,0.14319544934965164,0.004467437559724292,0.01018740225255383,-0.006202207484272068,0.0,0.0,0.0,5295.0,8920.0,24121.0,26058.0,0.0,0.0,0.0
0.9486298561096191,0.04923877209163612,0.9305845916552913,0.26492738862182824,-0.03608875917884025,-0.004782891949079834,0.15187468441402027,0.004832115982371214,0.010488445303995418,-0.00570519878340155,0.0,0.0,0.0,10442.0,5119.0,24256.0,23359.0,0.0,0.0,0.0
0.9539244174957275,0.04889054034920935,0.9305191637850018,0.2670050593661907,-0.037881220496258076,-0.005400975957925596,0.16434531228745475,0.0052272471540276075,0.010784315094422027,-0.005187466871082853,0.0,0.0,0.0,10442.0,5119.0,24256.0,23359.0,0.0,0.0,0.0
0.9592804908752441,0.04854006052971294,0.9304515629516016,0.2691042403890139,-0.040015463164869515,-0.006066486823616654,0.1798584735731588,0.0056169725614463786,0.011103304134262186,-0.004646568022976694,0.0,0.0,0.0,13305.0,8498.0,24397.0,21753.0,0.0,0.0,0.0
0.9645962715148926,0.04819134019582337,0.9303810460835966,0.27119992560616296,-0.04238703862165476,-0.006765507971759025,0.19757424865692574,0.005980370074280396,0.011464713955881506,-0.004077335324184833,0.0,0.0,0.0,13305.0,8498.0,24397.0,21753.0,0.0,0.0,0.0
0.9699044227600098,0.047848529466799516,0.930308668232131,0.2732676362062232,-0.04488813101986297,-0.007486803243679427,0.21664619206885988,0.006349414460144704,0.011867604050901127,-0.003489584001651313,0.0,0.0,0.0,13305.0,8498.0,24397.0,21753.0,0.0,0.0,0.0
0.9752964973449707,0.047514459672444116,0.9302352659888193,0.27528676692804965,-0.047412747256557454,-0.008218438045927099,0.23626156679686083,0.006761055822332978,0.012294478625314216,-0.0028975661715458594,0.0,0.0,0.0,13126.0,15056.0,22077.0,24237.0,0.0,0.0,0.0
0.9805910587310791,0.04719042436812788,0.9301605009200529,0.27724456216386273,-0.04986317437645893,-0.008947976690143595,0.2556705229207179,0.0072145921340056735,0.01273027202984971,-0.0023044043812989958,0.0,0.0,0.0,13126.0,15056.0,22077.0,24237.0,0.0,0.0,0.0
0.9858970642089844,0.04687827881082665,0.9300841054622191,0.2791283439890069,-0.05215474521385877,-0.009665626662278215,0.2742119789714663,0.007683271018404703,0.013164572343011327,-0.0017083134819408487,0.0,0.0,0.0,13126.0,15056.0,22077.0,24237.0,0.0,0.0,0.0
0.9912643432617188,0.046579483493686416,0.9300070627533031,0.28092639969298977,-0.054216013811845674,-0.010363688202318547,0.29132054013520775,0.00814237559034819,0.01357595954901609,-0.0011141465620746202,0.0,0.0,0.0,23567.0,16400.0,21193.0,16167.0,0.0,0.0,0.0
0.9966425895690918,0.04629396614291066,0.9299304935819772,0.28263509238641193,-0.05598965750526629,-0.011033304075250066,0.30653115149622545,0.008573417979545105,0.013954730704159146,-0.0005249556134001538,0.0,0.0,0.0,23567.0,16400.0,21193.0,16167.0,0.0,0.0,0.0
1.0019667148590088,0.04602131240817155,0.9298535472249452,0.2842577700335228,-0.05743514958871228,-0.011665380375685444,0.31949613905893326,0.008947753270536781,0.014323734272361898,7.046230019187508e-05,0.0,0.0,0.0,22338.0,19553.0,19218.0,17449.0,0.0,0.0,0.0
1.00732421875,0.045761612563578635,0.9297759624264008,0.2857953116382964,-0.058528210272085046,-0.01225440026300021,0.32999123749001125,0.009254182133123774,0.01469533513212378,0.0006750350577925011,0.0,0.0,0.0,22338.0,19553.0,19218.0,17449.0,0.0,0.0,0.0
1.0126307010650635,0.04551461765294601,0.9296980370413682,0.2872477563629754,-0.05925774510410127,-0.012798092540027768,0.3378973177100131,0.009532504903245198,0.015072636864875455,0.001267625427769365,0.0,0.0,0.0,22658.0,18861.0,20145.0,17925.0,0.0,0.0,0.0
1.0179028511047363,0.045279622123864785,0.9296189583027695,0.2886191422356922,-0.05962416332299903,-0.013296173609126051,0.3431819191897987,0.009833690792894558,0.01546394816096525,0.0018171976999698306,0.0,0.0,0.0,22108.0,18735.0,21668.0,17621.0,0.0,0.0,0.0
1.0231902599334717,0.045056375600926325,0.9295383734720729,0.28991169983478987,-0.059637961060402304,-0.013751290420642137,0.34588863667829156,0.010159313382942946,0.015870877535794123,0.0023117208847050507,0.0,0.0,0.0,22108.0,18735.0,21668.0,17621.0,0.0,0.0,0.0
1.0285637378692627,0.04484520804828988,0.9294565686688376,0.29112602048397807,-0.05931633300866689,-0.014167881077964717,0.3461196121172825,0.010474149189704882,0.016295360966703767,0.0027676255167230148,0.0,0.0,0.0,19987.0,18489.0,23066.0,19102.0,0.0,0.0,0.0
1.0338513851165771,0.04464615781676936,0.9293732050668002,0.2922678401720996,-0.05867998888338119,-0.014550486062041677,0.34402167269820777,0.010739697786129838,0.016742647765658803,0.0032066684511782287,0.0,0.0,0.0,19987.0,18489.0,23066.0,19102.0,0.0,0.0,0.0
1.039156198501587,0.044458561798543565,0.9292873943999428,0.29334669381459916,-0.05775277488552411,-0.014904913606709829,0.33978797465207045,0.010926645994083217,0.017211336191384954,0.003636641136411328,0.0,0.0,0.0,19987.0,18489.0,23066.0,19102.0,0.0,0.0,0.0
1.0445120334625244,0.04428190336965917,0.9291991466164833,0.2943678770006787,-0.05656223630795249,-0.015238773617849987,0.3336539183437451,0.011030569914176532,0.0176884163401578,0.004053161308766492,0.0,0.0,0.0,19371.0,18093.0,23273.0,20351.0,0.0,0.0,0.0
1.0498175621032715,0.04411535638549001,0.9291095805750109,0.29533236231592264,-0.05513906593003377,-0.01555833845037438,0.3258735344049531,0.011078864497403834,0.018162322677785094,0.004445478161943534,0.0,0.0,0.0,19371.0,18093.0,23273.0,20351.0,0.0,0.0,0.0
1.0551600456237793,0.043957807317086074,0.929019175485589,0.29624462940989305,-0.0535166389895783,-0.015865925099319597,0.316699744335445,0.011111425075848818,0.01862239845001596,0.004807643186180763,0.0,0.0,0.0,19540.0,18037.0,23504.0,19988.0,0.0,0.0,0.0
1.0604619979858398,0.043808387729667254,0.9289269259895536,0.29711324357419233,-0.05173044746178945,-0.016162466317236338,0.30638648628968224,0.011144917651340996,0.019049448038197005,0.005143285923526787,0.0,0.0,0.0,19540.0,18037.0,23504.0,19988.0,0.0,0.0,0.0
1.0657544136047363,0.04366602722789148,0.928832158406966,0.2979426008303786,-0.04981689058784468,-0.016451398487451228,0.2951912066715816,0.011183613626280578,0.019432986591572145,0.0054506066606488214,0.0,0.0,0.0,19540.0,18037.0,23504.0,19988.0,0.0,0.0,0.0
1.0711276531219482,0.04352922685555715,0.9287347782591664,0.29873529895674733,-0.04781293829202132,-0.016738354998434617,0.2833617455370368,0.01124165913473247,0.019777185409261735,0.005720007416573298,0.0,0.0,0.0,20890.0,19508.0,21576.0,18797.0,0.0,0.0,0.0
1.0764520168304443,0.043397094994600136,0.9286340644489055,0.29949691100094467,-0.045755698625799104,-0.01702964652316724,0.27112744486045637,0.011321104538721639,0.02009492798618316,0.00595417645483045,0.0,0.0,0.0,20890.0,19508.0,21576.0,18797.0,0.0,0.0,0.0
1.0817625522613525,0.043270111623479025,0.9285295015364101,0.3002305503560247,-0.04367917561812583,-0.01733250541058572,0.2586996249587131,0.011395287776289304,0.020397593397536645,0.006168634635748103,0.0,0.0,0.0,19020.0,22182.0,20167.0,22476.0,0.0,0.0,0.0
1.0871069431304932,0.043148721338028787,0.9284214132566885,0.30093901936926026,-0.04161045870342973,-0.017654050154446373,0.24626798934222982,0.01144079009125452,0.020679693350616243,0.006372683554435381,0.0,0.0,0.0,22717.0,18941.0,20165.0,18813.0,0.0,0.0,0.0
1.0924394130706787,0.04303292746839922,0.9283106335666965,0.30162747890479574,-0.03956954662845129,-0.01799849614294236,0.2339999231028844,0.011463361379861904,0.020921472103389113,0.006570478600618297,0.0,0.0,0.0,22717.0,18941.0,20165.0,18813.0,0.0,0.0,0.0
1.0977444648742676,0.042922779777814085,0.9281981136339106,0.3022968381328533,-0.037571282583331755,-0.018365449089786896,0.22204139865264252,0.011468042884528844,0.021110612989571932,0.006767689414935615,0.0,0.0,0.0,22530.0,19152.0,19736.0,19245.0,0.0,0.0,0.0
1.1031146049499512,0.04281793929323429,0.9280850990794967,0.3029436138053203,-0.03562686923547795,-0.018749680127030745,0.2105063236945646,0.011455192993497981,0.021252336042900406,0.006974395254147837,0.0,0.0,0.0,22530.0,19152.0,19736.0,19245.0,0.0,0.0,0.0
1.108520269393921,0.04271734954797009,0.927972086290252,0.3035669543417915,-0.033745951301057224,-0.019142252565958362,0.19946886875269465,0.01143076428397778,0.021355652377730756,0.007203617390332921,0.0,0.0,0.0,21570.0,18197.0,20806.0,19615.0,0.0,0.0,0.0
1.1138222217559814,0.04262054537325545,0.9278584254566439,0.30416916954311013,-0.03193807825038541,-0.019534063930734785,0.1889742082658574,0.011394146677272834,0.021425078162757308,0.007460269341921847,0.0,0.0,0.0,21570.0,18197.0,20806.0,19615.0,0.0,0.0,0.0
1.1191723346710205,0.04252800028633525,0.927743538225785,0.30475054964950393,-0.03021095540038277,-0.019919373355459014,0.17905098257873694,0.01134640734093788,0.021460529794008643,0.007730917194466149,0.0,0.0,0.0,21570.0,18197.0,20806.0,19615.0,0.0,0.0,0.0
1.1244852542877197,0.04244017493502427,0.9276267854628555,0.30530967463945374,-0.02856791806992238,-0.020296438802593658,0.16971108759599882,0.011298744892025253,0.0214576952603012,0.007993773507176187,0.0,0.0,0.0,17768.0,21805.0,21287.0,22475.0,0.0,0.0,0.0
1.1298179626464844,0.0423573362715908,0.927507392765512,0.3058474469107476,-0.02700793080330885,-0.020666964625380167,0.16094929042101147,0.0112602187615175,0.0214173937120419,0.008237773586309342,0.0,0.0,0.0,17768.0,21805.0,21287.0,22475.0,0.0,0.0,0.0
1.135131597518921,0.042279070088903095,0.9273847823317346,0.3063655757466681,-0.025527679774920667,-0.02103552660819031,0.1527509049591608,0.011219622939199475,0.021353223632573384,0.0084608819933694,0.0,0.0,0.0,17768.0,21805.0,21287.0,22475.0,0.0,0.0,0.0
1.1404445171356201,0.04220566719859298,0.9272594881672547,0.30686355417747513,-0.02412304347043539,-0.02140738011866569,0.14509590719853144,0.011158657978767694,0.021285618192186717,0.008671306452798025,0.0,0.0,0.0,19864.0,18459.0,23188.0,18600.0,0.0,0.0,0.0
1.1457469463348389,0.04213868527550653,0.927132702419103,0.3073399356390976,-0.022787132587858618,-0.021784795727858908,0.13795538171962868,0.011071732995544068,0.02124452923453133,0.0088847111112572,0.0,0.0,0.0,19864.0,18459.0,23188.0,18600.0,0.0,0.0,0.0
1.151047706604004,0.04207907502648506,0.927004175259131,0.3077940068448576,-0.021508076675971842,-0.022166510281775423,0.1312902068150322,0.0109602599519587,0.0212524001452318,0.009104688271103568,0.0,0.0,0.0,18123.0,23431.0,20616.0,21219.0,0.0,0.0,0.0
1.1563637256622314,0.04202666544485151,0.926872263515878,0.308226051996538,-0.020271464340350456,-0.022552470802898957,0.12505564483503118,0.010830214648079452,0.02131120865664591,0.009323910811193907,0.0,0.0,0.0,18123.0,23431.0,20616.0,21219.0,0.0,0.0,0.0
1.1616475582122803,0.0419803843954108,0.9267359312028893,0.30863571133021106,-0.019065327632500597,-0.02294760916515239,0.11920576326549254,0.010687668524646084,0.02141816891411887,0.009535925367230589,0.0,0.0,0.0,18123.0,23431.0,20616.0,21219.0,0.0,0.0,0.0
1.1669936180114746,0.04193964337879231,0.9265954972893173,0.3090234588430308,-0.017882625878774417,-0.02335943615327992,0.11369529339717795,0.010545100015808858,0.021567046409840872,0.00973918953763125,0.0,0.0,0.0,19753.0,22735.0,19258.0,20990.0,0.0,0.0,0.0
1.1723051071166992,0.04190487550397981,0.9264517957711669,0.30939181458389053,-0.016719214458337996,-0.023793113155112063,0.10848390453821208,0.010414792097401027,0.021746453663349728,0.00993891455657591,0.0,0.0,0.0,19753.0,22735.0,19258.0,20990.0,0.0,0.0,0.0
1.1776080131530762,0.04187598037312575,0.9263062158102788,0.30974163448587044,-0.015571150096654978,-0.024248546410881464,0.1035397303307565,0.01028273706619767,0.021941003965823325,0.01013940753327425,0.0,0.0,0.0,19003.0,22870.0,19369.0,21596.0,0.0,0.0,0.0
1.1828937530517578,0.041852099049737856,0.92615975919649,0.31007134454372537,-0.014435629390456403,-0.02472006354161271,0.09883427413861127,0.010127682035108386,0.022145962451184744,0.0103448470718253,0.0,0.0,0.0,22507.0,18809.0,19325.0,18966.0,0.0,0.0,0.0
1.1882414817810059,0.04183251328996213,0.9260117820730911,0.31037945354138385,-0.013312941099965241,-0.02519971823950338,0.09433522924910051,0.00996427778099268,0.022368765600732445,0.010554426795997596,0.0,0.0,0.0,22507.0,18809.0,19325.0,18966.0,0.0,0.0,0.0
1.1935243606567383,0.041817255427723875,0.9258611774857063,0.31066634239661023,-0.01220554069320982,-0.025682510729025276,0.09000751929839423,0.009833395865480857,0.022607245706038694,0.010758723865148367,0.0,0.0,0.0,23034.0,18061.0,18991.0,19400.0,0.0,0.0,0.0
1.1988096237182617,0.04180651842002941,0.925707669947339,0.31093347973815955,-0.011115566185989367,-0.02616784095560018,0.0858200758858036,0.009760997199100167,0.022846509905402136,0.010946328919288857,0.0,0.0,0.0,23034.0,18061.0,18991.0,19400.0,0.0,0.0,0.0
1.2041857242584229,0.041800382263134095,0.9255509459512941,0.3111825489340999,-0.010043791034348446,-0.02665735755151019,0.08175045395088248,0.009739843759057006,0.02306691774314067,0.011103347593570498,0.0,0.0,0.0,19179.0,20788.0,19291.0,22925.0,0.0,0.0,0.0
1.209456205368042,0.04179941805360263,0.9253904058498228,0.311414753503233,-0.008989406783185012,-0.027153953126869405,0.0777847615902081,0.00973289743944505,0.023253465591893764,0.011227745155118788,0.0,0.0,0.0,19159.0,21368.0,19317.0,22397.0,0.0,0.0,0.0
1.214815616607666,0.04180381758388746,0.9252266329411131,0.3116300452207881,-0.007949812987847305,-0.02766081753995679,0.07391405085492206,0.009705953730560777,0.023401645855186465,0.011329968450054963,0.0,0.0,0.0,19159.0,21368.0,19317.0,22397.0,0.0,0.0,0.0
1.220153570175171,0.04181229391246914,0.9250603866943315,0.3118278596824413,-0.0069229676128187865,-0.02817880717692356,0.07012965194639394,0.009637885217628275,0.0235141960152795,0.011416371121816232,0.0,0.0,0.0,18844.0,21798.0,19211.0,21924.0,0.0,0.0,0.0
1.2254290580749512,0.04182390075104379,0.9248904820312149,0.3120087221111322,-0.005910642399690183,-0.02870734446841461,0.06642198589851211,0.00951039958412431,0.023586152466103814,0.011486147485808867,0.0,0.0,0.0,18844.0,21798.0,19211.0,21924.0,0.0,0.0,0.0
1.2307519912719727,0.04183981405010677,0.924715236021262,0.3121741356131258,-0.004916155280970525,-0.029249384163177253,0.06278388567244428,0.009319322646987174,0.023603457169489483,0.011537624332077771,0.0,0.0,0.0,18534.0,22342.0,19769.0,21163.0,0.0,0.0,0.0
1.2360663414001465,0.041860958561177636,0.9245355387259674,0.3123246086985454,-0.003939184469784364,-0.029811051313861997,0.05921254800500682,0.009077299887518996,0.023565879953413086,0.011570395271276568,0.0,0.0,0.0,21495.0,19247.0,20227.0,17142.0,0.0,0.0,0.0
1.2413804531097412,0.04188686548209604,0.9243536063382227,0.3124596700045297,-0.002976249767478873,-0.03039425123289989,0.05570651899520096,0.008804304198974688,0.023484043390116158,0.011587065825624035,0.0,0.0,0.0,21495.0,19247.0,20227.0,17142.0,0.0,0.0,0.0
1.2466645240783691,0.04191737435121973,0.9241700691818134,0.31257900492128554,-0.0020244451556225515,-0.030993433394021087,0.05226235630009826,0.008506342576084484,0.023360594670922212,0.011599028710512818,0.0,0.0,0.0,18032.0,23462.0,19387.0,20433.0,0.0,0.0,0.0
1.2519731521606445,0.0419531421022042,0.9239844920132092,0.31268246520556225,-0.0010813439286559022,-0.031600426838572726,0.04887454727488391,0.008181669541401001,0.023192948332709743,0.011622614461340233,0.0,0.0,0.0,18032.0,23462.0,19387.0,20433.0,0.0,0.0,0.0
1.2572450637817383,0.04199487552915258,0.9237967409977587,0.3127697898621183,-0.00014274770048132256,-0.03220892965124829,0.045536461217823045,0.007842259384315988,0.022983283342775072,0.011662301260545955,0.0,0.0,0.0,20455.0,18989.0,20373.0,17869.0,0.0,0.0,0.0
1.2626149654388428,0.042042199414053565,0.9236058453305271,0.312839043806722,0.0007966848053029197,-0.032815717166443784,0.04223879773586674,0.0075020777914750255,0.02275053337995174,0.011702747441136224,0.0,0.0,0.0,20455.0,18989.0,20373.0,17869.0,0.0,0.0,0.0
1.2678842544555664,0.04209419891989438,0.9234108961116558,0.31288729669802895,0.0017401498404400182,-0.033421553368435136,0.03896538486092216,0.007173763845202699,0.022524181499012964,0.011730223895961591,0.0,0.0,0.0,20455.0,18989.0,20373.0,17869.0,0.0,0.0,0.0
1.2731564044952393,0.042150435320580076,0.9232134724869083,0.31291444112295314,0.002687187001562638,-0.03402841188701229,0.035693973362743756,0.006869634306816183,0.02232023523525561,0.011744564022801855,0.0,0.0,0.0,17648.0,21699.0,19415.0,22052.0,0.0,0.0,0.0
1.2785377502441406,0.04221073503687162,0.9230156805151151,0.3129221124880439,0.003635169148729968,-0.03463302233839999,0.03240502799098367,0.006604618691598198,0.02214637408157228,0.01175242362429545,0.0,0.0,0.0,17648.0,21699.0,19415.0,22052.0,0.0,0.0,0.0
1.283942699432373,0.04227554694282283,0.9228179684079468,0.31291089900346464,0.004581597919361637,-0.03522589890301945,0.029087452429529398,0.006386152184855212,0.02201052981352786,0.011763492695335262,0.0,0.0,0.0,18331.0,20572.0,19660.0,22123.0,0.0,0.0,0.0
1.28922700881958,0.042345357238316124,0.9226196701627031,0.3128807414103151,0.005525848804139793,-0.03579711537291516,0.025736046816428805,0.006201915845257692,0.02191089739971243,0.011786523204566104,0.0,0.0,0.0,21170.0,16650.0,19918.0,19249.0,0.0,0.0,0.0
