T,input Acc,input Wb1,input Wb2,input Wb3,Px,Py,Pz,Vx,Vy,Vz,Roll,Pitch,Yaw,R_rate,P_rate,Y_rate,Wb1,Wb2,Wb3
0,11.8004,6.609666401615192,6.0992647273761,-5.5062120963784,0.0,0.0,0.4,0.0,0.0,0.4,0.0,0.0,0.0,0.0,0.0,0.0,0.0,0.0,0.0
0.00012969970703125,11.778892800557216,0.16408554560166114,0.023251006761560528,-0.1806971169874359,0.0,0.0,0.4,0.0007560080722160819,0.0008412246302979922,0.3956274498810074,-7.872297021188635e-05,8.170762291565957e-05,0.0,0.0,0.0,0.0,0.0,0.0,0.0
0.01108860969543457,11.702487016140768,0.7728297798873249,0.15593509496685615,-0.8754653270982038,0.0,0.0,0.4,0.0036291712395406174,0.004651034708890422,0.37725985439052145,-0.0004366800324420879,0.0005067768550976134,0.0,0.0,0.0,0.0,0.0,0.0,0.0
0.02152562141418457,11.598728968074296,1.5675116271894427,0.45465312802749946,-1.7767930062631825,0.0,0.0,0.4,0.006639650614712251,0.01037775448189547,0.35258677002848415,-0.0009010659291754311,0.0010660033583182885,0.0,0.0,0.0,0.0,0.0,0.0,0.0
0.03196120262145996,11.439079753013573,2.55204658870526,1.045437908077148,-2.835963999761242,0.0,0.0,0.4,0.008873993845425598,0.01831525946019948,0.3216710312680899,-0.0014502712177745917,0.0015766687473968994,0.0,0.0,0.0,0.0,0.0,0.0,0.0
0.04238486289978027,11.264659881957483,3.523921013041513,1.8763801543831613,-3.7779656837317512,0.0,0.0,0.4,0.009252681961138492,0.02680369550754389,0.29077474129152264,-0.002033410593769099,0.0019783330270057428,0.0,0.0,0.0,0.0,0.0,0.0,0.0
0.05277562141418457,11.118373208840481,4.362175910649344,2.7849271370366817,-4.488263564306771,0.0,0.0,0.4,0.00796396735827741,0.03463655936193674,0.2630443451702,-0.0028690187948621363,0.0024070124917401786,0.0,0.0,0.0,0.0,0.0,0.0,0.0
0.06324887275695801,10.986062225206915,5.126114412843964,3.755008286007236,-5.035555422803405,0.0,0.0,0.4,0.005304682012908624,0.042117068207935086,0.23644429641031187,-0.003831515144937987,0.002956387930787543,0.0,0.0,0.0,0.0,0.0,0.0,0.0
0.07358312606811523,10.903362750801515,5.568409179073372,4.370901865685562,-5.2925303667955,0.0,0.0,0.4,0.003101724964167281,0.04638587077506686,0.22088768666182007,-0.00406028542628399,0.003232962793520904,0.0,0.0,0.0,0.0,0.0,0.0,0.0
0.0839691162109375,10.810990775316633,6.057687057522421,5.108956581640973,-5.504659343322925,0.0,0.0,0.4,0.00014308212885299348,0.05082419864427662,0.20412536009024707,-0.004036804636211806,0.0034398172636138555,0.0,0.0,0.0,0.0,0.0,0.0,0.0
0.09477472305297852,10.675502315879037,6.799606299622026,6.335802879931631,-5.689209609092563,0.0,0.0,0.4,-0.0055504466810615515,0.05726126227810438,0.178180483684934,-0.004289890667073859,0.003813354452070948,0.0,0.0,0.0,0.0,0.0,0.0,0.0
0.1053471565246582,10.685174033591789,6.774161342006927,6.297139048309951,-5.666368666405139,0.0,0.0,0.4,-0.0051547893757807085,0.0567602703061075,0.18013313317737056,-0.0040816362120862145,0.0037194647439033213,0.0,0.0,0.0,0.0,0.0,0.0,0.0
0.11596250534057617,10.661890316066247,6.935589926787928,6.58545584050122,-5.667002199918346,0.0,0.0,0.4,-0.006425986819437977,0.05787087877907213,0.17526398130157525,-0.0040885722407976765,0.003776371975757244,0.0,0.0,0.0,0.0,0.0,0.0,0.0
0.1264655590057373,10.693043178531394,6.872938866728422,6.469586313117733,-5.654838740852218,0.0,0.0,0.4,-0.005687836553474462,0.05709570857789717,0.1784828112005072,-0.00402828114802447,0.0037815196940714784,0.0,0.0,0.0,0.0,0.0,0.0,0.0
0.1368846893310547,10.732222767638078,6.799370653043676,6.315082502964666,-5.66067386472274,0.0,0.0,0.4,-0.004884660609735168,0.05630111402757065,0.18185853946370248,-0.004014648372159019,0.0038269894002791517,0.0,0.0,0.0,0.0,0.0,0.0,0.0
0.14752984046936035,10.694786578489413,7.028036252015059,6.687159431676106,-5.703509868476576,0.0,0.0,0.4,-0.006773312069829396,0.05812287782045798,0.174166692003491,-0.004163905255054423,0.003973847428410513,0.0,0.0,0.0,0.0,0.0,0.0,0.0
0.15791821479797363,10.75388054859682,6.743839269772785,6.164104764407708,-5.683157798164401,0.0,0.0,0.4,-0.004104788482931478,0.05552440073777429,0.18521002541901577,-0.003920160545746372,0.003865655950802878,0.0,0.0,0.0,0.0,0.0,0.0,0.0
0.16829967498779297,10.778394647510599,6.712685499792701,6.071283266974942,-5.70683112873903,0.0,0.0,0.4,-0.0037262488187891525,0.055190297190534324,0.1867543260049833,-0.004053354060280474,0.003937197814501842,0.0,0.0,0.0,0.0,0.0,0.0,0.0
0.17903661727905273,10.702740588330593,7.050481686228595,6.613623300908555,-5.793724376541662,0.0,0.0,0.4,-0.00661114436497412,0.058087033105795716,0.17466275813897125,-0.004808145349183348,0.00394929105228813,0.0,0.0,0.0,0.0,0.0,0.0,0.0
0.1893618106842041,10.750450780135136,6.5956505997836405,5.809638125204567,-5.73384022597235,0.0,0.0,0.4,-0.0027481791631539035,0.05406772561760724,0.19116598333069773,-0.004903479417242737,0.0032848932891245924,0.0,0.0,0.0,0.0,0.0,0.0,0.0
0.19973230361938477,10.726087418682216,6.623902539680255,5.835912157445878,-5.75264897606337,0.0,0.0,0.4,-0.0029866508376466677,0.05421642497068495,0.19026594660334378,-0.00512433799781136,0.0031092405027553158,0.0,0.0,0.0,0.0,0.0,0.0,0.0
0.21017217636108398,10.719392990096395,6.692827361170519,5.9247703808486945,-5.781768579642793,0.0,0.0,0.4,-0.003519500718738005,0.05471312637491209,0.18798309988485334,-0.0050680840722415466,0.0032064923953767656,0.0,0.0,0.0,0.0,0.0,0.0,0.0
0.22052550315856934,10.758243617670349,6.614304959390824,5.759055944014262,-5.777545308881098,0.0,0.0,0.4,-0.0028044621818374207,0.05390863260842858,0.19116685606802516,-0.004501960470835011,0.003432467634831564,0.0,0.0,0.0,0.0,0.0,0.0,0.0
0.2308814525604248,10.778160344992582,6.6366276015553405,5.761527585494831,-5.798791515700858,0.0,0.0,0.4,-0.0028369627339702025,0.054001488162816,0.19088497832159954,-0.003995781317409046,0.0037589206852106476,0.0,0.0,0.0,0.0,0.0,0.0,0.0
0.24111127853393555,10.81417665111579,6.536651475877207,5.569212881884322,-5.783605036203088,0.0,0.0,0.4,-0.001919591004267366,0.053025385857578045,0.19501448784802022,-0.0036366783234843955,0.003919552870539152,0.0,0.0,0.0,0.0,0.0,0.0,0.0
0.25141334533691406,10.796829395498358,6.635777240910802,5.708790258181423,-5.830935296813736,0.0,0.0,0.4,-0.0025811426110809027,0.05392613466791067,0.19165678368657263,-0.003817398025090097,0.00403829587924412,0.0,0.0,0.0,0.0,0.0,0.0,0.0
0.262007474899292,10.729428371599107,6.944391248295942,6.2061512578747,-5.928953050007312,0.0,0.0,0.4,-0.005084975342361745,0.056772327112636814,0.18022818725356082,-0.00439628188360774,0.004207926015000117,0.0,0.0,0.0,0.0,0.0,0.0,0.0
0.27230334281921387,10.783886990228863,6.641052246935732,5.683796698072201,-5.870133089168902,0.0,0.0,0.4,-0.0025422867685529205,0.05418028574636617,0.19105896936340733,-0.0040706468547770285,0.0040179287772163065,0.0,0.0,0.0,0.0,0.0,0.0,0.0
0.28274011611938477,10.767878306688157,6.7971569528538645,5.913148216101664,-5.928733965033703,0.0,0.0,0.4,-0.0036395415562857983,0.0555298866828353,0.18584663010120245,-0.00385576850783353,0.0041461641836193115,0.0,0.0,0.0,0.0,0.0,0.0,0.0
0.2931332588195801,10.760953986043594,6.766643404073437,5.847653720602695,-5.928116406717862,0.0,0.0,0.4,-0.0032691426248656202,0.05515666653448127,0.187460850268714,-0.003907151350148298,0.003897140051020398,0.0,0.0,0.0,0.0,0.0,0.0,0.0
0.303452730178833,10.745895780145814,6.713191018386943,5.762453706916238,-5.90290920101835,0.0,0.0,0.4,-0.0027234284693897805,0.054469624574720515,0.19013741581165436,-0.003923862528951855,0.003578287525830656,0.0,0.0,0.0,0.0,0.0,0.0,0.0
0.3139951229095459,10.686501103588661,6.972425089011831,6.209531858519481,-5.940651215293744,0.0,0.0,0.4,-0.004674409230629242,0.05645488715690984,0.18186132685627332,-0.003897218164033496,0.003619904936880795,0.0,0.0,0.0,0.0,0.0,0.0,0.0
0.3244013786315918,10.714049988321932,6.855860288623012,6.02794907787504,-5.891734305561994,0.0,0.0,0.4,-0.00353375172025076,0.05513923958653068,0.18709707144340326,-0.0036578218635768107,0.0035687220252940406,0.0,0.0,0.0,0.0,0.0,0.0,0.0
0.3348405361175537,10.719155319481366,6.899156000888184,6.100546404501027,-5.898195965018366,0.0,0.0,0.4,-0.003766516270094982,0.055330332682067676,0.18618552863015786,-0.0038522417669541687,0.003581751184522394,0.0,0.0,0.0,0.0,0.0,0.0,0.0
0.3453695774078369,10.697526040572125,6.992227542985565,6.252845825425176,-5.9223782968343635,0.0,0.0,0.4,-0.004480367412156565,0.0560038175608603,0.18319829750626612,-0.004348684415575807,0.0034673056694690396,0.0,0.0,0.0,0.0,0.0,0.0,0.0
0.3558480739593506,10.698604515361636,6.941280813227757,6.163684478290478,-5.9094788943161145,0.0,0.0,0.4,-0.003993844242291156,0.055372863596935065,0.18551326536395976,-0.004509063440479672,0.0033169189900671115,0.0,0.0,0.0,0.0,0.0,0.0,0.0
0.36629509925842285,10.708432865567321,6.918444026336775,6.1273284620804125,-5.890072297637994,0.0,0.0,0.4,-0.0036869865045581138,0.054925315343520326,0.18711610898516817,-0.004207963721390573,0.0034036125763388272,0.0,0.0,0.0,0.0,0.0,0.0,0.0
0.3767714500427246,10.711094659971895,6.965057447740716,6.216998172448904,-5.876902656552243,0.0,0.0,0.4,-0.003910637400964662,0.055068556402331846,0.1863823979446984,-0.0038490505604854316,0.00359449884727913,0.0,0.0,0.0,0.0,0.0,0.0,0.0
0.3872034549713135,10.727728860471014,6.93999193586429,6.188964999680917,-5.848244211654546,0.0,0.0,0.4,-0.0035391477405716278,0.05459598921484596,0.1882471810110206,-0.0035991771999981936,0.0036900371519654925,0.0,0.0,0.0,0.0,0.0,0.0,0.0
0.39754819869995117,10.750526551858545,6.876230428795342,6.094665839895639,-5.8139109302068,0.0,0.0,0.4,-0.002864745503341072,0.05379887704427975,0.19146593613220758,-0.003452572925164534,0.003712054767403498,0.0,0.0,0.0,0.0,0.0,0.0,0.0
0.4080188274383545,10.731239277079517,7.031049351318965,6.374936350824659,-5.822891474865136,0.0,0.0,0.4,-0.003967359145552275,0.05496726625607393,0.18669477850391988,-0.003509255713929854,0.0038259506796660763,0.0,0.0,0.0,0.0,0.0,0.0,0.0
0.4184408187866211,10.743129612801473,7.009002856608095,6.346083036112434,-5.804844784951229,0.0,0.0,0.4,-0.003629863318569671,0.05458526329607587,0.18828496039067913,-0.0034990959118228835,0.0038203577026158075,0.0,0.0,0.0,0.0,0.0,0.0,0.0
0.4293334484100342,10.659549843274183,7.49845899837002,7.23162654016734,-5.8251207291047695,0.0,0.0,0.4,-0.007854186533320023,0.05865859639303099,0.17099625914220964,-0.0038395602738191944,0.004102986709365626,0.0,0.0,0.0,0.0,0.0,0.0,0.0
0.43969249725341797,10.784041242670781,6.954992501617451,6.24310203525536,-5.792751643823963,0.0,0.0,0.4,-0.0028957202698351343,0.05381939258766694,0.19156660730046432,-0.003574381250657583,0.003885736709006581,0.0,0.0,0.0,0.0,0.0,0.0,0.0
0.4501304626464844,10.804609343501417,7.026545053507989,6.32975607161175,-5.832303757411251,0.0,0.0,0.4,-0.0033267084092723533,0.05442576151926497,0.18938809338728518,-0.003671669326438438,0.0041083337881800035,0.0,0.0,0.0,0.0,0.0,0.0,0.0
0.4608476161956787,10.769278879972966,7.303140767382745,6.763229572695744,-5.90872449607704,0.0,0.0,0.4,-0.005527501341432352,0.0568602436210161,0.17964151766811798,-0.0038879037034246122,0.004312844839827173,0.0,0.0,0.0,0.0,0.0,0.0,0.0
0.47142624855041504,10.790496126471279,7.146358149466399,6.425232722323187,-5.944109868358829,0.0,0.0,0.4,-0.004052783386644637,0.05553139326996866,0.18544680266119629,-0.004041320453126581,0.004052644405607457,0.0,0.0,0.0,0.0,0.0,0.0,0.0
0.4820868968963623,10.751870497458068,7.2028606265533615,6.4725311612066765,-6.000627258639478,0.0,0.0,0.4,-0.004499511417798502,0.05607547324953438,0.18325271100408086,-0.004650315465046361,0.003770001717309241,0.0,0.0,0.0,0.0,0.0,0.0,0.0
0.492779016494751,10.71320563630842,7.208515044219015,6.447864421729933,-6.032418252407416,0.0,0.0,0.4,-0.004568780424777916,0.05611129991090758,0.18291030418231527,-0.005184367039786473,0.0034372776958764987,0.0,0.0,0.0,0.0,0.0,0.0,0.0
0.5032846927642822,10.72921197191198,7.002460245401528,6.070165514728843,-6.007639275658736,0.0,0.0,0.4,-0.0029014219533954715,0.05421233114097262,0.1903591688776894,-0.00521647138351655,0.0031014912470598236,0.0,0.0,0.0,0.0,0.0,0.0,0.0
0.514021635055542,10.67751920988439,7.224302529154994,6.432762202516581,-6.057810747597072,0.0,0.0,0.4,-0.004740819885612941,0.05604386765647282,0.18246267076678063,-0.005458039242984313,0.003174074186278852,0.0,0.0,0.0,0.0,0.0,0.0,0.0
0.5246670246124268,10.69700515249274,7.131147508810743,6.260654598914,-6.036958446544547,0.0,0.0,0.4,-0.003921560979936199,0.055046493697064325,0.1862421862389098,-0.005066595384229619,0.0031689575734644834,0.0,0.0,0.0,0.0,0.0,0.0,0.0
0.5354371070861816,10.704643809027738,7.258577856695987,6.4636112522233455,-6.055508060824512,0.0,0.0,0.4,-0.004854594591027456,0.05596079925098221,0.18231594153375996,-0.00450040684601499,0.0035976210017351117,0.0,0.0,0.0,0.0,0.0,0.0,0.0
0.5460433959960938,10.837934381046972,7.100030845451309,6.146736239016469,-6.039735866482328,0.0,0.0,0.4,-0.0033464230607387763,0.05441494235599521,0.18901714389571347,-0.004112428761696887,0.0039479804828284676,0.0,0.0,0.0,0.0,0.0,0.0,0.0
0.5564913749694824,11.019961481909966,6.962034237609643,5.836598986673795,-6.030379661740642,0.0,0.0,0.4,-0.002072456590603948,0.05301024821630156,0.1953989092313405,-0.004606968758412898,0.0040242651147352326,0.0,0.0,0.0,0.0,0.0,0.0,0.0
0.5669069290161133,11.082633274225623,6.979143692025016,5.7718933718043886,-6.050947600804374,0.0,0.0,0.4,-0.001957383790896626,0.05287054544202553,0.19677293486726358,-0.004938690476704065,0.003968762705756376,0.0,0.0,0.0,0.0,0.0,0.0,0.0
0.5776002407073975,10.991184059144896,7.326882929484257,6.262839199940762,-6.1404177151679695,0.0,0.0,0.4,-0.004363252791305495,0.055537693737775895,0.18670252346096824,-0.004982391055611695,0.0040973062665086,0.0,0.0,0.0,0.0,0.0,0.0,0.0
0.5879812240600586,10.973477524947535,7.067017801197967,5.782515742279071,-6.074363710176082,0.0,0.0,0.4,-0.0021238377926331986,0.052969752775548294,0.1975100046841552,-0.004579735820639259,0.00374515349666319,0.0,0.0,0.0,0.0,0.0,0.0,0.0
0.5983572006225586,10.920359767396707,7.123668388637024,5.835655630606124,-6.081327192831952,0.0,0.0,0.4,-0.002337685415463954,0.05315862804927511,0.19710252309902485,-0.004347591465989685,0.003696655258437546,0.0,0.0,0.0,0.0,0.0,0.0,0.0
0.6088423728942871,10.919140218037604,7.301965712208039,6.08152491987316,-6.12292428334677,0.0,0.0,0.4,-0.00349187111940737,0.05441809046683023,0.19246471752629557,-0.004590890385018952,0.003792326384040374,0.0,0.0,0.0,0.0,0.0,0.0,0.0
0.6193702220916748,10.911477350874481,7.407022604470389,6.203861328831317,-6.147586473010542,0.0,0.0,0.4,-0.0041104291296015505,0.05504116408980593,0.1903237454712044,-0.004714585463698433,0.00381600270213882,0.0,0.0,0.0,0.0,0.0,0.0,0.0
0.6301004886627197,10.74033273019364,7.661157006065755,6.603210143469946,-6.185962544070747,0.0,0.0,0.4,-0.005991974664660931,0.056920402108290594,0.18259444714911188,-0.004288562661544145,0.0037754545076308143,0.0,0.0,0.0,0.0,0.0,0.0,0.0
0.6404173374176025,10.667950227889754,7.232213673419536,5.923486722739816,-6.0978045311871965,0.0,0.0,0.4,-0.0025697193310285464,0.053240836513509096,0.19712691319457187,-0.0036067899598097803,0.0032558184102600743,0.0,0.0,0.0,0.0,0.0,0.0,0.0
0.6507687568664551,10.576333184726826,7.268761417740522,6.027310684898856,-6.1025788675349615,0.0,0.0,0.4,-0.002887554420187042,0.05356156223414619,0.19517803297473818,-0.0035615171306349887,0.00306442198836794,0.0,0.0,0.0,0.0,0.0,0.0,0.0
0.6616213321685791,10.429092703181352,7.7873123400047755,6.957916985350342,-6.174132531312996,0.0,0.0,0.4,-0.00724439856201127,0.057957223147965614,0.17613501625824052,-0.0038497206275962107,0.003211623005921295,0.0,0.0,0.0,0.0,0.0,0.0,0.0
0.6720232963562012,10.532263198385266,7.297502768199092,6.178903458506963,-6.102566941059443,0.0,0.0,0.4,-0.0032484697609288862,0.0538919390194436,0.19230859257866537,-0.003517506102975876,0.0030103054397323005,0.0,0.0,0.0,0.0,0.0,0.0,0.0
0.6823701858520508,10.563560229000121,7.223702718420962,6.1034724293086215,-6.085830115598324,0.0,0.0,0.4,-0.002758181307088891,0.053305060869912615,0.1939792360897727,-0.0035799182246111223,0.003043099268496218,0.0,0.0,0.0,0.0,0.0,0.0,0.0
0.6928255558013916,10.567413013992658,7.330243747869289,6.323641189762996,-6.108463993872266,0.0,0.0,0.4,-0.003660299106300037,0.05428532456088763,0.18939261524666007,-0.0037888632189028368,0.003184728068686187,0.0,0.0,0.0,0.0,0.0,0.0,0.0
0.703195333480835,10.614643963426508,7.249859461327893,6.214427402609186,-6.09578255007629,0.0,0.0,0.4,-0.0030642916354392917,0.05359142443661612,0.1917156222710738,-0.0038578321765182335,0.0031958410262231743,0.0,0.0,0.0,0.0,0.0,0.0,0.0
0.713975191116333,10.545217702287259,7.671098975861222,6.965741711672205,-6.158805206989121,0.0,0.0,0.4,-0.006632816095038848,0.057198199607165295,0.17607065581723766,-0.004333691730619753,0.0033977455220164376,0.0,0.0,0.0,0.0,0.0,0.0,0.0
0.7243618965148926,10.64441402767651,7.279792516850038,6.2738702243707305,-6.112648968956064,0.0,0.0,0.4,-0.0032290525006643464,0.05367450303420142,0.19048261812208714,-0.003959048762131021,0.0032462053143359894,0.0,0.0,0.0,0.0,0.0,0.0,0.0
0.7347104549407959,10.695048259049411,7.259298612408443,6.234509818889661,-6.104014706322088,0.0,0.0,0.4,-0.002906035980043742,0.05330589461682871,0.1917962013821517,-0.0034761191824884993,0.0035529602410212403,0.0,0.0,0.0,0.0,0.0,0.0,0.0
0.745495080947876,10.661544446869037,7.722216735981091,7.056789440056069,-6.1502107622059485,0.0,0.0,0.4,-0.006608377868271127,0.0571496761824896,0.17566661982006992,-0.0032424493446232047,0.004130284744370352,0.0,0.0,0.0,0.0,0.0,0.0,0.0
0.7559902667999268,10.753249015660387,7.4424726433246144,6.569585385292277,-6.111090695153989,0.0,0.0,0.4,-0.003968547111745074,0.054579899169162345,0.18678681895010796,-0.002886439448850458,0.004146191572996876,0.0,0.0,0.0,0.0,0.0,0.0,0.0
0.7666633129119873,10.746481364204307,7.624924711828959,6.909380022953384,-6.11676837416808,0.0,0.0,0.4,-0.005320882070660542,0.05604107847069887,0.18093064902916595,-0.0029235187783609746,0.004308698703728779,0.0,0.0,0.0,0.0,0.0,0.0,0.0
0.7771947383880615,10.786521661602597,7.48497576011602,6.67084054730528,-6.093452591411383,0.0,0.0,0.4,-0.003938814043666743,0.054696960891274654,0.18686446083160105,-0.002950442419079885,0.004220754464370337,0.0,0.0,0.0,0.0,0.0,0.0,0.0
0.7877285480499268,10.804724577420814,7.487311401397502,6.671395314474963,-6.097923022533356,0.0,0.0,0.4,-0.0037909945475812154,0.05464688801442898,0.18741270968825968,-0.003137604699053745,0.004232939689294359,0.0,0.0,0.0,0.0,0.0,0.0,0.0
0.7982525825500488,10.826474130930384,7.478155690124995,6.6266053898021084,-6.122072268746957,0.0,0.0,0.4,-0.0035558566508969436,0.05455360447639719,0.18819716241890377,-0.0033430415007958225,0.004251331249245123,0.0,0.0,0.0,0.0,0.0,0.0,0.0
0.8086979389190674,10.83411155212669,7.408261375720261,6.472509052399566,-6.136433712257764,0.0,0.0,0.4,-0.0028356220294181098,0.05389904438376522,0.191202721451145,-0.00343660177186083,0.004119813239635938,0.0,0.0,0.0,0.0,0.0,0.0,0.0
0.8191642761230469,10.807877991981945,7.448617771161735,6.527875044332443,-6.152893894923526,0.0,0.0,0.4,-0.0030202112947364003,0.054180128816082404,0.19028538571397158,-0.0035479499953736606,0.003997346696272617,0.0,0.0,0.0,0.0,0.0,0.0,0.0
0.8296210765838623,10.787570744174037,7.462405475787075,6.545118503900842,-6.159894204713379,0.0,0.0,0.4,-0.0030361038500071776,0.05421430444108755,0.19023973687461124,-0.0038439013754369535,0.0038101859547269874,0.0,0.0,0.0,0.0,0.0,0.0,0.0
0.8399419784545898,10.789480174430274,7.350281419454426,6.339779191920417,-6.149370611319028,0.0,0.0,0.4,-0.0021233904425921046,0.05313192366149226,0.19452906456750124,-0.004310396122652449,0.0034544202915948166,0.0,0.0,0.0,0.0,0.0,0.0,0.0
0.8503587245941162,10.753109220557963,7.470850793085358,6.5376226947434875,-6.181255056791434,0.0,0.0,0.4,-0.003094081099585741,0.05415492248171059,0.19022067972662787,-0.004885841765984869,0.0032899406671292003,0.0,0.0,0.0,0.0,0.0,0.0,0.0
0.8612520694732666,10.652853528117483,7.965296766982427,7.415616510144212,-6.2278959477569655,0.0,0.0,0.4,-0.007455182181945366,0.058391396279746516,0.17208719992050286,-0.005588918280468696,0.0035167710158060398,0.0,0.0,0.0,0.0,0.0,0.0,0.0
0.8715791702270508,10.772490352979384,7.3988517559546185,6.350763403425796,-6.203351153477294,0.0,0.0,0.4,-0.002497399050243883,0.05331925221494437,0.19315630197219677,-0.00495163383006691,0.0031703420161918747,0.0,0.0,0.0,0.0,0.0,0.0,0.0
0.8819842338562012,10.784907678363941,7.480469616607108,6.440382532221546,-6.247494090818531,0.0,0.0,0.4,-0.0030416689219256304,0.053970615290360985,0.19050250414669026,-0.004554641121836871,0.0034928812848090338,0.0,0.0,0.0,0.0,0.0,0.0,0.0
0.8923952579498291,10.78833089166182,7.50735742388637,6.445114215928412,-6.272100482987275,0.0,0.0,0.4,-0.003097759322392285,0.054092331411976405,0.19008693439397306,-0.004000476501599768,0.003728235380669606,0.0,0.0,0.0,0.0,0.0,0.0,0.0
0.9027504920959473,10.78596446212852,7.482814025067057,6.38653263285575,-6.269365991969932,0.0,0.0,0.4,-0.002734961948232549,0.05371476166044273,0.1917008102342045,-0.003583989592658625,0.003800904007020872,0.0,0.0,0.0,0.0,0.0,0.0,0.0
0.9131660461425781,10.76523734774436,7.580423678537271,6.558857519426412,-6.2770138575705205,0.0,0.0,0.4,-0.0033464608831046475,0.05441046112271822,0.18895565074867313,-0.0034059711052,0.0038955931073254802,0.0,0.0,0.0,0.0,0.0,0.0,0.0
0.9234895706176758,10.774325996399947,7.527391774754456,6.47699066345258,-6.253089242276395,0.0,0.0,0.4,-0.0027567563677036513,0.053750623372902255,0.1917071866100255,-0.0032643709357732067,0.00387272644684516,0.0,0.0,0.0,0.0,0.0,0.0,0.0
0.9338324069976807,10.76425556544632,7.587127651009618,6.597629371439862,-6.245401665988415,0.0,0.0,0.4,-0.003079797815054821,0.05410579441059584,0.19033181018611453,-0.0032809860008743224,0.0038941443952472646,0.0,0.0,0.0,0.0,0.0,0.0,0.0
0.944899320602417,10.638656265968464,8.342015129527429,7.995490905845361,-6.245801541502142,0.0,0.0,0.4,-0.00982463971303087,0.06047159150853782,0.1630870836695439,-0.003785912638022794,0.004360095885729379,0.0,0.0,0.0,0.0,0.0,0.0,0.0
0.9551815986633301,10.806125090967647,7.537364292568536,6.488215306755004,-6.249826296685275,0.0,0.0,0.4,-0.0023873944190545907,0.05343624200899204,0.19331260712883858,-0.0034748926560349155,0.00391814844186507,0.0,0.0,0.0,0.0,0.0,0.0,0.0
0.9657144546508789,10.761235185691598,7.775898441959376,6.890022947103062,-6.298224546034546,0.0,0.0,0.4,-0.004201506380034959,0.055505148533470536,0.18505486165581098,-0.003713730323606861,0.004010085705073473,0.0,0.0,0.0,0.0,0.0,0.0,0.0
0.9764342308044434,10.720193834733335,7.946226778371008,7.1839336821316735,-6.330118392454323,0.0,0.0,0.4,-0.005678761162661937,0.056960163074251,0.17890012439876765,-0.0046614215208247625,0.003669078682432236,0.0,0.0,0.0,0.0,0.0,0.0,0.0
0.9868638515472412,10.77712565254949,7.6261155734693595,6.577266553055224,-6.331656061516512,0.0,0.0,0.4,-0.0030767643831755044,0.05410283385118179,0.19039099539186255,-0.005585834913974979,0.002829061825520257,0.0,0.0,0.0,0.0,0.0,0.0,0.0
0.997767448425293,10.686957463934506,8.082715693355075,7.367933832738731,-6.389178139177475,0.0,0.0,0.4,-0.007055390557903107,0.0579459160016862,0.1738819970631593,-0.005917674474906729,0.003183425271385827,0.0,0.0,0.0,0.0,0.0,0.0,0.0
1.0082981586456299,10.749676594156325,7.704367502390015,6.653991548846483,-6.358427208843084,0.0,0.0,0.4,-0.003590247181498342,0.05440163523819447,0.18865465434213544,-0.004501001996181998,0.003346456586325686,0.0,0.0,0.0,0.0,0.0,0.0,0.0
1.0187044143676758,10.77065509618561,7.584747885103785,6.438553418557889,-6.325953617848783,0.0,0.0,0.4,-0.002478793995465238,0.053106240358238604,0.1938639992108976,-0.0037268138833505817,0.003580288330250054,0.0,0.0,0.0,0.0,0.0,0.0,0.0
1.0291650295257568,10.759187578351138,7.660628254386506,6.579405318699702,-6.321978877739202,0.0,0.0,0.4,-0.0029076701412162655,0.053585106387323056,0.19194756447181893,-0.003354735627199895,0.0038150956887209528,0.0,0.0,0.0,0.0,0.0,0.0,0.0
1.0395033359527588,10.77972905931592,7.576558932320269,6.442629164321189,-6.2912832478323,0.0,0.0,0.4,-0.002080674299295565,0.052644385883941464,0.19580186877336392,-0.003100917290404295,0.003862541799040742,0.0,0.0,0.0,0.0,0.0,0.0,0.0
1.049846887588501,10.760710865349697,7.626774897343893,6.537926522017475,-6.289327595646167,0.0,0.0,0.4,-0.00232078082156505,0.05293681106836068,0.19462996958344564,-0.0032450928178089865,0.0037910403210350808,0.0,0.0,0.0,0.0,0.0,0.0,0.0
1.060969591140747,10.646293523205596,8.440554910816054,8.021200336609411,-6.305899414545623,0.0,0.0,0.4,-0.009431530880477459,0.05981729723436306,0.1653174208524313,-0.0044480084790360285,0.00412320865508099,0.0,0.0,0.0,0.0,0.0,0.0,0.0
1.0713717937469482,10.86805713294512,7.738905917686421,6.650125913630193,-6.327414123206363,0.0,0.0,0.4,-0.002866326086285089,0.05352795868478137,0.19251071317736607,-0.0045132275356068105,0.0036776458787003852,0.0,0.0,0.0,0.0,0.0,0.0,0.0
1.0817904472351074,10.928331369621747,7.777381348082842,6.637136507709429,-6.351852189998634,0.0,0.0,0.4,-0.0029347933384977175,0.053603924440374366,0.19266780174737408,-0.004669950411574758,0.0038197104223207917,0.0,0.0,0.0,0.0,0.0,0.0,0.0
1.0921814441680908,11.019535287630065,7.789761498649752,6.557624853304914,-6.380490534439919,0.0,0.0,0.4,-0.0027949265778079886,0.05344705660815219,0.1940028099306726,-0.0050798652812377755,0.003906515530191019,0.0,0.0,0.0,0.0,0.0,0.0,0.0
1.1026649475097656,11.049616043335913,7.923881756702648,6.6699562983918375,-6.444777624877191,0.0,0.0,0.4,-0.0037013548331492722,0.054401775567652175,0.1908029969801002,-0.006100794247362487,0.003651096003201091,0.0,0.0,0.0,0.0,0.0,0.0,0.0
1.1133201122283936,10.97481309863388,8.126180749674974,6.894318444046342,-6.529103100080865,0.0,0.0,0.4,-0.005308390622706265,0.05595333417042488,0.18470797033644132,-0.00711452903939023,0.0031658685988632646,0.0,0.0,0.0,0.0,0.0,0.0,0.0
1.123626708984375,10.965219688176006,7.790988483964821,6.215310733311307,-6.514634365596941,0.0,0.0,0.4,-0.002584643500637234,0.05288319040585214,0.19738459172872944,-0.006185745034778472,0.002860820366535537,0.0,0.0,0.0,0.0,0.0,0.0,0.0
1.133983850479126,10.896320122594751,7.8851595075690195,6.29605069752835,-6.550804547533333,0.0,0.0,0.4,-0.0030983789538132044,0.05343934322269338,0.19536939696550723,-0.0050049075224343625,0.0033446668258411564,0.0,0.0,0.0,0.0,0.0,0.0,0.0
1.1446304321289062,10.797224123219818,8.23107210407498,6.829784220896743,-6.618705267802147,0.0,0.0,0.4,-0.00561476408545061,0.05613603329651223,0.18452361736574097,-0.004457671224535501,0.00379212887997241,0.0,0.0,0.0,0.0,0.0,0.0,0.0
1.1551058292388916,10.730276632462719,8.070222309742615,6.55548998561701,-6.594765071069592,0.0,0.0,0.4,-0.004186898125664917,0.054691322045391816,0.1904586675427024,-0.0036982905229545316,0.0036945243754051326,0.0,0.0,0.0,0.0,0.0,0.0,0.0
1.1655497550964355,10.681682196390197,8.045279120979346,6.535965267263944,-6.584783813183069,0.0,0.0,0.4,-0.0039032085288607313,0.05442517342160322,0.1913771399112208,-0.003345532055196701,0.003682959091420784,0.0,0.0,0.0,0.0,0.0,0.0,0.0
1.1759629249572754,10.783784415372418,8.027560166755146,6.509454024782522,-6.581646393998362,0.0,0.0,0.4,-0.0036640477592494343,0.05420694324491558,0.19236500785288113,-0.0037023807802803134,0.003840730121710564,0.0,0.0,0.0,0.0,0.0,0.0,0.0
1.1863782405853271,10.84494729717089,8.05776494265457,6.541139463792023,-6.588840981826651,0.0,0.0,0.4,-0.0037266624648735723,0.05432548202382835,0.19217107633426717,-0.0038446251274456113,0.0039934053574942575,0.0,0.0,0.0,0.0,0.0,0.0,0.0
1.1969845294952393,10.785044640712503,8.28883019945442,6.918074993110528,-6.61928515553365,0.0,0.0,0.4,-0.0053618192536996866,0.05609592221826132,0.18515125658115208,-0.0036838284717687826,0.004140362817221816,0.0,0.0,0.0,0.0,0.0,0.0,0.0
1.2073683738708496,10.803925638520953,8.072460810011956,6.546748030705204,-6.587091662650232,0.0,0.0,0.4,-0.0034820761887580307,0.054154549891337,0.19325417953749816,-0.0035349505216169634,0.003943265138684443,0.0,0.0,0.0,0.0,0.0,0.0,0.0
1.217771053314209,10.78516947444279,8.1085731046057,6.603264133707855,-6.594206743037361,0.0,0.0,0.4,-0.0036330351371784246,0.054357546685247456,0.1925319886922985,-0.0036652905313441127,0.003854913817851306,0.0,0.0,0.0,0.0,0.0,0.0,0.0
1.2284541130065918,10.724308269786086,8.420618767654393,7.132672705004445,-6.631180367808373,0.0,0.0,0.4,-0.006020053002270927,0.05685573033778163,0.1823189084061769,-0.0038302540783428877,0.003978855987555332,0.0,0.0,0.0,0.0,0.0,0.0,0.0
1.2389700412750244,10.753744227393328,8.249130474279273,6.836192511811366,-6.614336575410399,0.0,0.0,0.4,-0.004468765994451573,0.05531859927589142,0.18872572284788844,-0.0036656126328400125,0.0038651357362892184,0.0,0.0,0.0,0.0,0.0,0.0,0.0
1.2492876052856445,10.850350813763537,8.047464886093938,6.478141255461347,-6.589317989257327,0.0,0.0,0.4,-0.0027840894067543524,0.05348631942951079,0.19627083117765565,-0.003926969421304279,0.0037512015058608853,0.0,0.0,0.0,0.0,0.0,0.0,0.0
1.2597942352294922,10.852406157475345,8.265999941063937,6.8144300566280664,-6.6328216690333,0.0,0.0,0.4,-0.004316973767913439,0.05519331135259414,0.18964877897186896,-0.004299648932340352,0.0038773892907064795,0.0,0.0,0.0,0.0,0.0,0.0,0.0
1.2703347206115723,10.801280097797731,8.32367823801931,6.887810535502765,-6.645824562137031,0.0,0.0,0.4,-0.0046096495774212605,0.055516451607189904,0.1884493236320384,-0.004084479809399374,0.0038442790623726625,0.0,0.0,0.0,0.0,0.0,0.0,0.0
1.281062126159668,10.738744135946037,8.53001408786233,7.232541562867621,-6.666443416404302,0.0,0.0,0.4,-0.006172541342637415,0.057093246485167656,0.18194580858700826,-0.004067315883685189,0.003896084234959571,0.0,0.0,0.0,0.0,0.0,0.0,0.0
1.2915613651275635,10.762322666613331,8.283015799772109,6.80578730790399,-6.646023678195439,0.0,0.0,0.4,-0.004047182925490448,0.054934728614904685,0.19078768278962743,-0.0039020436649696184,0.0036823683746193352,0.0,0.0,0.0,0.0,0.0,0.0,0.0
1.3020434379577637,10.813349313459295,8.260952768499504,6.75560858092835,-6.64986238450317,0.0,0.0,0.4,-0.0037985776931786473,0.0546482540750952,0.1919773233266861,-0.004336246486984707,0.003638845269869723,0.0,0.0,0.0,0.0,0.0,0.0,0.0
1.312716007232666,10.873078281365974,8.468574732622232,7.063225069207714,-6.690546603500486,0.0,0.0,0.4,-0.0053411972124893375,0.05623684313117045,0.1857404770780972,-0.00506606220760671,0.003814193651466692,0.0,0.0,0.0,0.0,0.0,0.0,0.0
1.323254108428955,10.945933845501976,8.339806449858832,6.767878680581629,-6.70140938515431,0.0,0.0,0.4,-0.004126877499078068,0.05495892839678357,0.19133600727355393,-0.005174262546766708,0.0037431486781386416,0.0,0.0,0.0,0.0,0.0,0.0,0.0
1.333848476409912,10.897342115824541,8.414435459522466,6.827290089904668,-6.730504056326381,0.0,0.0,0.4,-0.004517239534794788,0.055362521863485316,0.18997644595941382,-0.004913624706972752,0.003754641221474743,0.0,0.0,0.0,0.0,0.0,0.0,0.0
1.3447506427764893,10.748057657262795,8.747902817901437,7.36245705907609,-6.767243697740035,0.0,0.0,0.4,-0.007080715455857766,0.057890115855399986,0.1795329684702565,-0.004494267809193748,0.003891612122060994,0.0,0.0,0.0,0.0,0.0,0.0,0.0
1.355315923690796,10.745271130092508,8.375424414300443,6.726597542391552,-6.73512529806318,0.0,0.0,0.4,-0.003928233609981565,0.054737526052063244,0.19244983487424544,-0.003791590858038512,0.003638216947407225,0.0,0.0,0.0,0.0,0.0,0.0,0.0
1.3657150268554688,10.741239598684391,8.19220461316614,6.437018358953331,-6.701319481566118,0.0,0.0,0.4,-0.0024796918704006986,0.05311376779951795,0.19872850564890607,-0.0034330419271446,0.003531901099848169,0.0,0.0,0.0,0.0,0.0,0.0,0.0
1.3763105869293213,10.74981957990992,8.40502306656083,6.798109883672535,-6.739697637778765,0.0,0.0,0.4,-0.004015088460748686,0.0548493490846715,0.1917512510881973,-0.0038508248529399137,0.0036600779920943527,0.0,0.0,0.0,0.0,0.0,0.0,0.0
1.3867640495300293,10.796745672973646,8.26619304723854,6.543328939071317,-6.740030595650465,0.0,0.0,0.4,-0.0029843249340824503,0.05363786944605236,0.19642182316241577,-0.004784144559830109,0.0031596783126171214,0.0,0.0,0.0,0.0,0.0,0.0,0.0
1.3978962898254395,10.609209068671529,8.976958911226667,7.719312312490429,-6.838972894946221,0.0,0.0,0.4,-0.008977237778857974,0.05937426507641811,0.17187826992031563,-0.006592981809067432,0.002932879814150437,0.0,0.0,0.0,0.0,0.0,0.0,0.0
1.4084980487823486,10.687693638143818,8.398264593530662,6.674470632954792,-6.826985203337624,0.0,0.0,0.4,-0.004102338924159347,0.05456965623157753,0.19159067166246416,-0.00562935917087389,0.00256624305588204,0.0,0.0,0.0,0.0,0.0,0.0,0.0
1.418964147567749,10.715952155191527,8.251992610238451,6.412381996796353,-6.802796839311661,0.0,0.0,0.4,-0.0028956632049590703,0.0531698302808464,0.19690041724672366,-0.004344208557711414,0.0030064926459105706,0.0,0.0,0.0,0.0,0.0,0.0,0.0
1.4295167922973633,10.705371085633635,8.351223585832408,6.580890122639461,-6.820897067924913,0.0,0.0,0.4,-0.0035345849376608833,0.05390320987117287,0.193768117096486,-0.003841530123785664,0.003360305567702087,0.0,0.0,0.0,0.0,0.0,0.0,0.0
1.4399170875549316,10.696632674006384,8.208840985061958,6.360237834763223,-6.7960938748108575,0.0,0.0,0.4,-0.0023999567580442437,0.05268013245310667,0.19844703305877906,-0.0032100498482002682,0.0034537921889982205,0.0,0.0,0.0,0.0,0.0,0.0,0.0
1.4503014087677002,10.652296376585067,8.198764373884867,6.360721643204042,-6.817648485642429,0.0,0.0,0.4,-0.0022805928179032327,0.05279282629290667,0.19781100966912746,-0.0026823822272135233,0.003757325092754346,0.0,0.0,0.0,0.0,0.0,0.0,0.0
1.460977554321289,10.56280281017336,8.476484529182743,6.84366646764583,-6.9228974361915645,0.0,0.0,0.4,-0.004565648036207962,0.055643706643449406,0.18602538639522634,-0.0035811001181403727,0.003763956180490584,0.0,0.0,0.0,0.0,0.0,0.0,0.0
1.4713430404663086,10.611405939090627,8.12677268156585,6.2518014226329495,-6.910674010077855,0.0,0.0,0.4,-0.002125952733169255,0.05305612572470049,0.19593495459479354,-0.004391752178663726,0.0030646077934873258,0.0,0.0,0.0,0.0,0.0,0.0,0.0
1.4818203449249268,10.610605434270397,8.24293665263188,6.4260992596132755,-6.979371594719934,0.0,0.0,0.4,-0.0030202002034106744,0.054220582219430054,0.19082820387908764,-0.003946795981778042,0.0033415220872264196,0.0,0.0,0.0,0.0,0.0,0.0,0.0
1.492323637008667,10.623714740476093,8.29637485585917,6.533051315355939,-6.994109265197588,0.0,0.0,0.4,-0.0033094403117714735,0.05464437060397717,0.1888484529407106,-0.0028364609656596072,0.0038288840770458604,0.0,0.0,0.0,0.0,0.0,0.0,0.0
1.5028367042541504,10.627006845284162,8.337156762575141,6.668330983474654,-6.973556367359618,0.0,0.0,0.4,-0.00349527000938726,0.05487435576604231,0.18768963734878363,-0.0022468544235359385,0.003988211126677065,0.0,0.0,0.0,0.0,0.0,0.0,0.0
1.5135648250579834,10.599853396050095,8.582035944463401,7.189746893895116,-6.960626900308995,0.0,0.0,0.4,-0.005378636213556585,0.056826241666600566,0.1794219517658478,-0.0020790516550015016,0.004133081159794408,0.0,0.0,0.0,0.0,0.0,0.0,0.0
1.5241897106170654,10.645006242795144,8.489399095846098,7.124677487069444,-6.891109153862063,0.0,0.0,0.4,-0.004460964731055065,0.05583097595189693,0.1834363252875212,-0.0020769990729834643,0.004090663118529522,0.0,0.0,0.0,0.0,0.0,0.0,0.0
1.5346226692199707,10.707363092848356,8.306801147832628,6.88700985760631,-6.813084380604689,0.0,0.0,0.4,-0.002837359523179775,0.05400259214961891,0.19082751050894278,-0.002209014353956121,0.00398167880135197,0.0,0.0,0.0,0.0,0.0,0.0,0.0
1.545440673828125,10.655759394298324,8.696884834116466,7.686284951509125,-6.786850605051028,0.0,0.0,0.4,-0.006058650982631718,0.057277879644034455,0.177148827167165,-0.002755086834564453,0.004081341469003411,0.0,0.0,0.0,0.0,0.0,0.0,0.0
1.555959701538086,10.734405625528884,8.400760341292568,7.187280348910341,-6.742640432371504,0.0,0.0,0.4,-0.003399855352724017,0.05448990580378956,0.18870546455527393,-0.003110525342596114,0.0038256795805282594,0.0,0.0,0.0,0.0,0.0,0.0,0.0
1.5665326118469238,10.741528508444473,8.456736995674952,7.327271316509213,-6.71913843372115,0.0,0.0,0.4,-0.003764754510772208,0.05482367438780014,0.18728838882582471,-0.0033966748912866757,0.0038143311023763555,0.0,0.0,0.0,0.0,0.0,0.0,0.0
1.577150583267212,10.746411584948758,8.51115782664837,7.451983497345872,-6.699781407314632,0.0,0.0,0.4,-0.004101321301128103,0.0551368097356253,0.1859842372721102,-0.0035114873718459965,0.003851170584945678,0.0,0.0,0.0,0.0,0.0,0.0,0.0
1.5876309871673584,10.781583188751044,8.391502147205998,7.235815400468273,-6.68367927115614,0.0,0.0,0.4,-0.002969132866532765,0.053883822514967636,0.19112726881687914,-0.003548558636778827,0.0037674205777230283,0.0,0.0,0.0,0.0,0.0,0.0,0.0
1.598372220993042,10.741395842057457,8.659425800102314,7.752830926386921,-6.6747559403762535,0.0,0.0,0.4,-0.005150027051490362,0.056156073086598826,0.18176953299779824,-0.003827654749992146,0.003913046832906965,0.0,0.0,0.0,0.0,0.0,0.0,0.0
1.6091408729553223,10.761100396130168,8.692437361579042,7.793990835768102,-6.685134173012978,0.0,0.0,0.4,-0.005285488765401112,0.05632977115775653,0.1811818941953605,-0.0039006462058427194,0.004039768365580812,0.0,0.0,0.0,0.0,0.0,0.0,0.0
1.6197388172149658,10.825129607336933,8.523399770231654,7.411816184399464,-6.727423891241702,0.0,0.0,0.4,-0.0036151632135601706,0.05473754165883664,0.18810164356326203,-0.0038277241146016066,0.0040960763818382335,0.0,0.0,0.0,0.0,0.0,0.0,0.0
1.6304779052734375,10.79858330800825,8.654386387051026,7.6043466505331425,-6.768708247237363,0.0,0.0,0.4,-0.004592327060786907,0.05586801616890478,0.18367911061382844,-0.00413746396964773,0.00405651703873529,0.0,0.0,0.0,0.0,0.0,0.0,0.0
1.6409306526184082,10.821997761694126,8.374671827365432,7.035882520952262,-6.785838129136322,0.0,0.0,0.4,-0.0021726983293241207,0.053256153057895717,0.19433828260613856,-0.004226584515518497,0.003553015302451516,0.0,0.0,0.0,0.0,0.0,0.0,0.0
1.651357650756836,10.817626168184123,8.351429640662847,6.958655108830161,-6.8114325343316215,0.0,0.0,0.4,-0.001972439624304538,0.053060662780484234,0.1951014386536447,-0.004527814663113122,0.003459553144759738,0.0,0.0,0.0,0.0,0.0,0.0,0.0
1.6617991924285889,10.81709661281689,8.367480811455767,6.949671292470495,-6.8520638856805975,0.0,0.0,0.4,-0.002144760244012483,0.05337601756808866,0.19388741760798434,-0.0048886325019735204,0.0035569770331102253,0.0,0.0,0.0,0.0,0.0,0.0,0.0
1.6720950603485107,10.82923456568078,8.248611573233248,6.6975615315676285,-6.861772057885466,0.0,0.0,0.4,-0.0012247834907165717,0.052354488090704504,0.1979598560588835,-0.0046010259391634275,0.003502091761992598,0.0,0.0,0.0,0.0,0.0,0.0,0.0
1.6824524402618408,10.795468341163968,8.357043646672219,6.87582685805066,-6.88480669953886,0.0,0.0,0.4,-0.0019676706421331153,0.05326748211066294,0.19432703626340836,-0.004172608312903806,0.00356737143638151,0.0,0.0,0.0,0.0,0.0,0.0,0.0
1.692929983139038,10.757160382168603,8.532377512841752,7.196997506546744,-6.8973254347643325,0.0,0.0,0.4,-0.0032549158143196644,0.05470214338690235,0.18850474243326626,-0.003942558847399823,0.0036635077136964265,0.0,0.0,0.0,0.0,0.0,0.0,0.0
1.703368902206421,10.754677900002704,8.54862578337918,7.234756801286651,-6.88333783899537,0.0,0.0,0.4,-0.0032461119344134384,0.05462411964883354,0.18874431282536294,-0.0037175538181383025,0.0036624525648996367,0.0,0.0,0.0,0.0,0.0,0.0,0.0
1.7141265869140625,10.703734138998366,8.901922429771094,7.90453409342415,-6.879527935072818,0.0,0.0,0.4,-0.006175520591036838,0.05758046245292812,0.17641392248941837,-0.0038286507326117628,0.003926292380586847,0.0,0.0,0.0,0.0,0.0,0.0,0.0
1.724691390991211,10.760732394112033,8.723792370284107,7.530972875570712,-6.901365288336967,0.0,0.0,0.4,-0.004390264564284558,0.05583158598581017,0.1838304806291221,-0.0038095189276391756,0.003873077064858392,0.0,0.0,0.0,0.0,0.0,0.0,0.0
1.735185146331787,10.766500577890323,8.70108458080426,7.334978591480407,-6.9233010183444765,0.0,0.0,0.4,-0.0034855714976448383,0.05505335601190763,0.18701202451413007,-0.0034004929546941516,0.003591533758712442,0.0,0.0,0.0,0.0,0.0,0.0,0.0
1.7459282875061035,10.755757593073623,9.074673201216587,7.691622249619769,-6.95256293301547,0.0,0.0,0.4,-0.005062377452235242,0.05709530691510717,0.1785696068319455,-0.0030449341985867174,0.003404578789359469,0.0,0.0,0.0,0.0,0.0,0.0,0.0
1.7564623355865479,10.940878188644874,8.960200719679454,7.170566603297748,-6.975934881487995,0.0,0.0,0.4,-0.0027916185679840097,0.05500749173191831,0.18747834838983557,-0.0038449935146881355,0.003432609237665028,0.0,0.0,0.0,0.0,0.0,0.0,0.0
1.766956090927124,11.0346962027094,8.972409452018443,7.00663984840477,-6.998179842050416,0.0,0.0,0.4,-0.002263815005952581,0.05447055882199509,0.1901887856735269,-0.004932432891730941,0.0036390956627805025,0.0,0.0,0.0,0.0,0.0,0.0,0.0
1.7779757976531982,10.889770892913768,9.566794161704793,7.926578909504046,-7.035845278795091,0.0,0.0,0.4,-0.006616475509123369,0.05897312995554159,0.17214952060290234,-0.005210557456123905,0.004248010031555518,0.0,0.0,0.0,0.0,0.0,0.0,0.0
1.7884597778320312,10.93526159049094,8.952836226813064,6.863422408089623,-7.046892341951711,0.0,0.0,0.4,-0.001924525803210668,0.05398668639116318,0.19307779885606996,-0.00461098220722196,0.0040349675249178206,0.0,0.0,0.0,0.0,0.0,0.0,0.0
1.799156904220581,10.97283146943347,9.144282486854701,7.175033235302406,-7.108101756212332,0.0,0.0,0.4,-0.003533594941159509,0.055707961345118115,0.18686488761432166,-0.005418653313030776,0.004230332156793414,0.0,0.0,0.0,0.0,0.0,0.0,0.0
1.8098468780517578,10.982299949458769,9.107932718789497,7.124267021981103,-7.134694686965038,0.0,0.0,0.4,-0.0035315264206470277,0.05550742766475579,0.18825773790086847,-0.00571746145691338,0.0040652802164821596,0.0,0.0,0.0,0.0,0.0,0.0,0.0
1.8203275203704834,10.93977474394462,8.864461902400103,6.758074454366578,-7.115121171244976,0.0,0.0,0.4,-0.0020316514601942046,0.053550575798604935,0.19635571599353002,-0.005273070734948272,0.003705530370359568,0.0,0.0,0.0,0.0,0.0,0.0,0.0
1.8313374519348145,10.797201172637822,9.40714166253277,7.748552475379331,-7.156980196006894,0.0,0.0,0.4,-0.006555914803304627,0.05810456636614965,0.17798403955267286,-0.005567281126717234,0.0039759521443192515,0.0,0.0,0.0,0.0,0.0,0.0,0.0
1.8420131206512451,10.770642943935163,9.019755949902274,7.149682314686551,-7.134738578564632,0.0,0.0,0.4,-0.003698751177696684,0.05502618818919347,0.19054078576095018,-0.004656303498968815,0.003629332187349616,0.0,0.0,0.0,0.0,0.0,0.0,0.0
1.8526363372802734,10.692051080720152,8.91223251431856,7.029614439496425,-7.141482994917916,0.0,0.0,0.4,-0.0031376482948848664,0.054416196128773284,0.19275556679566083,-0.004052305576056186,0.003698717186514813,0.0,0.0,0.0,0.0,0.0,0.0,0.0
1.8631813526153564,10.651621476774322,8.769314564539174,6.841337649561264,-7.159295734417364,0.0,0.0,0.4,-0.0023844978528525587,0.05371047739252868,0.19526396352468753,-0.004054078305475652,0.0037238599280851247,0.0,0.0,0.0,0.0,0.0,0.0,0.0
1.8735597133636475,10.638626602245028,8.563239970307542,6.548386392911633,-7.148093311972488,0.0,0.0,0.4,-0.0011702007032256788,0.05233293496127518,0.200165464476474,-0.004022293406681466,0.003372676575062666,0.0,0.0,0.0,0.0,0.0,0.0,0.0
1.883885145187378,10.610706621884223,8.513059344427417,6.521979531878183,-7.147435730958127,0.0,0.0,0.4,-0.001013817443938813,0.052093720870796736,0.20038227179983759,-0.00399381806962555,0.0029645007193128004,0.0,0.0,0.0,0.0,0.0,0.0,0.0
1.8945839405059814,10.506791205151996,8.909181004492162,7.2786926166755155,-7.2104661784204955,0.0,0.0,0.4,-0.0042106654328370255,0.05568087364257897,0.18518183614521913,-0.004312072446916888,0.0028930727771307877,0.0,0.0,0.0,0.0,0.0,0.0,0.0
1.9049575328826904,10.597850882024554,8.621520875570262,6.806891834847748,-7.156627291558863,0.0,0.0,0.4,-0.001975968747530147,0.052988571327073054,0.1952207728901921,-0.003969593096242957,0.002698662239371064,0.0,0.0,0.0,0.0,0.0,0.0,0.0
1.9155542850494385,10.592388027089232,8.874402977895137,7.3088772778066105,-7.173124554831213,0.0,0.0,0.4,-0.003998345635865593,0.055123571120265294,0.18589607222715976,-0.004100876955159323,0.002930704254821389,0.0,0.0,0.0,0.0,0.0,0.0,0.0
1.9267358779907227,10.514092842555591,9.471231955544091,8.48722151045665,-7.136862069563509,0.0,0.0,0.4,-0.009463273590748705,0.060101559185873114,0.16375454185479066,-0.004569056955618775,0.0033926845114673376,0.0,0.0,0.0,0.0,0.0,0.0,0.0
1.9374847412109375,10.653540602908436,9.026825033129859,7.658503629877681,-7.140616420971993,0.0,0.0,0.4,-0.00519041003268568,0.056094225808122775,0.18093119556160814,-0.00398344880572172,0.0033591066630504597,0.0,0.0,0.0,0.0,0.0,0.0,0.0
1.9481863975524902,10.729848147919604,8.962187861028537,7.54379637844411,-7.124930353041858,0.0,0.0,0.4,-0.004435558437219607,0.05529912721430695,0.1842310839413105,-0.003405348112071254,0.003740824569808552,0.0,0.0,0.0,0.0,0.0,0.0,0.0
1.9590160846710205,10.79455558047593,9.075128920009409,7.719281846199388,-7.145255850205398,0.0,0.0,0.4,-0.00510480130128815,0.05614101019884706,0.18112005219932298,-0.0029688582939862897,0.00438352637121599,0.0,0.0,0.0,0.0,0.0,0.0,0.0
1.969541072845459,10.896177891677212,8.772578275024207,7.091476454841515,-7.162685249162651,0.0,0.0,0.4,-0.0022789018438494762,0.05332922523998719,0.19331459803731638,-0.002669231597880975,0.004510593966613607,0.0,0.0,0.0,0.0,0.0,0.0,0.0
1.9800639152526855,10.881005849598095,8.781947943486575,7.073293615470193,-7.183998578861437,0.0,0.0,0.4,-0.0020909244620536532,0.053304397813491125,0.19391345863712287,-0.002697996895804795,0.004378420336587481,0.0,0.0,0.0,0.0,0.0,0.0,0.0
1.990379810333252,10.877332310719627,8.61716946240405,6.7760886525019615,-7.154031340268625,0.0,0.0,0.4,-0.0006661982090475499,0.05163752588382997,0.20076797983088843,-0.002757110964150199,0.004002949313704846,0.0,0.0,0.0,0.0,0.0,0.0,0.0
2.000730037689209,0.0,0.0,0.0,0.0,0.0,0.0,0.0,0.0,0.0,0.0,0.0,0.0,0.0,0.0,0.0,0.0,0.0,0.0,0.0
2.0112903118133545,8.738290163037256,6.4807447293210245,5.816344128065085,-5.606822773385227,0.0,0.0,0.0,-0.003157586759747706,0.05457605885511603,-0.2107309973238709,-0.0033182859979395325,0.0038228482231860814,0.0,0.0,0.0,0.0,0.0,0.0,0.0
2.021637201309204,8.758457109219778,6.333316221203008,5.596820171484954,-5.5420590172239494,0.0,0.0,0.0,-0.0018699042573138182,0.05303573619380149,-0.2045994736959827,-0.0033977215127354416,0.00362908982248081,0.0,0.0,0.0,0.0,0.0,0.0,0.0
2.032025098800659,8.73831988036531,6.4370158545739145,5.788304199407533,-5.545719636378251,0.0,0.0,0.0,-0.0025428568704033705,0.053744614854396446,-0.20750767502992573,-0.0035783796588787506,0.003609355908877187,0.0,0.0,0.0,0.0,0.0,0.0,0.0
2.042530059814453,8.717052366641163,6.606275916637646,6.079910839015648,-5.573162295352496,0.0,0.0,0.0,-0.0038020937991952025,0.05509479269481379,-0.21304814412401912,-0.0038488989535218304,0.0036950551945741507,0.0,0.0,0.0,0.0,0.0,0.0,0.0
2.052983045578003,8.73453350696225,6.5813524856018795,6.020711329005439,-5.585928750486473,0.0,0.0,0.0,-0.003546518405543618,0.054837367065677226,-0.21203704924896336,-0.004207118954843835,0.0036450624846078084,0.0,0.0,0.0,0.0,0.0,0.0,0.0
2.0638532638549805,8.649550873097288,7.009327365149154,6.736840869347178,-5.672334339517403,0.0,0.0,0.0,-0.007320189937224213,0.05853513432375489,-0.22776001137696197,-0.005107606649731079,0.003759588487711253,0.0,0.0,0.0,0.0,0.0,0.0,0.0
2.0742757320404053,8.724431417900512,6.539003261082667,5.896302539759601,-5.6258413855908165,0.0,0.0,0.0,-0.003228944032875731,0.054421386181609396,-0.21069848861842883,-0.0050370753756092575,0.0032619286807536105,0.0,0.0,0.0,0.0,0.0,0.0,0.0
2.08471417427063,8.723931257583361,6.548302651314304,5.887903320887281,-5.638173694767848,0.0,0.0,0.0,-0.0032730112729391254,0.05439303547388977,-0.21079826120671927,-0.0049050802037843115,0.0032924014654764616,0.0,0.0,0.0,0.0,0.0,0.0,0.0
2.095442056655884,8.675761333078313,6.8480516025284714,6.381746365602799,-5.692337777613634,0.0,0.0,0.0,-0.005690386851687334,0.05682624384088531,-0.2210673001676176,-0.004664866850098386,0.003631083111876416,0.0,0.0,0.0,0.0,0.0,0.0,0.0
2.105760097503662,8.776174475347544,6.44175999426148,5.675020655636611,-5.60958712600454,0.0,0.0,0.0,-0.0021863389565099506,0.053089918907053654,-0.20565705135133294,-0.0038870078206693455,0.003629396887045815,0.0,0.0,0.0,0.0,0.0,0.0,0.0
2.116107702255249,8.803548196222486,6.485346386993371,5.7163771485131605,-5.636163436957157,0.0,0.0,0.0,-0.002362937757127294,0.05338720203163792,-0.20663359219511962,-0.003627221009495015,0.0039472903221306,0.0,0.0,0.0,0.0,0.0,0.0,0.0
2.1267926692962646,8.74216504927711,6.849410228339452,6.301805818362483,-5.7290363955501675,0.0,0.0,0.0,-0.005169448453827368,0.056492162019282824,-0.21912466544211268,-0.003696220039394598,0.004213115047646427,0.0,0.0,0.0,0.0,0.0,0.0,0.0
2.1371171474456787,8.782818102927799,6.5060960605313065,5.715939017588242,-5.655880048920402,0.0,0.0,0.0,-0.0022122457840939927,0.053336335907953884,-0.20608653338008592,-0.0034683406108186256,0.0038603808223309824,0.0,0.0,0.0,0.0,0.0,0.0,0.0
2.1475491523742676,8.746436792808574,6.642098567357664,5.945060202430433,-5.681051876171849,0.0,0.0,0.0,-0.0031361659086361487,0.054380392597217886,-0.21024378362814689,-0.003555162112502831,0.003837115407449773,0.0,0.0,0.0,0.0,0.0,0.0,0.0
2.1579554080963135,8.738030200773462,6.647544390220241,5.9625538187555085,-5.6710546664658965,0.0,0.0,0.0,-0.003064197527179773,0.054264105777805674,-0.20979316119735195,-0.003714979663509127,0.0037319983712901586,0.0,0.0,0.0,0.0,0.0,0.0,0.0
2.1682701110839844,8.745714742644406,6.586839740909754,5.867440634519681,-5.648014617698065,0.0,0.0,0.0,-0.0025000227657210224,0.053571158916409754,-0.20707328756252852,-0.0039115270805140335,0.0035786605142482703,0.0,0.0,0.0,0.0,0.0,0.0,0.0
2.17864990234375,8.78730047233178,6.689539686640146,6.029360835783248,-5.667940188659708,0.0,0.0,0.0,-0.003225874683413496,0.05432199018567652,-0.21005851358770228,-0.004384897012744846,0.0036276748776306973,0.0,0.0,0.0,0.0,0.0,0.0,0.0
2.188983678817749,8.942498451842127,6.687055189674661,5.968428601963707,-5.6800831328754535,0.0,0.0,0.0,-0.003081746134264863,0.05409159592521798,-0.2087173361932758,-0.005204816391545013,0.003711110528249346,0.0,0.0,0.0,0.0,0.0,0.0,0.0
2.199286460876465,9.022923109302718,6.70863144613999,5.91306800173017,-5.705243225260723,0.0,0.0,0.0,-0.003063802346718908,0.05400455740164155,-0.20776437671495693,-0.005607670426231251,0.0037610444356177353,0.0,0.0,0.0,0.0,0.0,0.0,0.0
2.2099831104278564,8.930337532697688,7.17010434618965,6.597848928660574,-5.800763963882456,0.0,0.0,0.0,-0.006674097253209756,0.05762724173878693,-0.22225428974538286,-0.005816403888633624,0.00408529442862811,0.0,0.0,0.0,0.0,0.0,0.0,0.0
2.2202775478363037,8.999619246909154,6.778965473028868,5.8490298052203125,-5.757852524823514,0.0,0.0,0.0,-0.003223289034539504,0.05403976667688918,-0.20685285438246803,-0.005706303304896157,0.0036739511182289656,0.0,0.0,0.0,0.0,0.0,0.0,0.0
2.2307045459747314,9.024489220795616,6.9474775809232785,6.018071026366638,-5.820422429916203,0.0,0.0,0.0,-0.004381251786164032,0.05519887583137595,-0.21092225812395832,-0.006294646962254077,0.0037512438850525274,0.0,0.0,0.0,0.0,0.0,0.0,0.0
2.2410521507263184,8.980577561706177,6.898559723649368,5.8392171950453475,-5.829331682125868,0.0,0.0,0.0,-0.003792377634246398,0.05448678261530687,-0.2075272678157171,-0.005858778449529624,0.003641007203871191,0.0,0.0,0.0,0.0,0.0,0.0,0.0
2.251380443572998,8.875509089586446,6.913390383752679,5.7942567887496335,-5.842790890932861,0.0,0.0,0.0,-0.003699819979967836,0.05434149619460194,-0.20666752335867494,-0.004968197746658291,0.0036268673751798453,0.0,0.0,0.0,0.0,0.0,0.0,0.0
2.261808395385742,8.841804130561474,7.05161957464407,5.959047786085973,-5.8876867940740585,0.0,0.0,0.0,-0.004591638930202341,0.055287342318615935,-0.21023633644288942,-0.0047196460891658016,0.0037502790728953786,0.0,0.0,0.0,0.0,0.0,0.0,0.0
2.272373914718628,8.800494719211743,7.223493640141427,6.185782965387279,-5.93642538795633,0.0,0.0,0.0,-0.00578283845105074,0.05651111676664733,-0.21504478624541237,-0.004554860301389326,0.003859984122925912,0.0,0.0,0.0,0.0,0.0,0.0,0.0
2.2827558517456055,8.757822553725026,7.032977983045294,5.860489400260415,-5.90292881763144,0.0,0.0,0.0,-0.004104296101697342,0.054807898816535625,-0.2080299833344133,-0.003863585463335685,0.0036986165054677025,0.0,0.0,0.0,0.0,0.0,0.0,0.0
2.293278455734253,8.74576451057777,7.1869763548398335,6.089035706079073,-5.94523242440436,0.0,0.0,0.0,-0.0051951553281183276,0.055968979044741185,-0.2127077828785939,-0.00409986532323793,0.0037729034339016566,0.0,0.0,0.0,0.0,0.0,0.0,0.0
2.3037569522857666,8.82181756360683,7.138663092370149,5.981417042005745,-5.949200877971363,0.0,0.0,0.0,-0.004717697593171848,0.0554722123187895,-0.2104856605955282,-0.004651001655679018,0.0037406460221707212,0.0,0.0,0.0,0.0,0.0,0.0,0.0
2.3142435550689697,8.798950164361079,7.148825975244585,5.963178716784124,-5.963723724430778,0.0,0.0,0.0,-0.004681283549709838,0.05542046566339495,-0.21017022830398158,-0.004657455177869512,0.0036618872695829406,0.0,0.0,0.0,0.0,0.0,0.0,0.0
2.324720859527588,8.721173609238878,7.13763954395676,5.929126595560321,-5.968802671096988,0.0,0.0,0.0,-0.0044894048449567354,0.05521379398204723,-0.20944313939267703,-0.004234345376016935,0.0035395302861849845,0.0,0.0,0.0,0.0,0.0,0.0,0.0
2.3351945877075195,8.731712854427315,7.131315924946063,5.9075953355518465,-5.975807233078805,0.0,0.0,0.0,-0.004365713226619782,0.05507863409217675,-0.2089848658346969,-0.004265571932023439,0.00353906820745099,0.0,0.0,0.0,0.0,0.0,0.0,0.0
2.34568452835083,8.797033281640672,7.152145163468848,5.913768862027301,-5.992522976802398,0.0,0.0,0.0,-0.004443511223905312,0.05514813283097794,-0.2091806822037799,-0.004631649638512298,0.003618471397521831,0.0,0.0,0.0,0.0,0.0,0.0,0.0
2.356180429458618,8.83746240126872,7.169688645027062,5.899247304360936,-6.010134234385627,0.0,0.0,0.0,-0.004450444280682919,0.055147846424496924,-0.2089731685943064,-0.0047400911742419,0.003694039119469259,0.0,0.0,0.0,0.0,0.0,0.0,0.0
2.3665740489959717,8.813807700832411,7.075916332292228,5.720225582213282,-5.994168025719209,0.0,0.0,0.0,-0.0035810490408905403,0.0542155020331298,-0.20509393294770709,-0.004212183016120647,0.0036603673752517137,0.0,0.0,0.0,0.0,0.0,0.0,0.0
2.3773491382598877,8.652423108034913,7.504032988278518,6.387426276692908,-6.086397177901495,0.0,0.0,0.0,-0.006788001685739002,0.057527079962625155,-0.21873840101351735,-0.003776854897190012,0.0038567814139530802,0.0,0.0,0.0,0.0,0.0,0.0,0.0
2.387831687927246,8.713887238611205,7.180407717272503,5.879211992201214,-6.023178624785696,0.0,0.0,0.0,-0.004097669331772063,0.05484187238212121,-0.20772442688567974,-0.0035772285352308596,0.003697781674905792,0.0,0.0,0.0,0.0,0.0,0.0,0.0
2.3984198570251465,8.76370587468852,7.289453920753607,6.035295763795422,-6.057380258177076,0.0,0.0,0.0,-0.004831499030480604,0.0556415662291391,-0.21084439663017318,-0.004055363070192912,0.0037923193424585196,0.0,0.0,0.0,0.0,0.0,0.0,0.0
2.409050226211548,8.738037744316504,7.335180953337122,6.091137110388624,-6.073014100081111,0.0,0.0,0.0,-0.005048333221613504,0.05588681679408783,-0.21177417920340402,-0.003966161903411059,0.003798672718509185,0.0,0.0,0.0,0.0,0.0,0.0,0.0
2.4194986820220947,8.699896849979456,7.138791767627261,5.789737455029372,-6.024150364181566,0.0,0.0,0.0,-0.003417834831833527,0.054164834714509266,-0.20494383131460156,-0.0034078807485570357,0.003643862536141674,0.0,0.0,0.0,0.0,0.0,0.0,0.0
2.430809497833252,8.55944495287105,8.061421374058062,7.2973388920024185,-6.146840085720982,0.0,0.0,0.0,-0.011131237795782793,0.061331613302890345,-0.2354800440516994,-0.004098293482147152,0.0041120048156476,0.0,0.0,0.0,0.0,0.0,0.0,0.0
2.4414284229278564,8.777686774142031,7.267398135132046,5.983485472139541,-6.066522940076118,0.0,0.0,0.0,-0.004204657897372271,0.055055387621109994,-0.20849530279593537,-0.00417898026932537,0.003717637201871308,0.0,0.0,0.0,0.0,0.0,0.0,0.0
2.451840877532959,8.805864561472328,7.01790084836317,5.57590246589934,-6.008740051902047,0.0,0.0,0.0,-0.002273419971479635,0.05287163568026809,-0.19978793834177744,-0.004078809301674277,0.0034952604805446297,0.0,0.0,0.0,0.0,0.0,0.0,0.0
2.462324857711792,8.6621725782584,7.087122819230843,5.691966079842424,-6.031060762749796,0.0,0.0,0.0,-0.0027162597768210783,0.0533869378613995,-0.20213886040539,-0.0036915441989438533,0.003323403378994441,0.0,0.0,0.0,0.0,0.0,0.0,0.0
2.4727587699890137,8.545305761462505,7.037682204608233,5.652147551320183,-6.021499241637583,0.0,0.0,0.0,-0.002371843633337773,0.05301177299580084,-0.20131162164262287,-0.003163110367379582,0.0031652564975039885,0.0,0.0,0.0,0.0,0.0,0.0,0.0
2.4838101863861084,8.356086551642603,7.676834313920106,6.731924791045422,-6.1645531815915104,0.0,0.0,0.0,-0.0075449911127597954,0.0584360005196126,-0.22435073978900058,-0.0031897293611152064,0.0034440799554457794,0.0,0.0,0.0,0.0,0.0,0.0,0.0
2.494504451751709,8.421192775899907,7.2657656600847424,6.114390476418808,-6.108238598101071,0.0,0.0,0.0,-0.004233835880856716,0.05526025086740488,-0.2118597161918137,-0.0029886203112148473,0.003256325196044214,0.0,0.0,0.0,0.0,0.0,0.0,0.0
2.5050160884857178,8.467926426994502,7.042629497919526,5.820398138302037,-6.054796043388112,0.0,0.0,0.0,-0.00263077641879806,0.053489886266486916,-0.20555894904885882,-0.003080153829382814,0.003089937629378558,0.0,0.0,0.0,0.0,0.0,0.0,0.0
2.515425205230713,8.518306921961205,6.927966455642811,5.699036240489121,-6.0175616368917675,0.0,0.0,0.0,-0.0018678084654036135,0.052558560147704395,-0.20263431808436363,-0.0031977388111664637,0.0030356126528845685,0.0,0.0,0.0,0.0,0.0,0.0,0.0
2.525949239730835,8.528080309240945,7.053269246124537,5.960534618222704,-6.044414731165458,0.0,0.0,0.0,-0.00287648699031939,0.05369164119618161,-0.20785497405292022,-0.0034907042716515752,0.0031246898416578237,0.0,0.0,0.0,0.0,0.0,0.0,0.0
2.53629994392395,8.601302434702745,6.905064489257633,5.760680044785341,-5.996102071165,0.0,0.0,0.0,-0.001799878242559453,0.05236255474776985,-0.2030889625374125,-0.0036043961338062995,0.0031006788729014165,0.0,0.0,0.0,0.0,0.0,0.0,0.0
2.546741008758545,8.617889241858068,7.03013585045239,6.000479552414006,-6.022458818931374,0.0,0.0,0.0,-0.0027628513548189,0.053431219133577755,-0.20782304927335854,-0.0038600677077864952,0.0032276679952536304,0.0,0.0,0.0,0.0,0.0,0.0,0.0
2.5570592880249023,8.673172548993387,6.95151134396792,5.888330515395662,-5.9962873039586,0.0,0.0,0.0,-0.0021412044139491396,0.05264552924239453,-0.20496982526528384,-0.0038812974412805387,0.0032608076709928907,0.0,0.0,0.0,0.0,0.0,0.0,0.0
2.56742262840271,8.689186955127202,7.044849952562014,6.055775400827285,-6.014370743797201,0.0,0.0,0.0,-0.002807172517404373,0.05337140938358988,-0.20811531715172776,-0.0039523034508678855,0.003390781122641263,0.0,0.0,0.0,0.0,0.0,0.0,0.0
2.5782315731048584,8.622790511504638,7.5329098582824425,6.912181297465941,-6.085240552593827,0.0,0.0,0.0,-0.006874406529005079,0.05750413078420591,-0.2256450802805594,-0.004323122396071406,0.0037537718973691125,0.0,0.0,0.0,0.0,0.0,0.0,0.0
2.588735580444336,8.697989572287955,7.242875161705707,6.394570048226628,-6.050019237620102,0.0,0.0,0.0,-0.004236768584748304,0.05487068545956505,-0.21448450629764254,-0.00415042515388184,0.003626072870791025,0.0,0.0,0.0,0.0,0.0,0.0,0.0
2.5992980003356934,8.70199235569001,7.306873643219522,6.496791375448193,-6.061535901284464,0.0,0.0,0.0,-0.0046706627692320105,0.055300591528645124,-0.21630523423908232,-0.004213929014321809,0.0036950695268788527,0.0,0.0,0.0,0.0,0.0,0.0,0.0
2.6102285385131836,8.646430898704473,7.6725907373472255,7.136559635451163,-6.097305007325782,0.0,0.0,0.0,-0.007828404191376554,0.058296541558677854,-0.2292405811949732,-0.004471918312722781,0.003942021547582083,0.0,0.0,0.0,0.0,0.0,0.0,0.0
2.620748281478882,8.733239207664354,7.24098411834462,6.350129716229817,-6.059156284266672,0.0,0.0,0.0,-0.0038834937443084014,0.05444661150747668,-0.21270662043801292,-0.0041486832491971284,0.003667876767602722,0.0,0.0,0.0,0.0,0.0,0.0,0.0
2.631472587585449,8.704151739929651,7.425069635738818,6.654966312430273,-6.0928124428814305,0.0,0.0,0.0,-0.0053186209430712075,0.05593079175867271,-0.21889490890165791,-0.004268556871871423,0.00379073998904238,0.0,0.0,0.0,0.0,0.0,0.0,0.0
