T,input Acc,input Wb1,input Wb2,input Wb3,Px,Py,Pz,Vx,Vy,Vz,Roll,Pitch,Yaw,R_rate,P_rate,Y_rate,Wb1,Wb2,Wb3
0,11.8004,6.609666402,6.099264727,-5.506212096,0,0,0.4,0,0,0.4,0,0,0,0,0,0,0,0,0
0.0001297,11.7788928,0.164085546,0.023251007,-0.180697117,0,0,0.4,0.000756008,0.000841225,0.39562745,-7.87E-05,8.17E-05,0,0,0,0,0,0,0
0.01108861,11.70248702,0.77282978,0.155935095,-0.875465327,0,0,0.4,0.003629171,0.004651035,0.377259854,-0.00043668,0.000506777,0,0,0,0,0,0,0
0.021525621,11.59872897,1.567511627,0.454653128,-1.776793006,0,0,0.4,0.006639651,0.010377754,0.35258677,-0.000901066,0.001066003,0,0,0,0,0,0,0
0.031961203,11.43907975,2.552046589,1.045437908,-2.835964,0,0,0.4,0.008873994,0.018315259,0.321671031,-0.001450271,0.001576669,0,0,0,0,0,0,0
0.042384863,11.26465988,3.523921013,1.876380154,-3.777965684,0,0,0.4,0.009252682,0.026803696,0.290774741,-0.002033411,0.001978333,0,0,0,0,0,0,0
0.052775621,11.11837321,4.362175911,2.784927137,-4.488263564,0,0,0.4,0.007963967,0.034636559,0.263044345,-0.002869019,0.002407012,0,0,0,0,0,0,0
0.063248873,10.98606223,5.126114413,3.755008286,-5.035555423,0,0,0.4,0.005304682,0.042117068,0.236444296,-0.003831515,0.002956388,0,0,0,0,0,0,0
0.073583126,10.90336275,5.568409179,4.370901866,-5.292530367,0,0,0.4,0.003101725,0.046385871,0.220887687,-0.004060285,0.003232963,0,0,0,0,0,0,0
0.083969116,10.81099078,6.057687058,5.108956582,-5.504659343,0,0,0.4,0.000143082,0.050824199,0.20412536,-0.004036805,0.003439817,0,0,0,0,0,0,0
0.094774723,10.67550232,6.7996063,6.33580288,-5.689209609,0,0,0.4,-0.005550447,0.057261262,0.178180484,-0.004289891,0.003813354,0,0,0,0,0,0,0
0.105347157,10.68517403,6.774161342,6.297139048,-5.666368666,0,0,0.4,-0.005154789,0.05676027,0.180133133,-0.004081636,0.003719465,0,0,0,0,0,0,0
0.115962505,10.66189032,6.935589927,6.585455841,-5.6670022,0,0,0.4,-0.006425987,0.057870879,0.175263981,-0.004088572,0.003776372,0,0,0,0,0,0,0
0.126465559,10.69304318,6.872938867,6.469586313,-5.654838741,0,0,0.4,-0.005687837,0.057095709,0.178482811,-0.004028281,0.00378152,0,0,0,0,0,0,0
0.136884689,10.73222277,6.799370653,6.315082503,-5.660673865,0,0,0.4,-0.004884661,0.056301114,0.181858539,-0.004014648,0.003826989,0,0,0,0,0,0,0
0.14752984,10.69478658,7.028036252,6.687159432,-5.703509868,0,0,0.4,-0.006773312,0.058122878,0.174166692,-0.004163905,0.003973847,0,0,0,0,0,0,0
0.157918215,10.75388055,6.74383927,6.164104764,-5.683157798,0,0,0.4,-0.004104788,0.055524401,0.185210025,-0.003920161,0.003865656,0,0,0,0,0,0,0
0.168299675,10.77839465,6.7126855,6.071283267,-5.706831129,0,0,0.4,-0.003726249,0.055190297,0.186754326,-0.004053354,0.003937198,0,0,0,0,0,0,0
0.179036617,10.70274059,7.050481686,6.613623301,-5.793724377,0,0,0.4,-0.006611144,0.058087033,0.174662758,-0.004808145,0.003949291,0,0,0,0,0,0,0
0.189361811,10.75045078,6.5956506,5.809638125,-5.733840226,0,0,0.4,-0.002748179,0.054067726,0.191165983,-0.004903479,0.003284893,0,0,0,0,0,0,0
0.199732304,10.72608742,6.62390254,5.835912157,-5.752648976,0,0,0.4,-0.002986651,0.054216425,0.190265947,-0.005124338,0.003109241,0,0,0,0,0,0,0
0.210172176,10.71939299,6.692827361,5.924770381,-5.78176858,0,0,0.4,-0.003519501,0.054713126,0.1879831,-0.005068084,0.003206492,0,0,0,0,0,0,0
0.220525503,10.75824362,6.614304959,5.759055944,-5.777545309,0,0,0.4,-0.002804462,0.053908633,0.191166856,-0.00450196,0.003432468,0,0,0,0,0,0,0
0.230881453,10.77816034,6.636627602,5.761527585,-5.798791516,0,0,0.4,-0.002836963,0.054001488,0.190884978,-0.003995781,0.003758921,0,0,0,0,0,0,0
0.241111279,10.81417665,6.536651476,5.569212882,-5.783605036,0,0,0.4,-0.001919591,0.053025386,0.195014488,-0.003636678,0.003919553,0,0,0,0,0,0,0
0.251413345,10.7968294,6.635777241,5.708790258,-5.830935297,0,0,0.4,-0.002581143,0.053926135,0.191656784,-0.003817398,0.004038296,0,0,0,0,0,0,0
0.262007475,10.72942837,6.944391248,6.206151258,-5.92895305,0,0,0.4,-0.005084975,0.056772327,0.180228187,-0.004396282,0.004207926,0,0,0,0,0,0,0
0.272303343,10.78388699,6.641052247,5.683796698,-5.870133089,0,0,0.4,-0.002542287,0.054180286,0.191058969,-0.004070647,0.004017929,0,0,0,0,0,0,0
0.282740116,10.76787831,6.797156953,5.913148216,-5.928733965,0,0,0.4,-0.003639542,0.055529887,0.18584663,-0.003855769,0.004146164,0,0,0,0,0,0,0
0.293133259,10.76095399,6.766643404,5.847653721,-5.928116407,0,0,0.4,-0.003269143,0.055156667,0.18746085,-0.003907151,0.00389714,0,0,0,0,0,0,0
0.30345273,10.74589578,6.713191018,5.762453707,-5.902909201,0,0,0.4,-0.002723428,0.054469625,0.190137416,-0.003923863,0.003578288,0,0,0,0,0,0,0
0.313995123,10.6865011,6.972425089,6.209531859,-5.940651215,0,0,0.4,-0.004674409,0.056454887,0.181861327,-0.003897218,0.003619905,0,0,0,0,0,0,0
0.324401379,10.71404999,6.855860289,6.027949078,-5.891734306,0,0,0.4,-0.003533752,0.05513924,0.187097071,-0.003657822,0.003568722,0,0,0,0,0,0,0
0.334840536,10.71915532,6.899156001,6.100546405,-5.898195965,0,0,0.4,-0.003766516,0.055330333,0.186185529,-0.003852242,0.003581751,0,0,0,0,0,0,0
0.345369577,10.69752604,6.992227543,6.252845825,-5.922378297,0,0,0.4,-0.004480367,0.056003818,0.183198298,-0.004348684,0.003467306,0,0,0,0,0,0,0
0.355848074,10.69860452,6.941280813,6.163684478,-5.909478894,0,0,0.4,-0.003993844,0.055372864,0.185513265,-0.004509063,0.003316919,0,0,0,0,0,0,0
0.366295099,10.70843287,6.918444026,6.127328462,-5.890072298,0,0,0.4,-0.003686987,0.054925315,0.187116109,-0.004207964,0.003403613,0,0,0,0,0,0,0
0.37677145,10.71109466,6.965057448,6.216998172,-5.876902657,0,0,0.4,-0.003910637,0.055068556,0.186382398,-0.003849051,0.003594499,0,0,0,0,0,0,0
0.387203455,10.72772886,6.939991936,6.188965,-5.848244212,0,0,0.4,-0.003539148,0.054595989,0.188247181,-0.003599177,0.003690037,0,0,0,0,0,0,0
0.397548199,10.75052655,6.876230429,6.09466584,-5.81391093,0,0,0.4,-0.002864746,0.053798877,0.191465936,-0.003452573,0.003712055,0,0,0,0,0,0,0
0.408018827,10.73123928,7.031049351,6.374936351,-5.822891475,0,0,0.4,-0.003967359,0.054967266,0.186694779,-0.003509256,0.003825951,0,0,0,0,0,0,0
0.418440819,10.74312961,7.009002857,6.346083036,-5.804844785,0,0,0.4,-0.003629863,0.054585263,0.18828496,-0.003499096,0.003820358,0,0,0,0,0,0,0
0.429333448,10.65954984,7.498458998,7.23162654,-5.825120729,0,0,0.4,-0.007854187,0.058658596,0.170996259,-0.00383956,0.004102987,0,0,0,0,0,0,0
0.439692497,10.78404124,6.954992502,6.243102035,-5.792751644,0,0,0.4,-0.00289572,0.053819393,0.191566607,-0.003574381,0.003885737,0,0,0,0,0,0,0
0.450130463,10.80460934,7.026545054,6.329756072,-5.832303757,0,0,0.4,-0.003326708,0.054425762,0.189388093,-0.003671669,0.004108334,0,0,0,0,0,0,0
0.460847616,10.76927888,7.303140767,6.763229573,-5.908724496,0,0,0.4,-0.005527501,0.056860244,0.179641518,-0.003887904,0.004312845,0,0,0,0,0,0,0
0.471426249,10.79049613,7.146358149,6.425232722,-5.944109868,0,0,0.4,-0.004052783,0.055531393,0.185446803,-0.00404132,0.004052644,0,0,0,0,0,0,0
0.482086897,10.7518705,7.202860627,6.472531161,-6.000627259,0,0,0.4,-0.004499511,0.056075473,0.183252711,-0.004650315,0.003770002,0,0,0,0,0,0,0
0.492779016,10.71320564,7.208515044,6.447864422,-6.032418252,0,0,0.4,-0.00456878,0.0561113,0.182910304,-0.005184367,0.003437278,0,0,0,0,0,0,0
0.503284693,10.72921197,7.002460245,6.070165515,-6.007639276,0,0,0.4,-0.002901422,0.054212331,0.190359169,-0.005216471,0.003101491,0,0,0,0,0,0,0
0.514021635,10.67751921,7.224302529,6.432762203,-6.057810748,0,0,0.4,-0.00474082,0.056043868,0.182462671,-0.005458039,0.003174074,0,0,0,0,0,0,0
0.524667025,10.69700515,7.131147509,6.260654599,-6.036958447,0,0,0.4,-0.003921561,0.055046494,0.186242186,-0.005066595,0.003168958,0,0,0,0,0,0,0
0.535437107,10.70464381,7.258577857,6.463611252,-6.055508061,0,0,0.4,-0.004854595,0.055960799,0.182315942,-0.004500407,0.003597621,0,0,0,0,0,0,0
0.546043396,10.83793438,7.100030845,6.146736239,-6.039735866,0,0,0.4,-0.003346423,0.054414942,0.189017144,-0.004112429,0.00394798,0,0,0,0,0,0,0
0.556491375,11.01996148,6.962034238,5.836598987,-6.030379662,0,0,0.4,-0.002072457,0.053010248,0.195398909,-0.004606969,0.004024265,0,0,0,0,0,0,0
0.566906929,11.08263327,6.979143692,5.771893372,-6.050947601,0,0,0.4,-0.001957384,0.052870545,0.196772935,-0.00493869,0.003968763,0,0,0,0,0,0,0
0.577600241,10.99118406,7.326882929,6.2628392,-6.140417715,0,0,0.4,-0.004363253,0.055537694,0.186702523,-0.004982391,0.004097306,0,0,0,0,0,0,0
0.587981224,10.97347752,7.067017801,5.782515742,-6.07436371,0,0,0.4,-0.002123838,0.052969753,0.197510005,-0.004579736,0.003745153,0,0,0,0,0,0,0
0.598357201,10.92035977,7.123668389,5.835655631,-6.081327193,0,0,0.4,-0.002337685,0.053158628,0.197102523,-0.004347591,0.003696655,0,0,0,0,0,0,0
0.608842373,10.91914022,7.301965712,6.08152492,-6.122924283,0,0,0.4,-0.003491871,0.05441809,0.192464718,-0.00459089,0.003792326,0,0,0,0,0,0,0
0.619370222,10.91147735,7.407022604,6.203861329,-6.147586473,0,0,0.4,-0.004110429,0.055041164,0.190323745,-0.004714585,0.003816003,0,0,0,0,0,0,0
0.630100489,10.74033273,7.661157006,6.603210143,-6.185962544,0,0,0.4,-0.005991975,0.056920402,0.182594447,-0.004288563,0.003775455,0,0,0,0,0,0,0
0.640417337,10.66795023,7.232213673,5.923486723,-6.097804531,0,0,0.4,-0.002569719,0.053240837,0.197126913,-0.00360679,0.003255818,0,0,0,0,0,0,0
0.650768757,10.57633318,7.268761418,6.027310685,-6.102578868,0,0,0.4,-0.002887554,0.053561562,0.195178033,-0.003561517,0.003064422,0,0,0,0,0,0,0
0.661621332,10.4290927,7.78731234,6.957916985,-6.174132531,0,0,0.4,-0.007244399,0.057957223,0.176135016,-0.003849721,0.003211623,0,0,0,0,0,0,0
0.672023296,10.5322632,7.297502768,6.178903459,-6.102566941,0,0,0.4,-0.00324847,0.053891939,0.192308593,-0.003517506,0.003010305,0,0,0,0,0,0,0
0.682370186,10.56356023,7.223702718,6.103472429,-6.085830116,0,0,0.4,-0.002758181,0.053305061,0.193979236,-0.003579918,0.003043099,0,0,0,0,0,0,0
0.692825556,10.56741301,7.330243748,6.32364119,-6.108463994,0,0,0.4,-0.003660299,0.054285325,0.189392615,-0.003788863,0.003184728,0,0,0,0,0,0,0
0.703195333,10.61464396,7.249859461,6.214427403,-6.09578255,0,0,0.4,-0.003064292,0.053591424,0.191715622,-0.003857832,0.003195841,0,0,0,0,0,0,0
0.713975191,10.5452177,7.671098976,6.965741712,-6.158805207,0,0,0.4,-0.006632816,0.0571982,0.176070656,-0.004333692,0.003397746,0,0,0,0,0,0,0
0.724361897,10.64441403,7.279792517,6.273870224,-6.112648969,0,0,0.4,-0.003229053,0.053674503,0.190482618,-0.003959049,0.003246205,0,0,0,0,0,0,0
0.734710455,10.69504826,7.259298612,6.234509819,-6.104014706,0,0,0.4,-0.002906036,0.053305895,0.191796201,-0.003476119,0.00355296,0,0,0,0,0,0,0
0.745495081,10.66154445,7.722216736,7.05678944,-6.150210762,0,0,0.4,-0.006608378,0.057149676,0.17566662,-0.003242449,0.004130285,0,0,0,0,0,0,0
0.755990267,10.75324902,7.442472643,6.569585385,-6.111090695,0,0,0.4,-0.003968547,0.054579899,0.186786819,-0.002886439,0.004146192,0,0,0,0,0,0,0
0.766663313,10.74648136,7.624924712,6.909380023,-6.116768374,0,0,0.4,-0.005320882,0.056041078,0.180930649,-0.002923519,0.004308699,0,0,0,0,0,0,0
0.777194738,10.78652166,7.48497576,6.670840547,-6.093452591,0,0,0.4,-0.003938814,0.054696961,0.186864461,-0.002950442,0.004220754,0,0,0,0,0,0,0
0.787728548,10.80472458,7.487311401,6.671395314,-6.097923023,0,0,0.4,-0.003790995,0.054646888,0.18741271,-0.003137605,0.00423294,0,0,0,0,0,0,0
0.798252583,10.82647413,7.47815569,6.62660539,-6.122072269,0,0,0.4,-0.003555857,0.054553604,0.188197162,-0.003343042,0.004251331,0,0,0,0,0,0,0
0.808697939,10.83411155,7.408261376,6.472509052,-6.136433712,0,0,0.4,-0.002835622,0.053899044,0.191202721,-0.003436602,0.004119813,0,0,0,0,0,0,0
0.819164276,10.80787799,7.448617771,6.527875044,-6.152893895,0,0,0.4,-0.003020211,0.054180129,0.190285386,-0.00354795,0.003997347,0,0,0,0,0,0,0
0.829621077,10.78757074,7.462405476,6.545118504,-6.159894205,0,0,0.4,-0.003036104,0.054214304,0.190239737,-0.003843901,0.003810186,0,0,0,0,0,0,0
0.839941978,10.78948017,7.350281419,6.339779192,-6.149370611,0,0,0.4,-0.00212339,0.053131924,0.194529065,-0.004310396,0.00345442,0,0,0,0,0,0,0
0.850358725,10.75310922,7.470850793,6.537622695,-6.181255057,0,0,0.4,-0.003094081,0.054154922,0.19022068,-0.004885842,0.003289941,0,0,0,0,0,0,0
0.861252069,10.65285353,7.965296767,7.41561651,-6.227895948,0,0,0.4,-0.007455182,0.058391396,0.1720872,-0.005588918,0.003516771,0,0,0,0,0,0,0
0.87157917,10.77249035,7.398851756,6.350763403,-6.203351153,0,0,0.4,-0.002497399,0.053319252,0.193156302,-0.004951634,0.003170342,0,0,0,0,0,0,0
0.881984234,10.78490768,7.480469617,6.440382532,-6.247494091,0,0,0.4,-0.003041669,0.053970615,0.190502504,-0.004554641,0.003492881,0,0,0,0,0,0,0
0.892395258,10.78833089,7.507357424,6.445114216,-6.272100483,0,0,0.4,-0.003097759,0.054092331,0.190086934,-0.004000477,0.003728235,0,0,0,0,0,0,0
0.902750492,10.78596446,7.482814025,6.386532633,-6.269365992,0,0,0.4,-0.002734962,0.053714762,0.19170081,-0.00358399,0.003800904,0,0,0,0,0,0,0
0.913166046,10.76523735,7.580423679,6.558857519,-6.277013858,0,0,0.4,-0.003346461,0.054410461,0.188955651,-0.003405971,0.003895593,0,0,0,0,0,0,0
0.923489571,10.774326,7.527391775,6.476990663,-6.253089242,0,0,0.4,-0.002756756,0.053750623,0.191707187,-0.003264371,0.003872726,0,0,0,0,0,0,0
0.933832407,10.76425557,7.587127651,6.597629371,-6.245401666,0,0,0.4,-0.003079798,0.054105794,0.19033181,-0.003280986,0.003894144,0,0,0,0,0,0,0
0.944899321,10.63865627,8.34201513,7.995490906,-6.245801542,0,0,0.4,-0.00982464,0.060471592,0.163087084,-0.003785913,0.004360096,0,0,0,0,0,0,0
0.955181599,10.80612509,7.537364293,6.488215307,-6.249826297,0,0,0.4,-0.002387394,0.053436242,0.193312607,-0.003474893,0.003918148,0,0,0,0,0,0,0
0.965714455,10.76123519,7.775898442,6.890022947,-6.298224546,0,0,0.4,-0.004201506,0.055505149,0.185054862,-0.00371373,0.004010086,0,0,0,0,0,0,0
0.976434231,10.72019383,7.946226778,7.183933682,-6.330118392,0,0,0.4,-0.005678761,0.056960163,0.178900124,-0.004661422,0.003669079,0,0,0,0,0,0,0
0.986863852,10.77712565,7.626115573,6.577266553,-6.331656062,0,0,0.4,-0.003076764,0.054102834,0.190390995,-0.005585835,0.002829062,0,0,0,0,0,0,0
0.997767448,10.68695746,8.082715693,7.367933833,-6.389178139,0,0,0.4,-0.007055391,0.057945916,0.173881997,-0.005917674,0.003183425,0,0,0,0,0,0,0
1.008298159,10.74967659,7.704367502,6.653991549,-6.358427209,0,0,0.4,-0.003590247,0.054401635,0.188654654,-0.004501002,0.003346457,0,0,0,0,0,0,0
1.018704414,10.7706551,7.584747885,6.438553419,-6.325953618,0,0,0.4,-0.002478794,0.05310624,0.193863999,-0.003726814,0.003580288,0,0,0,0,0,0,0
1.02916503,10.75918758,7.660628254,6.579405319,-6.321978878,0,0,0.4,-0.00290767,0.053585106,0.191947564,-0.003354736,0.003815096,0,0,0,0,0,0,0
1.039503336,10.77972906,7.576558932,6.442629164,-6.291283248,0,0,0.4,-0.002080674,0.052644386,0.195801869,-0.003100917,0.003862542,0,0,0,0,0,0,0
1.049846888,10.76071087,7.626774897,6.537926522,-6.289327596,0,0,0.4,-0.002320781,0.052936811,0.19462997,-0.003245093,0.00379104,0,0,0,0,0,0,0
1.060969591,10.64629352,8.440554911,8.021200337,-6.305899415,0,0,0.4,-0.009431531,0.059817297,0.165317421,-0.004448008,0.004123209,0,0,0,0,0,0,0
1.071371794,10.86805713,7.738905918,6.650125914,-6.327414123,0,0,0.4,-0.002866326,0.053527959,0.192510713,-0.004513228,0.003677646,0,0,0,0,0,0,0
1.081790447,10.92833137,7.777381348,6.637136508,-6.35185219,0,0,0.4,-0.002934793,0.053603924,0.192667802,-0.00466995,0.00381971,0,0,0,0,0,0,0
1.092181444,11.01953529,7.789761499,6.557624853,-6.380490534,0,0,0.4,-0.002794927,0.053447057,0.19400281,-0.005079865,0.003906516,0,0,0,0,0,0,0
1.102664948,11.04961604,7.923881757,6.669956298,-6.444777625,0,0,0.4,-0.003701355,0.054401776,0.190802997,-0.006100794,0.003651096,0,0,0,0,0,0,0
1.113320112,10.9748131,8.12618075,6.894318444,-6.5291031,0,0,0.4,-0.005308391,0.055953334,0.18470797,-0.007114529,0.003165869,0,0,0,0,0,0,0
1.123626709,10.96521969,7.790988484,6.215310733,-6.514634366,0,0,0.4,-0.002584644,0.05288319,0.197384592,-0.006185745,0.00286082,0,0,0,0,0,0,0
1.13398385,10.89632012,7.885159508,6.296050698,-6.550804548,0,0,0.4,-0.003098379,0.053439343,0.195369397,-0.005004908,0.003344667,0,0,0,0,0,0,0
1.144630432,10.79722412,8.231072104,6.829784221,-6.618705268,0,0,0.4,-0.005614764,0.056136033,0.184523617,-0.004457671,0.003792129,0,0,0,0,0,0,0
1.155105829,10.73027663,8.07022231,6.555489986,-6.594765071,0,0,0.4,-0.004186898,0.054691322,0.190458668,-0.003698291,0.003694524,0,0,0,0,0,0,0
1.165549755,10.6816822,8.045279121,6.535965267,-6.584783813,0,0,0.4,-0.003903209,0.054425173,0.19137714,-0.003345532,0.003682959,0,0,0,0,0,0,0
1.175962925,10.78378442,8.027560167,6.509454025,-6.581646394,0,0,0.4,-0.003664048,0.054206943,0.192365008,-0.003702381,0.00384073,0,0,0,0,0,0,0
1.186378241,10.8449473,8.057764943,6.541139464,-6.588840982,0,0,0.4,-0.003726662,0.054325482,0.192171076,-0.003844625,0.003993405,0,0,0,0,0,0,0
1.196984529,10.78504464,8.288830199,6.918074993,-6.619285156,0,0,0.4,-0.005361819,0.056095922,0.185151257,-0.003683828,0.004140363,0,0,0,0,0,0,0
1.207368374,10.80392564,8.07246081,6.546748031,-6.587091663,0,0,0.4,-0.003482076,0.05415455,0.19325418,-0.003534951,0.003943265,0,0,0,0,0,0,0
1.217771053,10.78516947,8.108573105,6.603264134,-6.594206743,0,0,0.4,-0.003633035,0.054357547,0.192531989,-0.003665291,0.003854914,0,0,0,0,0,0,0
1.228454113,10.72430827,8.420618768,7.132672705,-6.631180368,0,0,0.4,-0.006020053,0.05685573,0.182318908,-0.003830254,0.003978856,0,0,0,0,0,0,0
1.238970041,10.75374423,8.249130474,6.836192512,-6.614336575,0,0,0.4,-0.004468766,0.055318599,0.188725723,-0.003665613,0.003865136,0,0,0,0,0,0,0
1.249287605,10.85035081,8.047464886,6.478141255,-6.589317989,0,0,0.4,-0.002784089,0.053486319,0.196270831,-0.003926969,0.003751202,0,0,0,0,0,0,0
1.259794235,10.85240616,8.265999941,6.814430057,-6.632821669,0,0,0.4,-0.004316974,0.055193311,0.189648779,-0.004299649,0.003877389,0,0,0,0,0,0,0
1.270334721,10.8012801,8.323678238,6.887810536,-6.645824562,0,0,0.4,-0.00460965,0.055516452,0.188449324,-0.00408448,0.003844279,0,0,0,0,0,0,0
1.281062126,10.73874414,8.530014088,7.232541563,-6.666443416,0,0,0.4,-0.006172541,0.057093246,0.181945809,-0.004067316,0.003896084,0,0,0,0,0,0,0
1.291561365,10.76232267,8.2830158,6.805787308,-6.646023678,0,0,0.4,-0.004047183,0.054934729,0.190787683,-0.003902044,0.003682368,0,0,0,0,0,0,0
1.302043438,10.81334931,8.260952768,6.755608581,-6.649862385,0,0,0.4,-0.003798578,0.054648254,0.191977323,-0.004336246,0.003638845,0,0,0,0,0,0,0
1.312716007,10.87307828,8.468574733,7.063225069,-6.690546604,0,0,0.4,-0.005341197,0.056236843,0.185740477,-0.005066062,0.003814194,0,0,0,0,0,0,0
1.323254108,10.94593385,8.33980645,6.767878681,-6.701409385,0,0,0.4,-0.004126877,0.054958928,0.191336007,-0.005174263,0.003743149,0,0,0,0,0,0,0
1.333848476,10.89734212,8.41443546,6.82729009,-6.730504056,0,0,0.4,-0.00451724,0.055362522,0.189976446,-0.004913625,0.003754641,0,0,0,0,0,0,0
1.344750643,10.74805766,8.747902818,7.362457059,-6.767243698,0,0,0.4,-0.007080715,0.057890116,0.179532968,-0.004494268,0.003891612,0,0,0,0,0,0,0
1.355315924,10.74527113,8.375424414,6.726597542,-6.735125298,0,0,0.4,-0.003928234,0.054737526,0.192449835,-0.003791591,0.003638217,0,0,0,0,0,0,0
1.365715027,10.7412396,8.192204613,6.437018359,-6.701319482,0,0,0.4,-0.002479692,0.053113768,0.198728506,-0.003433042,0.003531901,0,0,0,0,0,0,0
1.376310587,10.74981958,8.405023067,6.798109884,-6.739697638,0,0,0.4,-0.004015088,0.054849349,0.191751251,-0.003850825,0.003660078,0,0,0,0,0,0,0
1.38676405,10.79674567,8.266193047,6.543328939,-6.740030596,0,0,0.4,-0.002984325,0.053637869,0.196421823,-0.004784145,0.003159678,0,0,0,0,0,0,0
1.39789629,10.60920907,8.976958911,7.719312312,-6.838972895,0,0,0.4,-0.008977238,0.059374265,0.17187827,-0.006592982,0.00293288,0,0,0,0,0,0,0
1.408498049,10.68769364,8.398264594,6.674470633,-6.826985203,0,0,0.4,-0.004102339,0.054569656,0.191590672,-0.005629359,0.002566243,0,0,0,0,0,0,0
1.418964148,10.71595216,8.25199261,6.412381997,-6.802796839,0,0,0.4,-0.002895663,0.05316983,0.196900417,-0.004344209,0.003006493,0,0,0,0,0,0,0
1.429516792,10.70537109,8.351223586,6.580890123,-6.820897068,0,0,0.4,-0.003534585,0.05390321,0.193768117,-0.00384153,0.003360306,0,0,0,0,0,0,0
1.439917088,10.69663267,8.208840985,6.360237835,-6.796093875,0,0,0.4,-0.002399957,0.052680132,0.198447033,-0.00321005,0.003453792,0,0,0,0,0,0,0
1.450301409,10.65229638,8.198764374,6.360721643,-6.817648486,0,0,0.4,-0.002280593,0.052792826,0.19781101,-0.002682382,0.003757325,0,0,0,0,0,0,0
1.460977554,10.56280281,8.476484529,6.843666468,-6.922897436,0,0,0.4,-0.004565648,0.055643707,0.186025386,-0.0035811,0.003763956,0,0,0,0,0,0,0
1.47134304,10.61140594,8.126772682,6.251801423,-6.91067401,0,0,0.4,-0.002125953,0.053056126,0.195934955,-0.004391752,0.003064608,0,0,0,0,0,0,0
1.481820345,10.61060543,8.242936653,6.42609926,-6.979371595,0,0,0.4,-0.0030202,0.054220582,0.190828204,-0.003946796,0.003341522,0,0,0,0,0,0,0
1.492323637,10.62371474,8.296374856,6.533051315,-6.994109265,0,0,0.4,-0.00330944,0.054644371,0.188848453,-0.002836461,0.003828884,0,0,0,0,0,0,0
1.502836704,10.62700685,8.337156763,6.668330983,-6.973556367,0,0,0.4,-0.00349527,0.054874356,0.187689637,-0.002246854,0.003988211,0,0,0,0,0,0,0
1.513564825,10.5998534,8.582035944,7.189746894,-6.9606269,0,0,0.4,-0.005378636,0.056826242,0.179421952,-0.002079052,0.004133081,0,0,0,0,0,0,0
1.524189711,10.64500624,8.489399096,7.124677487,-6.891109154,0,0,0.4,-0.004460965,0.055830976,0.183436325,-0.002076999,0.004090663,0,0,0,0,0,0,0
1.534622669,10.70736309,8.306801148,6.887009858,-6.813084381,0,0,0.4,-0.00283736,0.054002592,0.190827511,-0.002209014,0.003981679,0,0,0,0,0,0,0
1.545440674,10.65575939,8.696884834,7.686284952,-6.786850605,0,0,0.4,-0.006058651,0.05727788,0.177148827,-0.002755087,0.004081341,0,0,0,0,0,0,0
1.555959702,10.73440563,8.400760341,7.187280349,-6.742640432,0,0,0.4,-0.003399855,0.054489906,0.188705465,-0.003110525,0.00382568,0,0,0,0,0,0,0
1.566532612,10.74152851,8.456736996,7.327271317,-6.719138434,0,0,0.4,-0.003764755,0.054823674,0.187288389,-0.003396675,0.003814331,0,0,0,0,0,0,0
1.577150583,10.74641158,8.511157827,7.451983497,-6.699781407,0,0,0.4,-0.004101321,0.05513681,0.185984237,-0.003511487,0.003851171,0,0,0,0,0,0,0
1.587630987,10.78158319,8.391502147,7.2358154,-6.683679271,0,0,0.4,-0.002969133,0.053883823,0.191127269,-0.003548559,0.003767421,0,0,0,0,0,0,0
1.598372221,10.74139584,8.6594258,7.752830926,-6.67475594,0,0,0.4,-0.005150027,0.056156073,0.181769533,-0.003827655,0.003913047,0,0,0,0,0,0,0
1.609140873,10.7611004,8.692437362,7.793990836,-6.685134173,0,0,0.4,-0.005285489,0.056329771,0.181181894,-0.003900646,0.004039768,0,0,0,0,0,0,0
1.619738817,10.82512961,8.52339977,7.411816184,-6.727423891,0,0,0.4,-0.003615163,0.054737542,0.188101644,-0.003827724,0.004096076,0,0,0,0,0,0,0
1.630477905,10.79858331,8.654386387,7.604346651,-6.768708247,0,0,0.4,-0.004592327,0.055868016,0.183679111,-0.004137464,0.004056517,0,0,0,0,0,0,0
1.640930653,10.82199776,8.374671827,7.035882521,-6.785838129,0,0,0.4,-0.002172698,0.053256153,0.194338283,-0.004226585,0.003553015,0,0,0,0,0,0,0
1.651357651,10.81762617,8.351429641,6.958655109,-6.811432534,0,0,0.4,-0.00197244,0.053060663,0.195101439,-0.004527815,0.003459553,0,0,0,0,0,0,0
1.661799192,10.81709661,8.367480811,6.949671292,-6.852063886,0,0,0.4,-0.00214476,0.053376018,0.193887418,-0.004888633,0.003556977,0,0,0,0,0,0,0
1.67209506,10.82923457,8.248611573,6.697561532,-6.861772058,0,0,0.4,-0.001224783,0.052354488,0.197959856,-0.004601026,0.003502092,0,0,0,0,0,0,0
1.68245244,10.79546834,8.357043647,6.875826858,-6.8848067,0,0,0.4,-0.001967671,0.053267482,0.194327036,-0.004172608,0.003567371,0,0,0,0,0,0,0
1.692929983,10.75716038,8.532377513,7.196997507,-6.897325435,0,0,0.4,-0.003254916,0.054702143,0.188504742,-0.003942559,0.003663508,0,0,0,0,0,0,0
1.703368902,10.7546779,8.548625783,7.234756801,-6.883337839,0,0,0.4,-0.003246112,0.05462412,0.188744313,-0.003717554,0.003662453,0,0,0,0,0,0,0
1.714126587,10.70373414,8.90192243,7.904534093,-6.879527935,0,0,0.4,-0.006175521,0.057580462,0.176413922,-0.003828651,0.003926292,0,0,0,0,0,0,0
1.724691391,10.76073239,8.72379237,7.530972876,-6.901365288,0,0,0.4,-0.004390265,0.055831586,0.183830481,-0.003809519,0.003873077,0,0,0,0,0,0,0
1.735185146,10.76650058,8.701084581,7.334978591,-6.923301018,0,0,0.4,-0.003485571,0.055053356,0.187012025,-0.003400493,0.003591534,0,0,0,0,0,0,0
1.745928288,10.75575759,9.074673201,7.69162225,-6.952562933,0,0,0.4,-0.005062377,0.057095307,0.178569607,-0.003044934,0.003404579,0,0,0,0,0,0,0
1.756462336,10.94087819,8.96020072,7.170566603,-6.975934881,0,0,0.4,-0.002791619,0.055007492,0.187478348,-0.003844994,0.003432609,0,0,0,0,0,0,0
1.766956091,11.0346962,8.972409452,7.006639848,-6.998179842,0,0,0.4,-0.002263815,0.054470559,0.190188786,-0.004932433,0.003639096,0,0,0,0,0,0,0
1.777975798,10.88977089,9.566794162,7.92657891,-7.035845279,0,0,0.4,-0.006616476,0.05897313,0.172149521,-0.005210557,0.00424801,0,0,0,0,0,0,0
1.788459778,10.93526159,8.952836227,6.863422408,-7.046892342,0,0,0.4,-0.001924526,0.053986686,0.193077799,-0.004610982,0.004034968,0,0,0,0,0,0,0
1.799156904,10.97283147,9.144282487,7.175033235,-7.108101756,0,0,0.4,-0.003533595,0.055707961,0.186864888,-0.005418653,0.004230332,0,0,0,0,0,0,0
1.809846878,10.98229995,9.107932719,7.124267022,-7.134694687,0,0,0.4,-0.003531526,0.055507428,0.188257738,-0.005717461,0.00406528,0,0,0,0,0,0,0
1.82032752,10.93977474,8.864461902,6.758074454,-7.115121171,0,0,0.4,-0.002031651,0.053550576,0.196355716,-0.005273071,0.00370553,0,0,0,0,0,0,0
1.831337452,10.79720117,9.407141663,7.748552475,-7.156980196,0,0,0.4,-0.006555915,0.058104566,0.17798404,-0.005567281,0.003975952,0,0,0,0,0,0,0
1.842013121,10.77064294,9.01975595,7.149682315,-7.134738579,0,0,0.4,-0.003698751,0.055026188,0.190540786,-0.004656303,0.003629332,0,0,0,0,0,0,0
1.852636337,10.69205108,8.912232514,7.029614439,-7.141482995,0,0,0.4,-0.003137648,0.054416196,0.192755567,-0.004052306,0.003698717,0,0,0,0,0,0,0
1.863181353,10.65162148,8.769314565,6.84133765,-7.159295734,0,0,0.4,-0.002384498,0.053710477,0.195263964,-0.004054078,0.00372386,0,0,0,0,0,0,0
1.873559713,10.6386266,8.56323997,6.548386393,-7.148093312,0,0,0.4,-0.001170201,0.052332935,0.200165464,-0.004022293,0.003372677,0,0,0,0,0,0,0
1.883885145,10.61070662,8.513059344,6.521979532,-7.147435731,0,0,0.4,-0.001013817,0.052093721,0.200382272,-0.003993818,0.002964501,0,0,0,0,0,0,0
1.894583941,10.50679121,8.909181004,7.278692617,-7.210466178,0,0,0.4,-0.004210665,0.055680874,0.185181836,-0.004312072,0.002893073,0,0,0,0,0,0,0
1.904957533,10.59785088,8.621520876,6.806891835,-7.156627292,0,0,0.4,-0.001975969,0.052988571,0.195220773,-0.003969593,0.002698662,0,0,0,0,0,0,0
1.915554285,10.59238803,8.874402978,7.308877278,-7.173124555,0,0,0.4,-0.003998346,0.055123571,0.185896072,-0.004100877,0.002930704,0,0,0,0,0,0,0
1.926735878,10.51409284,9.471231956,8.48722151,-7.13686207,0,0,0.4,-0.009463274,0.060101559,0.163754542,-0.004569057,0.003392685,0,0,0,0,0,0,0
1.937484741,10.6535406,9.026825033,7.65850363,-7.140616421,0,0,0.4,-0.00519041,0.056094226,0.180931196,-0.003983449,0.003359107,0,0,0,0,0,0,0
1.948186398,10.72984815,8.962187861,7.543796378,-7.124930353,0,0,0.4,-0.004435558,0.055299127,0.184231084,-0.003405348,0.003740825,0,0,0,0,0,0,0
1.959016085,10.79455558,9.07512892,7.719281846,-7.14525585,0,0,0.4,-0.005104801,0.05614101,0.181120052,-0.002968858,0.004383526,0,0,0,0,0,0,0
1.969541073,10.89617789,8.772578275,7.091476455,-7.162685249,0,0,0.4,-0.002278902,0.053329225,0.193314598,-0.002669232,0.004510594,0,0,0,0,0,0,0
1.980063915,10.88100585,8.781947943,7.073293615,-7.183998579,0,0,0.4,-0.002090924,0.053304398,0.193913459,-0.002697997,0.00437842,0,0,0,0,0,0,0
1.99037981,10.87733231,8.617169462,6.776088653,-7.15403134,0,0,0.4,-0.000666198,0.051637526,0.20076798,-0.002757111,0.004002949,0,0,0,0,0,0,0
2.000730038,0,0,0,0,0,0,0,0,0,0,0,0,0,0,0,0,0,0,0
2.011290312,8.738290163,6.480744729,5.816344128,-5.606822773,0,0,0,-0.003157587,0.054576059,-0.210730997,-0.003318286,0.003822848,0,0,0,0,0,0,0
2.021637201,8.758457109,6.333316221,5.596820171,-5.542059017,0,0,0,-0.001869904,0.053035736,-0.204599474,-0.003397722,0.00362909,0,0,0,0,0,0,0
2.032025099,8.73831988,6.437015855,5.788304199,-5.545719636,0,0,0,-0.002542857,0.053744615,-0.207507675,-0.00357838,0.003609356,0,0,0,0,0,0,0
2.04253006,8.717052367,6.606275917,6.079910839,-5.573162295,0,0,0,-0.003802094,0.055094793,-0.213048144,-0.003848899,0.003695055,0,0,0,0,0,0,0
2.052983046,8.734533507,6.581352486,6.020711329,-5.58592875,0,0,0,-0.003546518,0.054837367,-0.212037049,-0.004207119,0.003645062,0,0,0,0,0,0,0
2.063853264,8.649550873,7.009327365,6.736840869,-5.67233434,0,0,0,-0.00732019,0.058535134,-0.227760011,-0.005107607,0.003759588,0,0,0,0,0,0,0
2.074275732,8.724431418,6.539003261,5.89630254,-5.625841386,0,0,0,-0.003228944,0.054421386,-0.210698489,-0.005037075,0.003261929,0,0,0,0,0,0,0
2.084714174,8.723931258,6.548302651,5.887903321,-5.638173695,0,0,0,-0.003273011,0.054393035,-0.210798261,-0.00490508,0.003292401,0,0,0,0,0,0,0
2.095442057,8.675761333,6.848051603,6.381746366,-5.692337778,0,0,0,-0.005690387,0.056826244,-0.2210673,-0.004664867,0.003631083,0,0,0,0,0,0,0
2.105760098,8.776174475,6.441759994,5.675020656,-5.609587126,0,0,0,-0.002186339,0.053089919,-0.205657051,-0.003887008,0.003629397,0,0,0,0,0,0,0
2.116107702,8.803548196,6.485346387,5.716377149,-5.636163437,0,0,0,-0.002362938,0.053387202,-0.206633592,-0.003627221,0.00394729,0,0,0,0,0,0,0
2.126792669,8.742165049,6.849410228,6.301805818,-5.729036396,0,0,0,-0.005169448,0.056492162,-0.219124665,-0.00369622,0.004213115,0,0,0,0,0,0,0
2.137117147,8.782818103,6.506096061,5.715939018,-5.655880049,0,0,0,-0.002212246,0.053336336,-0.206086533,-0.003468341,0.003860381,0,0,0,0,0,0,0
2.147549152,8.746436793,6.642098567,5.945060202,-5.681051876,0,0,0,-0.003136166,0.054380393,-0.210243784,-0.003555162,0.003837115,0,0,0,0,0,0,0
2.157955408,8.738030201,6.64754439,5.962553819,-5.671054666,0,0,0,-0.003064198,0.054264106,-0.209793161,-0.00371498,0.003731998,0,0,0,0,0,0,0
2.168270111,8.745714743,6.586839741,5.867440635,-5.648014618,0,0,0,-0.002500023,0.053571159,-0.207073288,-0.003911527,0.003578661,0,0,0,0,0,0,0
2.178649902,8.787300472,6.689539687,6.029360836,-5.667940189,0,0,0,-0.003225875,0.05432199,-0.210058514,-0.004384897,0.003627675,0,0,0,0,0,0,0
2.188983679,8.942498452,6.68705519,5.968428602,-5.680083133,0,0,0,-0.003081746,0.054091596,-0.208717336,-0.005204816,0.003711111,0,0,0,0,0,0,0
2.199286461,9.022923109,6.708631446,5.913068002,-5.705243225,0,0,0,-0.003063802,0.054004557,-0.207764377,-0.00560767,0.003761044,0,0,0,0,0,0,0
2.20998311,8.930337533,7.170104346,6.597848929,-5.800763964,0,0,0,-0.006674097,0.057627242,-0.22225429,-0.005816404,0.004085294,0,0,0,0,0,0,0
2.220277548,8.999619247,6.778965473,5.849029805,-5.757852525,0,0,0,-0.003223289,0.054039767,-0.206852854,-0.005706303,0.003673951,0,0,0,0,0,0,0
2.230704546,9.024489221,6.947477581,6.018071026,-5.82042243,0,0,0,-0.004381252,0.055198876,-0.210922258,-0.006294647,0.003751244,0,0,0,0,0,0,0
2.241052151,8.980577562,6.898559724,5.839217195,-5.829331682,0,0,0,-0.003792378,0.054486783,-0.207527268,-0.005858778,0.003641007,0,0,0,0,0,0,0
2.251380444,8.87550909,6.913390384,5.794256789,-5.842790891,0,0,0,-0.00369982,0.054341496,-0.206667523,-0.004968198,0.003626867,0,0,0,0,0,0,0
2.261808395,8.841804131,7.051619575,5.959047786,-5.887686794,0,0,0,-0.004591639,0.055287342,-0.210236336,-0.004719646,0.003750279,0,0,0,0,0,0,0
2.272373915,8.800494719,7.22349364,6.185782965,-5.936425388,0,0,0,-0.005782838,0.056511117,-0.215044786,-0.00455486,0.003859984,0,0,0,0,0,0,0
2.282755852,8.757822554,7.032977983,5.8604894,-5.902928818,0,0,0,-0.004104296,0.054807899,-0.208029983,-0.003863585,0.003698617,0,0,0,0,0,0,0
2.293278456,8.745764511,7.186976355,6.089035706,-5.945232424,0,0,0,-0.005195155,0.055968979,-0.212707783,-0.004099865,0.003772903,0,0,0,0,0,0,0
2.303756952,8.821817564,7.138663092,5.981417042,-5.949200878,0,0,0,-0.004717698,0.055472212,-0.210485661,-0.004651002,0.003740646,0,0,0,0,0,0,0
2.314243555,8.798950164,7.148825975,5.963178717,-5.963723724,0,0,0,-0.004681284,0.055420466,-0.210170228,-0.004657455,0.003661887,0,0,0,0,0,0,0
2.32472086,8.721173609,7.137639544,5.929126596,-5.968802671,0,0,0,-0.004489405,0.055213794,-0.209443139,-0.004234345,0.00353953,0,0,0,0,0,0,0
2.335194588,8.731712854,7.131315925,5.907595336,-5.975807233,0,0,0,-0.004365713,0.055078634,-0.208984866,-0.004265572,0.003539068,0,0,0,0,0,0,0
2.345684528,8.797033282,7.152145163,5.913768862,-5.992522977,0,0,0,-0.004443511,0.055148133,-0.209180682,-0.00463165,0.003618471,0,0,0,0,0,0,0
2.356180429,8.837462401,7.169688645,5.899247304,-6.010134234,0,0,0,-0.004450444,0.055147846,-0.208973169,-0.004740091,0.003694039,0,0,0,0,0,0,0
2.366574049,8.813807701,7.075916332,5.720225582,-5.994168026,0,0,0,-0.003581049,0.054215502,-0.205093933,-0.004212183,0.003660367,0,0,0,0,0,0,0
2.377349138,8.652423108,7.504032988,6.387426277,-6.086397178,0,0,0,-0.006788002,0.05752708,-0.218738401,-0.003776855,0.003856781,0,0,0,0,0,0,0
2.387831688,8.713887239,7.180407717,5.879211992,-6.023178625,0,0,0,-0.004097669,0.054841872,-0.207724427,-0.003577229,0.003697782,0,0,0,0,0,0,0
2.398419857,8.763705875,7.289453921,6.035295764,-6.057380258,0,0,0,-0.004831499,0.055641566,-0.210844397,-0.004055363,0.003792319,0,0,0,0,0,0,0
2.409050226,8.738037744,7.335180953,6.09113711,-6.0730141,0,0,0,-0.005048333,0.055886817,-0.211774179,-0.003966162,0.003798673,0,0,0,0,0,0,0
2.419498682,8.69989685,7.138791768,5.789737455,-6.024150364,0,0,0,-0.003417835,0.054164835,-0.204943831,-0.003407881,0.003643863,0,0,0,0,0,0,0
2.430809498,8.559444953,8.061421374,7.297338892,-6.146840086,0,0,0,-0.011131238,0.061331613,-0.235480044,-0.004098293,0.004112005,0,0,0,0,0,0,0
2.441428423,8.777686774,7.267398135,5.983485472,-6.06652294,0,0,0,-0.004204658,0.055055388,-0.208495303,-0.00417898,0.003717637,0,0,0,0,0,0,0
2.451840878,8.805864561,7.017900848,5.575902466,-6.008740052,0,0,0,-0.00227342,0.052871636,-0.199787938,-0.004078809,0.00349526,0,0,0,0,0,0,0
2.462324858,8.662172578,7.087122819,5.69196608,-6.031060763,0,0,0,-0.00271626,0.053386938,-0.20213886,-0.003691544,0.003323403,0,0,0,0,0,0,0
2.47275877,8.545305761,7.037682205,5.652147551,-6.021499242,0,0,0,-0.002371844,0.053011773,-0.201311622,-0.00316311,0.003165256,0,0,0,0,0,0,0
2.483810186,8.356086552,7.676834314,6.731924791,-6.164553182,0,0,0,-0.007544991,0.058436001,-0.22435074,-0.003189729,0.00344408,0,0,0,0,0,0,0
2.494504452,8.421192776,7.26576566,6.114390476,-6.108238598,0,0,0,-0.004233836,0.055260251,-0.211859716,-0.00298862,0.003256325,0,0,0,0,0,0,0
2.505016088,8.467926427,7.042629498,5.820398138,-6.054796043,0,0,0,-0.002630776,0.053489886,-0.205558949,-0.003080154,0.003089938,0,0,0,0,0,0,0
2.515425205,8.518306922,6.927966456,5.69903624,-6.017561637,0,0,0,-0.001867808,0.05255856,-0.202634318,-0.003197739,0.003035613,0,0,0,0,0,0,0
2.52594924,8.528080309,7.053269246,5.960534618,-6.044414731,0,0,0,-0.002876487,0.053691641,-0.207854974,-0.003490704,0.00312469,0,0,0,0,0,0,0
2.536299944,8.601302435,6.905064489,5.760680045,-5.996102071,0,0,0,-0.001799878,0.052362555,-0.203088963,-0.003604396,0.003100679,0,0,0,0,0,0,0
2.546741009,8.617889242,7.03013585,6.000479552,-6.022458819,0,0,0,-0.002762851,0.053431219,-0.207823049,-0.003860068,0.003227668,0,0,0,0,0,0,0
2.557059288,8.673172549,6.951511344,5.888330515,-5.996287304,0,0,0,-0.002141204,0.052645529,-0.204969825,-0.003881297,0.003260808,0,0,0,0,0,0,0
2.567422628,8.689186955,7.044849953,6.055775401,-6.014370744,0,0,0,-0.002807173,0.053371409,-0.208115317,-0.003952303,0.003390781,0,0,0,0,0,0,0
2.578231573,8.622790512,7.532909858,6.912181297,-6.085240553,0,0,0,-0.006874407,0.057504131,-0.22564508,-0.004323122,0.003753772,0,0,0,0,0,0,0
2.58873558,8.697989572,7.242875162,6.394570048,-6.050019238,0,0,0,-0.004236769,0.054870685,-0.214484506,-0.004150425,0.003626073,0,0,0,0,0,0,0
2.599298,8.701992356,7.306873643,6.496791375,-6.061535901,0,0,0,-0.004670663,0.055300592,-0.216305234,-0.004213929,0.00369507,0,0,0,0,0,0,0
2.610228539,8.646430899,7.672590737,7.136559635,-6.097305007,0,0,0,-0.007828404,0.058296542,-0.229240581,-0.004471918,0.003942022,0,0,0,0,0,0,0
2.620748281,8.733239208,7.240984118,6.350129716,-6.059156284,0,0,0,-0.003883494,0.054446612,-0.21270662,-0.004148683,0.003667877,0,0,0,0,0,0,0
2.631472588,8.70415174,7.425069636,6.654966312,-6.092812443,0,0,0,-0.005318621,0.055930792,-0.218894909,-0.004268557,0.00379074,0,0,0,0,0,0,0
2.642394304,8.674841422,7.600680411,6.948794774,-6.116747845,0,0,0,-0.006750468,0.057310506,-0.224790676,-0.004366892,0.003894916,0,0,0,0,0,0,0
2.652946949,8.747542427,7.210954503,6.241623032,-6.073029791,0,0,0,-0.003286573,0.053793346,-0.209906249,-0.004057754,0.003622624,0,0,0,0,0,0,0
2.663569212,8.73857826,7.267210924,6.320445,-6.090963651,0,0,0,-0.003625815,0.054170845,-0.211434215,-0.004076345,0.003638011,0,0,0,0,0,0,0
2.674106359,8.7534145,7.188438432,6.167385913,-6.08187055,0,0,0,-0.002887283,0.053349452,-0.208049653,-0.004001583,0.003575817,0,0,0,0,0,0,0
2.684606552,8.743594082,7.172427008,6.119762406,-6.085571729,0,0,0,-0.002649885,0.053066777,-0.206944053,-0.004011376,0.00348684,0,0,0,0,0,0,0
2.69528389,8.688812441,7.380875572,6.454172529,-6.131187495,0,0,0,-0.004157767,0.054716742,-0.213828519,-0.004023869,0.003563522,0,0,0,0,0,0,0
2.706007481,8.687023753,7.464795973,6.582135441,-6.139714212,0,0,0,-0.004618327,0.055207125,-0.215883038,-0.003573804,0.003789307,0,0,0,0,0,0,0
2.7164433,8.760812337,7.216227357,6.148969271,-6.0833448,0,0,0,-0.002373249,0.052787364,-0.205772381,-0.00295768,0.003894557,0,0,0,0,0,0,0
2.727214813,8.726401472,7.579037411,6.778162302,-6.138044716,0,0,0,-0.005095057,0.055841073,-0.21807635,-0.002937548,0.004284097,0,0,0,0,0,0,0
2.737701893,8.800449625,7.317185351,6.299172222,-6.117063484,0,0,0,-0.002730271,0.053489837,-0.207921114,-0.002846988,0.004274013,0,0,0,0,0,0,0
2.748147249,8.803987205,7.298690018,6.25086061,-6.128661324,0,0,0,-0.002404396,0.05328258,-0.2066937,-0.002919104,0.004232337,0,0,0,0,0,0,0
2.758588076,8.798154228,7.326416988,6.283273245,-6.14854575,0,0,0,-0.002448891,0.05348697,-0.207158444,-0.00300983,0.004195907,0,0,0,0,0,0,0
2.769021749,8.803847874,7.35351833,6.301967393,-6.178944059,0,0,0,-0.002494816,0.053719064,-0.207716495,-0.003118874,0.004206396,0,0,0,0,0,0,0
2.779537201,8.771272077,7.47077545,6.484885471,-6.219255903,0,0,0,-0.003281462,0.054730458,-0.211514482,-0.003328081,0.004142247,0,0,0,0,0,0,0
2.789959431,8.755995119,7.41356124,6.385601579,-6.209783617,0,0,0,-0.002701308,0.054118066,-0.208912111,-0.003471578,0.003901044,0,0,0,0,0,0,0
2.800532818,8.706406531,7.59911615,6.724845043,-6.226831642,0,0,0,-0.004115277,0.055628044,-0.215036384,-0.003739214,0.00386161,0,0,0,0,0,0,0
2.811048508,8.703003741,7.568527629,6.688405592,-6.205422522,0,0,0,-0.003758761,0.055186737,-0.213280216,-0.003832392,0.003744601,0,0,0,0,0,0,0
2.821535587,8.700575944,7.561700036,6.694498168,-6.185200658,0,0,0,-0.003605973,0.054944693,-0.21238226,-0.003898181,0.003680643,0,0,0,0,0,0,0
2.832063198,8.690213815,7.620908901,6.81694978,-6.173441559,0,0,0,-0.00401193,0.055295698,-0.213929227,-0.004008045,0.003680856,0,0,0,0,0,0,0
2.84261775,8.686433708,7.662214302,6.9029661,-6.162329034,0,0,0,-0.004273919,0.055493774,-0.214859164,-0.004101238,0.003681278,0,0,0,0,0,0,0
2.853036404,8.714875926,7.539896041,6.685582457,-6.141343522,0,0,0,-0.003155897,0.054234156,-0.209803716,-0.004050193,0.003584703,0,0,0,0,0,0,0
2.863639593,8.683489517,7.736058168,7.043568472,-6.149809455,0,0,0,-0.004723801,0.055835891,-0.216484043,-0.004198354,0.003713529,0,0,0,0,0,0,0
2.874147892,8.703612417,7.652529805,6.884927132,-6.142747515,0,0,0,-0.00389903,0.054943639,-0.212861754,-0.004114034,0.003676762,0,0,0,0,0,0,0
2.884504557,8.734335006,7.515143634,6.627039271,-6.13000055,0,0,0,-0.002663507,0.053563997,-0.207297858,-0.003995055,0.003598601,0,0,0,0,0,0,0
2.895269871,8.662885202,7.932682527,7.387782959,-6.151306601,0,0,0,-0.006167954,0.057157575,-0.222250154,-0.004293463,0.003873385,0,0,0,0,0,0,0
2.905719757,8.726250097,7.626803668,6.805148322,-6.149116371,0,0,0,-0.003368336,0.05431283,-0.210396266,-0.004058848,0.003666779,0,0,0,0,0,0,0
2.916297674,8.707140165,7.757773102,7.030416601,-6.163854782,0,0,0,-0.004366229,0.055363007,-0.214734027,-0.004125988,0.003746059,0,0,0,0,0,0,0
2.927174807,8.656299769,8.053143242,7.568086362,-6.168452692,0,0,0,-0.006921743,0.057832209,-0.225225122,-0.004314193,0.003931953,0,0,0,0,0,0,0
2.937629938,8.738361901,7.627324124,6.755584481,-6.171506664,0,0,0,-0.003034856,0.053936347,-0.208902856,-0.003988748,0.003647316,0,0,0,0,0,0,0
2.948187113,8.722877261,7.723450631,6.914586597,-6.187634131,0,0,0,-0.003722978,0.054686299,-0.21196617,-0.004043825,0.003713679,0,0,0,0,0,0,0
2.958641291,8.751070223,7.627058691,6.70939088,-6.199804688,0,0,0,-0.002824089,0.053741136,-0.208073256,-0.004027315,0.003693205,0,0,0,0,0,0,0
2.969076395,8.764622191,7.614306249,6.636583841,-6.240159267,0,0,0,-0.002654977,0.05363682,-0.207578616,-0.004275968,0.003675164,0,0,0,0,0,0,0
2.979513645,8.752223467,7.626833174,6.604637406,-6.288586883,0,0,0,-0.002738583,0.053785645,-0.208199024,-0.004714848,0.003496295,0,0,0,0,0,0,0
2.989978075,8.724484427,7.670706544,6.635947985,-6.331534403,0,0,0,-0.003097951,0.054171761,-0.20991521,-0.005084083,0.003306548,0,0,0,0,0,0,0
