T,Px,Py,Pz,Vx,Vy,Vz,Roll,Pitch,Yaw,R_rate,P_rate,Y_rate,T,M1,M2,M3,Wb1,Wb2,Wb3
0,0.0,0.0,0.0,0.0,0.0,0.0,0.00015230317749110803,-0.00013602569352708487,-0.00014093063974971988,0.0,0.0,0.0,0.0,0.0,0.0,0.0,0.0,0.0,0.0
0.00019073486328125,0.00558771515600118,7.841120679654764e-05,0.0007438223627702689,-1.1113630782649988,-0.01560463664431258,-0.14799612589487324,-1.9961047835366775e-06,-1.3516136300865754e-08,-1.0424031619294004e-06,0.0,0.0,0.0,0.0,0.0,0.0,0.0,0.0,0.0,0.0
0.005647182464599609,0.026701688712343286,0.00037471775065500343,0.003554567240616687,-4.176026087311446,-0.0586357072295729,-0.5561070314996663,-9.129805770952643e-06,-5.302140375994859e-07,-4.654746017294797e-06,0.0,0.0,0.0,0.0,0.0,0.0,0.0,0.0,0.0,0.0
0.01098322868347168,0.0653685612950138,0.0009174005484478602,0.008701982551893967,-7.5593178658308435,-0.10614120970435233,-1.0066522755888765,-2.2461854136043693e-05,-9.510143964477449e-07,-9.92892788950594e-06,0.0,0.0,0.0,0.0,0.0,0.0,0.0,0.0,0.0,0.0
0.016356229782104492,0.11723427695146996,0.0016453849855796274,0.015606305686853037,-9.934441259646992,-0.13949185301539285,-1.3229499020190283,-4.144290062069925e-05,1.8014400655185303e-07,-1.5374548121338125e-05,0.0,0.0,0.0,0.0,0.0,0.0,0.0,0.0,0.0,0.0
0.021720409393310547,0.17851977423895693,0.002505538575466407,0.023764533775586634,-11.390398823340572,-0.15993737104402597,-1.516853561637725,-6.437121111828132e-05,1.4780702536955706e-06,-2.0951666952507423e-05,0.0,0.0,0.0,0.0,0.0,0.0,0.0,0.0,0.0,0.0
0.027040719985961914,0.24598982491541344,0.003452325723694461,0.03274597241708185,-12.035634302025505,-0.16900065321724306,-1.602804606559802,-9.007705810357849e-05,2.1007769151523013e-06,-2.6289666266921343e-05,0.0,0.0,0.0,0.0,0.0,0.0,0.0,0.0,0.0,0.0
0.032370567321777344,0.3169164144469363,0.0044474823135314265,0.04218733364951652,-11.989350305320155,-0.16835586095139465,-1.5966763209697197,-0.00011856937611544143,4.014519197967518e-06,-3.085782488846179e-05,0.0,0.0,0.0,0.0,0.0,0.0,0.0,0.0,0.0,0.0
0.03768014907836914,0.3890384286818154,0.00545935303139188,0.05178751894597977,-11.374477365645028,-0.1597293079309165,-1.5148382168399384,-0.00014906370592471203,7.756241846512745e-06,-3.393593520906783e-05,0.0,0.0,0.0,0.0,0.0,0.0,0.0,0.0,0.0,0.0
0.04299640655517578,0.4605188910610538,0.006462228497118525,0.061302069567638375,-10.312138267065894,-0.14482149327509722,-1.3734188703537418,-0.00017940693699613613,1.2793845528194388e-05,-3.580464651454607e-05,0.0,0.0,0.0,0.0,0.0,0.0,0.0,0.0,0.0,0.0
0.048426151275634766,0.5299012920991601,0.007435699835433231,0.07053739940791248,-8.917443053092473,-0.12524815755186586,-1.187745421585244,-0.00020722914722855502,1.8588846250538136e-05,-3.806857045890122e-05,0.0,0.0,0.0,0.0,0.0,0.0,0.0,0.0,0.0,0.0
0.05384969711303711,0.5960653091284509,0.008363974174668406,0.0793444990098777,-7.29644827780891,-0.10249788403879587,-0.9719384105749042,-0.0002323405394998184,2.422142252571649e-05,-4.063278351243893e-05,0.0,0.0,0.0,0.0,0.0,0.0,0.0,0.0,0.0,0.0
0.05922079086303711,0.6581848068073444,0.009235374448837673,0.08761337529482117,-5.54411583196073,-0.077903752463813,-0.7386405880432065,-0.00025558174940844644,2.8696096390718267e-05,-4.301853341394184e-05,0.0,0.0,0.0,0.0,0.0,0.0,0.0,0.0,0.0,0.0
0.06454348564147949,0.7156882001111775,0.010041928290431773,0.09526790184915374,-3.743110486264555,-0.052626410406390586,-0.4988575258214021,-0.00027691663129874043,3.1284582648925086e-05,-4.5947448174820564e-05,0.0,0.0,0.0,0.0,0.0,0.0,0.0,0.0,0.0,0.0
0.06996750831604004,0.7682199797428194,0.010778741874753962,0.10226056110117389,-1.9632866864513367,-0.02764649987364999,-0.2618896846302723,-0.00029638508067040474,3.320520699786922e-05,-4.913829856808557e-05,0.0,0.0,0.0,0.0,0.0,0.0,0.0,0.0,0.0,0.0
0.0752873420715332,0.8156055939964588,0.01144334180246579,0.1085679630508759,-0.26172976424745736,-0.0037651568858872034,-0.03533815098665136,-0.00031449426400464943,3.600843034690546e-05,-5.140299025004717e-05,0.0,0.0,0.0,0.0,0.0,0.0,0.0,0.0,0.0,0.0
0.08066082000732422,0.8578196768222723,0.012035379876243523,0.11418688319685608,1.3167722271272253,0.018389128158091975,0.17483293604308028,-0.00033085969750904463,3.8446099259598185e-05,-5.294814609413158e-05,0.0,0.0,0.0,0.0,0.0,0.0,0.0,0.0,0.0,0.0
0.0860753059387207,0.894956892165216,0.012556278924809004,0.1191301924796399,2.7389363330571515,0.03834941227178553,0.36419183700874497,-0.000343196595548645,3.9198068374848236e-05,-5.5405349045294684e-05,0.0,0.0,0.0,0.0,0.0,0.0,0.0,0.0,0.0,0.0
0.09142708778381348,0.9272052912121924,0.01300862033157926,0.12342283740538892,3.9819658438830086,0.05579603930131947,0.5297036432561789,-0.0003522632029708054,3.90274824345907e-05,-5.858887491871326e-05,0.0,0.0,0.0,0.0,0.0,0.0,0.0,0.0,0.0,0.0
0.09681558609008789,0.954823312025208,0.013395934666072848,0.1270988886424613,5.032385018521529,0.07053997192262501,0.6695740480962816,-0.0003619361198226037,3.8784612029451967e-05,-6.079631105907649e-05,0.0,0.0,0.0,0.0,0.0,0.0,0.0,0.0,0.0,0.0
0.10221362113952637,0.978120686305432,0.013722622876913003,0.13019952307797816,5.884797579942274,0.08250531742727829,0.7830834964169355,-0.0003725971237100237,3.898650963377447e-05,-6.130995676566893e-05,0.0,0.0,0.0,0.0,0.0,0.0,0.0,0.0,0.0,0.0
0.10748291015625,0.9974417558863415,0.013993555645060123,0.13277093586108094,6.540627063660851,0.09171197486063148,0.8704204827714301,-0.0003822280985864893,3.930108126813324e-05,-6.064060395844498e-05,0.0,0.0,0.0,0.0,0.0,0.0,0.0,0.0,0.0,0.0
0.11276817321777344,1.0131507908368762,0.01421382846586031,0.13486203189402146,7.00688245432274,0.0982583678858302,0.9325184985545509,-0.00038914728275115214,3.828481870546474e-05,-6.054736661871685e-05,0.0,0.0,0.0,0.0,0.0,0.0,0.0,0.0,0.0,0.0
0.11797213554382324,1.02561902188874,0.014388595305391811,0.1365220638245775,7.294980449401885,0.10230470471872537,0.9708988904987905,-0.00039448322236954194,3.5713472637221835e-05,-6.0865145357619314e-05,0.0,0.0,0.0,0.0,0.0,0.0,0.0,0.0,0.0,0.0
0.12323260307312012,1.0352152229274398,0.014523124327829016,0.13779967877104918,7.419649136556821,0.1040576242979134,0.9875231354734176,-0.00040047689730479647,3.376640936764703e-05,-5.7904244175871715e-05,0.0,0.0,0.0,0.0,0.0,0.0,0.0,0.0,0.0,0.0
0.12850046157836914,1.042298942785397,0.0146229711529152,0.13874267209646335,7.397933881753774,0.10375700270428036,0.984659778851543,-0.00040603990284332904,3.653028570596537e-05,-4.3992838313525275e-05,0.0,0.0,0.0,0.0,0.0,0.0,0.0,0.0,0.0,0.0
0.13373804092407227,1.047213871816106,0.014693407835564285,0.1393965593183538,7.248317066909883,0.10166446371268818,0.9647678846759877,-0.0004072464259568335,5.252480825535763e-05,-1.4635806139524252e-05,0.0,0.0,0.0,0.0,0.0,0.0,0.0,0.0,0.0,0.0
0.13900113105773926,1.0502830684157936,0.014738825198224809,0.13980415418657854,6.989953812235065,0.09805195936714677,0.9303955714080488,-0.00040181999075978713,8.426030948639938e-05,2.2919909219337815e-05,0.0,0.0,0.0,0.0,0.0,0.0,0.0,0.0,0.0,0.0
0.1442856788635254,1.0518059076908592,0.014762802705631186,0.14000585250451514,6.642023706276506,0.09319051566569037,0.8840945807626771,-0.0003927522671377067,0.00011915144731465851,5.6507195658304906e-05,0.0,0.0,0.0,0.0,0.0,0.0,0.0,0.0,0.0,0.0
0.14951157569885254,1.0520561762366623,0.014768686318939852,0.14003848845907063,6.223196958440253,0.08734137356055327,0.8283506776042113,-0.00038240350598238036,0.00014944501762156223,8.125948389725767e-05,0.0,0.0,0.0,0.0,0.0,0.0,0.0,0.0,0.0,0.0
0.15476775169372559,1.0512818749272286,0.01475991490717928,0.13993481984325612,5.751210360703875,0.0807508320439264,0.7655265851220265,-0.0003743297018615592,0.00017852692722319095,9.974888952162591e-05,0.0,0.0,0.0,0.0,0.0,0.0,0.0,0.0,0.0,0.0
0.16002559661865234,1.0497050195107174,0.014739309622757978,0.13972442394830753,5.242545641007632,0.07364702625445642,0.6978175991301893,-0.00037528203008689657,0.00021024290739423703,0.00010569169587543952,0.0,0.0,0.0,0.0,0.0,0.0,0.0,0.0,0.0,0.0
0.16531920433044434,1.0475210520478742,0.014708314388072312,0.13943405354996927,4.712198400499595,0.066235694456259,0.627221566135317,-0.00037833143402418083,0.00022496771286374654,7.28079247062575e-05,0.0,0.0,0.0,0.0,0.0,0.0,0.0,0.0,0.0,0.0
0.1705935001373291,1.0448991470639915,0.014667975710757888,0.1390863079688864,4.1735248400342595,0.05869589928514776,0.5555195285171296,-0.0003719624650435421,0.00019505166426639597,-2.4920245807156837e-05,0.0,0.0,0.0,0.0,0.0,0.0,0.0,0.0,0.0,0.0
0.17589139938354492,1.0419839713992007,0.014620702744150125,0.1386995696252918,3.6381573424658136,0.05118047421858018,0.48426240979347,-0.0003550776990813619,0.00013155596895140153,-0.0001889006877445005,0.0,0.0,0.0,0.0,0.0,0.0,0.0,0.0,0.0,0.0
0.18121886253356934,1.0388983161021135,0.014569492168040966,0.1382901236058096,3.115982247960128,0.04382109175458146,0.4147661898612205,-0.0003320239861488504,5.5829663997007975e-05,-0.00040498645045607536,0.0,0.0,0.0,0.0,0.0,0.0,0.0,0.0,0.0,0.0
0.18648886680603027,1.0357451591463283,0.014516667554558698,0.1378723212674814,2.615170840307449,0.036731626309226516,0.34811806051470884,-0.0003178635277445215,-1.7808896772511884e-05,-0.0006506569843250127,0.0,0.0,0.0,0.0,0.0,0.0,0.0,0.0,0.0,0.0
0.19175171852111816,1.0326087422912662,0.01446418925019139,0.13745795553379958,2.142250869670736,0.030007931161742045,0.2851884470768886,-0.00032436939877269273,-7.442204165168931e-05,-0.0008996375455928243,0.0,0.0,0.0,0.0,0.0,0.0,0.0,0.0,0.0,0.0
0.19704723358154297,1.0295556902549134,0.014413877117539622,0.13705661610896683,1.702206181516805,0.023727595862407577,0.22664463136404922,-0.00035019365993134595,-0.00011005742945161136,-0.0011334444636473327,0.0,0.0,0.0,0.0,0.0,0.0,0.0,0.0,0.0,0.0
0.20229887962341309,1.026637130732835,0.014367355584424313,0.13667529695509717,1.2985967546200001,0.01795093332695193,0.17296582476086886,-0.0003887733397461587,-0.0001269209470178596,-0.001338413894933787,0.0,0.0,0.0,0.0,0.0,0.0,0.0,0.0,0.0,0.0
0.20752644538879395,1.0238916561129916,0.0143264495929098,0.13631947883561002,0.9336956202824069,0.012722717357056879,0.12446013202335116,-0.00043359136755679505,-0.00013274245383785335,-0.0014960214242609286,0.0,0.0,0.0,0.0,0.0,0.0,0.0,0.0,0.0,0.0
0.21278905868530273,1.0213469390800747,0.01429318902493966,0.1359936538047914,0.6086377478312344,0.008074740410978849,0.08128447590338607,-0.00048083290791358155,-0.00013972472901380473,-0.0015836568736564377,0.0,0.0,0.0,0.0,0.0,0.0,0.0,0.0,0.0,0.0
0.21802830696105957,1.019020202715968,0.014268678027679404,0.13570025833345312,0.32357189059344865,0.004027345017430392,0.04346508488596952,-0.0005451290057298784,-0.00015593700627529195,-0.0015881066753296886,0.0,0.0,0.0,0.0,0.0,0.0,0.0,0.0,0.0,0.0
0.2232820987701416,1.0169203780774454,0.014253274816616224,0.13544216593151087,0.07780927480950092,0.0005886014123595168,0.010917776675610613,-0.0006740140899936467,-0.00018957517697531728,-0.0015065612740193105,0.0,0.0,0.0,0.0,0.0,0.0,0.0,0.0,0.0,0.0
0.22853946685791016,1.0150496127780366,0.014247985973388397,0.13522385712616536,-0.1300317841953102,-0.00224538804746791,-0.016527710175226015,-0.0009011047417210377,-0.0002568081173373504,-0.0013400572314553104,0.0,0.0,0.0,0.0,0.0,0.0,0.0,0.0,0.0,0.0
0.23376846313476562,1.0134043836626747,0.014254100792077971,0.13504877181926536,-0.301887740687183,-0.004487094515028142,-0.039103900887265564,-0.00122816518656386,-0.00036476519875983847,-0.0011025709776115093,0.0,0.0,0.0,0.0,0.0,0.0,0.0,0.0,0.0,0.0
0.2390272617340088,1.0119775800061797,0.014272259925302934,0.13491912365024578,-0.4401204463214467,-0.006154951843438535,-0.057089911462927655,-0.001651018484299134,-0.0005103505322623395,-0.0008182997816718782,0.0,0.0,0.0,0.0,0.0,0.0,0.0,0.0,0.0,0.0
0.2442777156829834,1.0107579604863632,0.014303449104482637,0.13483714436394117,-0.5473988669994667,-0.007272502297945696,-0.07079983191974366,-0.002160947477713493,-0.0007006405584350405,-0.0005079488574062938,0.0,0.0,0.0,0.0,0.0,0.0,0.0,0.0,0.0,0.0
0.24950480461120605,1.0097309602598057,0.01434864722252474,0.13480315190051273,-0.62659555236816,-0.007866818579618622,-0.08057223667006108,-0.0027698353472015752,-0.0009338475769485516,-0.00018731249227299285,0.0,0.0,0.0,0.0,0.0,0.0,0.0,0.0,0.0,0.0
0.2547478675842285,1.008881287466827,0.01440746393557096,0.13481501604911572,-0.680695148965903,-0.007968350831742028,-0.08676473768786985,-0.0034951847509426415,-0.0011959127387776677,0.00013715448858466874,0.0,0.0,0.0,0.0,0.0,0.0,0.0,0.0,0.0,0.0
0.2600431442260742,1.0081929102059948,0.014479053071805217,0.1348711350362966,-0.7127120151058077,-0.007613127358888609,-0.0897492272120389,-0.004320207365139882,-0.0015010387947159685,0.0004673726675168216,0.0,0.0,0.0,0.0,0.0,0.0,0.0,0.0,0.0,0.0
0.2653324604034424,1.0076488973247995,0.014563666571409185,0.13497053137418227,-0.7256209149508877,-0.006842155856909145,-0.08990163822374395,-0.005229487342757097,-0.0018706685460693653,0.0008024443228053037,0.0,0.0,0.0,0.0,0.0,0.0,0.0,0.0,0.0,0.0
0.27060866355895996,1.0072323032981407,0.014662305459998979,0.13511092345964598,-0.7223017824767131,-0.005696762656762435,-0.08759228055771096,-0.006236672168026659,-0.0022883471192651763,0.0011337444387785557,0.0,0.0,0.0,0.0,0.0,0.0,0.0,0.0,0.0,0.0
0.2758827209472656,1.0069266525072642,0.014775041732628929,0.1352878592343697,-0.7054952685678928,-0.004215764790972933,-0.08318335626033677,-0.007350457712475861,-0.0027231313658180483,0.001453446661555803,0.0,0.0,0.0,0.0,0.0,0.0,0.0,0.0,0.0,0.0
0.2811141014099121,1.0067163556172454,0.014901193238687917,0.13549647779172858,-0.6777677148551724,-0.0024371745828600665,-0.07702925528785949,-0.008556035127663824,-0.0031629405693489195,0.0017550364305439071,0.0,0.0,0.0,0.0,0.0,0.0,0.0,0.0,0.0,0.0
0.28638362884521484,1.0065875638515807,0.01504114247795748,0.13573461643158466,-0.6414845622692931,-0.0003990388422368677,-0.06947057593778469,-0.009848321640934493,-0.0036063392829349737,0.0020286916155937483,0.0,0.0,0.0,0.0,0.0,0.0,0.0,0.0,0.0,0.0
0.29165005683898926,1.0065280169905906,0.015196207919021175,0.1360009642145114,-0.5987913236104653,0.0018639735163058445,-0.060822847604767166,-0.011247162857232108,-0.004041099691572259,0.0022703011329698697,0.0,0.0,0.0,0.0,0.0,0.0,0.0,0.0,0.0,0.0
0.296905517578125,1.0065264846964763,0.015366464936530386,0.13629118105488758,-0.5516032316450766,0.004322544557309006,-0.05137300731242665,-0.01275879572960195,-0.004441797620579089,0.0024773204473064045,0.0,0.0,0.0,0.0,0.0,0.0,0.0,0.0,0.0,0.0
0.30213141441345215,1.006572592965349,0.015550448588748546,0.13659965387093698,-0.5016036542992918,0.00694886543486042,-0.041385916432953966,-0.014364215482024864,-0.0047841634630575985,0.002643124036608886,0.0,0.0,0.0,0.0,0.0,0.0,0.0,0.0,0.0,0.0
0.30738019943237305,1.0066574412158742,0.01574793179961744,0.13692243028189738,-0.4502482862036582,0.009713531521218828,-0.031107225215714476,-0.016061659449190517,-0.005027277205831153,0.0027655313888610886,0.0,0.0,0.0,0.0,0.0,0.0,0.0,0.0,0.0,0.0
0.31273436546325684,1.0067736818787603,0.015960522162800538,0.1372564525326962,-0.3987722890258163,0.01258958296769325,-0.020758490834271514,-0.017871460250420655,-0.005100974731840769,0.002852743213792438,0.0,0.0,0.0,0.0,0.0,0.0,0.0,0.0,0.0,0.0
0.3180358409881592,1.0069144588132808,0.016188460535865232,0.13759755991427913,-0.34820121516024805,0.015556540198116165,-0.010534462798586311,-0.01980553737187632,-0.004950939306983043,0.0029207580354029,0.0,0.0,0.0,0.0,0.0,0.0,0.0,0.0,0.0,0.0
0.3232896327972412,1.0070744360190897,0.016432437538239968,0.13794241730693302,-0.29936552769030494,0.01859906932468231,-0.0006046436165297493,-0.021865728416761605,-0.004533701096519602,0.0029759535517822223,0.0,0.0,0.0,0.0,0.0,0.0,0.0,0.0,0.0,0.0
0.3285491466522217,1.0072501456912097,0.016694669881864077,0.13829025707415657,-0.2529150635456141,0.021707470920692893,0.008888893985565553,-0.02404457342637081,-0.003806140297695451,0.003005017663115103,0.0,0.0,0.0,0.0,0.0,0.0,0.0,0.0,0.0,0.0
0.3338007926940918,1.007438193077233,0.016974784865441555,0.13863956740137823,-0.20933469822946238,0.02487778427872344,0.017834975580086364,-0.02631247989280412,-0.0027654488428411617,0.002990547031958634,0.0,0.0,0.0,0.0,0.0,0.0,0.0,0.0,0.0,0.0
0.3390474319458008,1.0076348725097592,0.01727059524554942,0.13898797011054548,-0.1689645673102959,0.028104671372205813,0.026149870870147328,-0.028637171309386488,-0.0014337189135755195,0.0029262847067032293,0.0,0.0,0.0,0.0,0.0,0.0,0.0,0.0,0.0,0.0
0.3443474769592285,1.0078378034562583,0.01758292230740266,0.13933519829026378,-0.13202049650662034,0.03137825117252384,0.0337732779387938,-0.031022232928033664,0.00019811987182394834,0.002814306215659307,0.0,0.0,0.0,0.0,0.0,0.0,0.0,0.0,0.0,0.0
0.34972405433654785,1.0080467071455397,0.017914675817105742,0.13968316680555104,-0.09860905566629141,0.034692197516389384,0.040671132377613446,-0.03348945891954734,0.0021578971605218074,0.002658802736745956,0.0,0.0,0.0,0.0,0.0,0.0,0.0,0.0,0.0,0.0
0.3550848960876465,1.0082614109419163,0.018265209584064974,0.14003263256883206,-0.06874071308777886,0.038047194738415745,0.04683703005993054,-0.03603036238520192,0.004441683599030151,0.0024617233805424516,0.0,0.0,0.0,0.0,0.0,0.0,0.0,0.0,0.0,0.0
0.3603541851043701,1.008480746750888,0.018631493636739542,0.14038264096618747,-0.04234728490713986,0.04144131480829887,0.05228481328206683,-0.03860721849292974,0.0070217665322417095,0.0022206113971718466,0.0,0.0,0.0,0.0,0.0,0.0,0.0,0.0,0.0,0.0
0.36564207077026367,1.0087035330822298,0.019014033764548185,0.14073351647325358,-0.019301218308715125,0.04486527301577575,0.05704057051670572,-0.04118884041200826,0.009902625926325128,0.0019286626081183539,0.0,0.0,0.0,0.0,0.0,0.0,0.0,0.0,0.0,0.0
0.37095117568969727,1.0089292990150862,0.019416070733308817,0.14108686959261726,0.0005694088682625803,0.048312327656559136,0.061141982770981575,-0.04376111883512775,0.013109291628704688,0.0015786058550124396,0.0,0.0,0.0,0.0,0.0,0.0,0.0,0.0,0.0,0.0
0.3761906623840332,1.0091568553951595,0.019837953888595238,0.1414442956063025,0.017469002561190893,0.05178470090169661,0.0646394312507999,-0.046307656129079514,0.01662942030640151,0.001182885269905822,0.0,0.0,0.0,0.0,0.0,0.0,0.0,0.0,0.0,0.0
0.3814566135406494,1.0093854824750423,0.020280757341621502,0.1418088764850078,0.031623165613538375,0.055289168694314834,0.06759539045015975,-0.04881769376369166,0.02044654667050306,0.0007709121634339987,0.0,0.0,0.0,0.0,0.0,0.0,0.0,0.0,0.0,0.0
0.38669776916503906,1.0096162267132662,0.02074764292243728,0.1421845616145228,0.043271676035102055,0.05883671935219665,0.07008487489897652,-0.05128547501256504,0.0245383418576606,0.00035860756830262874,0.0,0.0,0.0,0.0,0.0,0.0,0.0,0.0,0.0,0.0
0.3919637203216553,1.0098486627487895,0.02123739287318357,0.14257207480564296,0.05266315187360154,0.062442047978136586,0.07219127358740846,-0.05368191779197281,0.02885043174958362,-5.3089965217044006e-05,0.0,0.0,0.0,0.0,0.0,0.0,0.0,0.0,0.0,0.0
0.39722323417663574,1.0100816691064436,0.021745917886733357,0.14297030417904089,0.06004570131578306,0.06611191343798484,0.07399460823422714,-0.05597358345046454,0.033322336778942675,-0.00046860875900416727,0.0,0.0,0.0,0.0,0.0,0.0,0.0,0.0,0.0,0.0
0.40246105194091797,1.01031652806869,0.022272702508349604,0.14338215707674912,0.06566101322463001,0.06983930972106922,0.07556723979431375,-0.05811505351598914,0.03789809250700539,-0.0009076670634507104,0.0,0.0,0.0,0.0,0.0,0.0,0.0,0.0,0.0,0.0
0.40769314765930176,1.0105546786868231,0.02282077208491078,0.14381187513314736,0.06974500885141043,0.07361502863307168,0.07698214529905606,-0.06006460413258696,0.04255545430225149,-0.0013918596645751283,0.0,0.0,0.0,0.0,0.0,0.0,0.0,0.0,0.0,0.0
0.41295695304870605,1.0107951157326909,0.02339002057373595,0.14425981112767727,0.07252406279947626,0.07743664337294066,0.07831427993025201,-0.06181691270604227,0.04726766051792522,-0.0019216014431770066,0.0,0.0,0.0,0.0,0.0,0.0,0.0,0.0,0.0,0.0
0.41817426681518555,1.0110375940517229,0.023976943653152366,0.14472642833483154,0.07420748294936641,0.08130042693138702,0.07963150083659706,-0.06335035800387646,0.051957982325089934,-0.0024849138836593315,0.0,0.0,0.0,0.0,0.0,0.0,0.0,0.0,0.0,0.0
0.42340970039367676,1.0112842223308967,0.024581858573976396,0.14521536432093105,0.07498785446208374,0.08519492453793706,0.08099392944402732,-0.06465969669744699,0.05657114760128226,-0.0030521997979682707,0.0,0.0,0.0,0.0,0.0,0.0,0.0,0.0,0.0,0.0
0.4286620616912842,1.0115360639841937,0.025208789033817916,0.14572974604445396,0.07504500363550434,0.08911156134835943,0.08246075358533786,-0.06577561427372072,0.06109102189222785,-0.0035836929899183095,0.0,0.0,0.0,0.0,0.0,0.0,0.0,0.0,0.0,0.0
0.4339289665222168,1.0117920610930329,0.02585764202294831,0.14626918678528894,0.07454249281614068,0.09305214922749741,0.08408759293686792,-0.06669655416239118,0.06549421727075282,-0.004064493555334381,0.0,0.0,0.0,0.0,0.0,0.0,0.0,0.0,0.0,0.0
0.4391748905181885,1.0120516522885685,0.02652421401910316,0.14683273959236082,0.07362192235370268,0.09701720255141882,0.08591699944722184,-0.06740743414851229,0.06973414351319232,-0.004515811945225036,0.0,0.0,0.0,0.0,0.0,0.0,0.0,0.0,0.0,0.0
0.4444100856781006,1.012316312375792,0.027208853299815764,0.1474241269319163,0.07240517246171235,0.10099755421504407,0.08798015608624707,-0.06788802192415389,0.07375052517966224,-0.004969496854180905,0.0,0.0,0.0,0.0,0.0,0.0,0.0,0.0,0.0,0.0
0.44966816902160645,1.0125876174516277,0.027916714111266734,0.1480490454386219,0.07100080633398066,0.10498735007919373,0.09031037007697308,-0.0681100044988784,0.0775028364219881,-0.005432022940408756,0.0,0.0,0.0,0.0,0.0,0.0,0.0,0.0,0.0,0.0
0.4549133777618408,1.0128650456721389,0.0286487045167868,0.14870627433549977,0.06950447202094391,0.10899451286761809,0.09294379620347312,-0.06810259379303422,0.08099351529717125,-0.005880808402922316,0.0,0.0,0.0,0.0,0.0,0.0,0.0,0.0,0.0,0.0
0.4601590633392334,1.0131480407449085,0.029400462197057046,0.14939056462452494,0.0679947772733647,0.11302789321929463,0.09590045449206676,-0.06791495548985862,0.08423416919255029,-0.006296402842571143,0.0,0.0,0.0,0.0,0.0,0.0,0.0,0.0,0.0,0.0
0.46540307998657227,1.0134389364132175,0.030171146082136297,0.15010343268226942,0.06653574281905815,0.11708440010732132,0.09917790089526175,-0.06754610127909862,0.08719411823385564,-0.006681517401339006,0.0,0.0,0.0,0.0,0.0,0.0,0.0,0.0,0.0,0.0
0.47064924240112305,1.013740436658424,0.03096510617261164,0.1508492131640685,0.06518506836169283,0.12115916711278535,0.10276941441215987,-0.0669946182352294,0.08984221412503002,-0.007039245813700615,0.0,0.0,0.0,0.0,0.0,0.0,0.0,0.0,0.0,0.0
0.4758942127227783,1.014052328932488,0.031782642754167895,0.15162539111497697,0.06399490394007634,0.1252569371982794,0.10667115304665231,-0.06626746849402201,0.09219627152120563,-0.007364695215134996,0.0,0.0,0.0,0.0,0.0,0.0,0.0,0.0,0.0,0.0
0.4811694622039795,1.0143717282309566,0.032619401795296904,0.15242648920334276,0.06300278088692288,0.12938165983353264,0.11086631957773278,-0.06536320728992112,0.09426622650539498,-0.007658088450514728,0.0,0.0,0.0,0.0,0.0,0.0,0.0,0.0,0.0,0.0
0.4864084720611572,1.014697596235714,0.03347641573124701,0.15325343945391456,0.06222658069859032,0.13352772431581222,0.11532105872789895,-0.06427836652361571,0.09602231307273848,-0.007924324591489885,0.0,0.0,0.0,0.0,0.0,0.0,0.0,0.0,0.0,0.0
0.49164605140686035,1.0150329515750207,0.03435919312846725,0.15411121751775803,0.061673681813492386,0.13769373326301398,0.12000401439595268,-0.06301078592250742,0.09744448090539677,-0.008159249155237908,0.0,0.0,0.0,0.0,0.0,0.0,0.0,0.0,0.0,0.0
0.4969143867492676,1.0153793999554503,0.03526684819943848,0.15499803274151808,0.06135236365661122,0.14189050099753744,0.12489509639818677,-0.06159106960418505,0.09854692725796438,-0.00834744479911671,0.0,0.0,0.0,0.0,0.0,0.0,0.0,0.0,0.0,0.0
0.5021347999572754,1.0157359514850508,0.036192892035417874,0.15590774876996805,0.06126993100074844,0.14612295508843115,0.12996834539560564,-0.060054112354317936,0.09934829180710922,-0.008483707533884277,0.0,0.0,0.0,0.0,0.0,0.0,0.0,0.0,0.0,0.0
0.5074176788330078,1.0161032670875763,0.037136730899380375,0.1568414006471818,0.061427255209907675,0.15037822375680748,0.13518449182187564,-0.05838889538868216,0.09983365753296339,-0.008576692191816431,0.0,0.0,0.0,0.0,0.0,0.0,0.0,0.0,0.0,0.0
0.5127546787261963,1.0164838191583123,0.038103253915813616,0.15780496267664246,0.06182282720141593,0.15464240363214524,0.1405110354854338,-0.05657108287298658,0.09997514610697551,-0.008628419602382774,0.0,0.0,0.0,0.0,0.0,0.0,0.0,0.0,0.0,0.0
0.5180704593658447,1.0168783400205048,0.03909148833708294,0.15879704420623178,0.062457182327525576,0.15891326638681247,0.14593235388711956,-0.054620422465770924,0.09978133851488045,-0.00862745174794729,0.0,0.0,0.0,0.0,0.0,0.0,0.0,0.0,0.0,0.0
0.5233311653137207,1.0172870621504977,0.04010115591539341,0.15981564226678105,0.0633300773621483,0.16319183409600022,0.15143515445000783,-0.05254899942696473,0.09929161541325017,-0.008563557521242804,0.0,0.0,0.0,0.0,0.0,0.0,0.0,0.0,0.0,0.0
0.528609037399292,1.017711642190131,0.0411372688024061,0.1608646050011786,0.06443919258399618,0.1674826153699971,0.15700526939161094,-0.05033224203393252,0.09853332961442843,-0.008443421745861657,0.0,0.0,0.0,0.0,0.0,0.0,0.0,0.0,0.0,0.0
0.5338940620422363,1.0181512936570878,0.04219815811326969,0.16194194248032565,0.06578049192654069,0.17179790382509458,0.16263396606189043,-0.047975695567466725,0.09751279603993804,-0.008278620986935725,0.0,0.0,0.0,0.0,0.0,0.0,0.0,0.0,0.0,0.0
0.5391502380371094,1.0186025853718244,0.04327662345829584,0.16304064259,0.06734188472157286,0.17614087505662857,0.16830503327838195,-0.0454932671949149,0.09624093229633779,-0.008081206682896767,0.0,0.0,0.0,0.0,0.0,0.0,0.0,0.0,0.0,0.0
0.5444395542144775,1.0190653758848291,0.044371808769185075,0.16416031132969366,0.06910017319101683,0.18049469542874774,0.1739863605354358,-0.04288158617891342,0.0947260777106384,-0.00787031018047051,0.0,0.0,0.0,0.0,0.0,0.0,0.0,0.0,0.0,0.0
0.5496952533721924,1.0195426965093064,0.04548846111712098,0.16530574058672035,0.07103165826955485,0.18484102639849812,0.1796486714297905,-0.04014870962515912,0.09296728007161989,-0.00765051427692053,0.0,0.0,0.0,0.0,0.0,0.0,0.0,0.0,0.0,0.0
0.5549123287200928,1.0200347780547245,0.04662453017696575,0.16647451047431566,0.07312034150779385,0.18917265126457788,0.18527644766374343,-0.037319591072595165,0.09098715097117786,-0.007408495165513648,0.0,0.0,0.0,0.0,0.0,0.0,0.0,0.0,0.0,0.0
0.5601890087127686,1.020539670297586,0.0477727358466488,0.16765871336950244,0.07535163624488622,0.19347676319683055,0.1908492087793056,-0.03443579049122966,0.0888306561972683,-0.00713850514798116,0.0,0.0,0.0,0.0,0.0,0.0,0.0,0.0,0.0,0.0
0.565436840057373,1.0210576444912505,0.04893431795741344,0.16885643903642497,0.07770693236690103,0.19772667735091132,0.1963294416882677,-0.03152800732322114,0.08652523804684696,-0.006845960112102857,0.0,0.0,0.0,0.0,0.0,0.0,0.0,0.0,0.0,0.0
0.5706882476806641,1.021590818182219,0.050116755498069834,0.1700714167756184,0.0801693645039908,0.20190519533285345,0.20168029023023637,-0.028609230136578248,0.08406661172271247,-0.006534742413490691,0.0,0.0,0.0,0.0,0.0,0.0,0.0,0.0,0.0,0.0
0.5759220123291016,1.0221381291575256,0.05131964318752256,0.17130153926189903,0.08272686949629551,0.20601763424150898,0.20687892300061372,-0.025699827488357953,0.08146013796206547,-0.006198642864044214,0.0,0.0,0.0,0.0,0.0,0.0,0.0,0.0,0.0,0.0
0.5811574459075928,1.0226955259097643,0.052537209922895046,0.17253686143649538,0.0853631803875553,0.2100707117765288,0.21189886874502237,-0.022808419698974555,0.07874378163499729,-0.005837703679511235,0.0,0.0,0.0,0.0,0.0,0.0,0.0,0.0,0.0,0.0
0.586400032043457,1.0232634136483427,0.05377014583338478,0.17377446819349301,0.08805381249997804,0.2140586443128028,0.2166952742170918,-0.019947140630169155,0.07592755548870547,-0.005469312774065634,0.0,0.0,0.0,0.0,0.0,0.0,0.0,0.0,0.0,0.0
0.5916123390197754,1.0238458612861534,0.05502360157536207,0.1750198435804774,0.09077887176931622,0.21797908691374487,0.2212257686326918,-0.017141379841845127,0.07299686961672726,-0.005101270260220319,0.0,0.0,0.0,0.0,0.0,0.0,0.0,0.0,0.0,0.0
0.5968594551086426,1.0244419965496903,0.056296733616628625,0.17627167773419639,0.09353016706885016,0.22184290745722754,0.225469791883017,-0.01440731058623962,0.06998254233696255,-0.004725418141024711,0.0,0.0,0.0,0.0,0.0,0.0,0.0,0.0,0.0,0.0
0.6020839214324951,1.0250471860078454,0.0575827412545043,0.17752283727692628,0.09629799754792395,0.22565636499663513,0.22941249825840757,-0.011759641352136892,0.0669272564191307,-0.004342261865963891,0.0,0.0,0.0,0.0,0.0,0.0,0.0,0.0,0.0,0.0
0.607342004776001,1.0256612853553766,0.05888084651565307,0.17877332678780866,0.0990628284993181,0.22940871313200012,0.23303141744985872,-0.009208793209606755,0.06382922295917781,-0.003966939592865887,0.0,0.0,0.0,0.0,0.0,0.0,0.0,0.0,0.0,0.0
0.6125917434692383,1.0262880880123881,0.06019772782350601,0.18002792874879614,0.101807831853975,0.23309084058002913,0.23631313789990033,-0.006759640110730641,0.06068991355376828,-0.0036035593031214144,0.0,0.0,0.0,0.0,0.0,0.0,0.0,0.0,0.0,0.0
0.6178762912750244,1.026927751412613,0.06153353767389414,0.18128399902644338,0.10452839614016317,0.2367111211306045,0.2392620727042808,-0.004402642287964229,0.057559432407878114,-0.003245625088313331,0.0,0.0,0.0,0.0,0.0,0.0,0.0,0.0,0.0,0.0
0.6231272220611572,1.0275765788754903,0.06288125261029301,0.18253448285712434,0.10722182659874753,0.24027758734861213,0.24188075283212856,-0.0021214425266052987,0.05447547875923048,-0.002905112025756871,0.0,0.0,0.0,0.0,0.0,0.0,0.0,0.0,0.0,0.0
0.6284141540527344,1.0282347198815232,0.06424076719269045,0.18378034849237834,0.10987871120579114,0.24378234539385926,0.2441610283115354,7.981476841685054e-05,0.051431348136085867,-0.0025865880335105016,0.0,0.0,0.0,0.0,0.0,0.0,0.0,0.0,0.0,0.0
0.633664608001709,1.028905993960617,0.06561765097023385,0.18502700119624413,0.11249279063599427,0.2472185964928756,0.24610419350434107,0.002182976633657194,0.048417327323441575,-0.002271017623064888,0.0,0.0,0.0,0.0,0.0,0.0,0.0,0.0,0.0,0.0
0.6389765739440918,1.0295900274567575,0.06700996310047364,0.18627241620019616,0.11506822115441574,0.25059249480975315,0.2477295717119107,0.004155145642918605,0.045442974276948205,-0.0019466735497138277,0.0,0.0,0.0,0.0,0.0,0.0,0.0,0.0,0.0,0.0
0.6443004608154297,1.030286386264374,0.0684164874030766,0.18751518038362322,0.11761211245116508,0.2539108739128502,0.2490596190753639,0.005978919537309872,0.04251730792367572,-0.0016152061252793996,0.0,0.0,0.0,0.0,0.0,0.0,0.0,0.0,0.0,0.0
0.6495435237884521,1.0309975126940265,0.06984216067461292,0.18875818171299036,0.12013218798050956,0.25718106181882894,0.2501166901545951,0.007675260463739587,0.03963730597081019,-0.0012894379225890833,0.0,0.0,0.0,0.0,0.0,0.0,0.0,0.0,0.0,0.0
0.6548068523406982,1.0317212345475373,0.07128452154866582,0.18999860496091614,0.12263768633510455,0.2604168638501303,0.2509264542268604,0.009268204825568957,0.03682082230514376,-0.0009804371355104455,0.0,0.0,0.0,0.0,0.0,0.0,0.0,0.0,0.0,0.0
0.660088062286377,1.032452673374014,0.07273531148401846,0.19123047661315373,0.12512881247355062,0.26362095834877686,0.25150528826107754,0.010784336835419309,0.034113438033316464,-0.0006833375840573099,0.0,0.0,0.0,0.0,0.0,0.0,0.0,0.0,0.0,0.0
0.6653444766998291,1.0331920363258997,0.07419388793733177,0.192453076102875,0.12759305488370612,0.26677444239947834,0.25185426351531315,0.012243440900464978,0.031537117697694836,-0.0003849466006614255,0.0,0.0,0.0,0.0,0.0,0.0,0.0,0.0,0.0,0.0
0.6706206798553467,1.0339425803219493,0.0756656430176954,0.1936702994638738,0.13001965208529542,0.2698586984362977,0.25197543348812923,0.01363814223720378,0.029075041237646454,-7.697419855238536e-05,0.0,0.0,0.0,0.0,0.0,0.0,0.0,0.0,0.0,0.0
0.675891637802124,1.0347033348104744,0.07714795011177664,0.19488148514521988,0.1324071954940404,0.2728686830805249,0.2518825989754721,0.014951956575920446,0.026720125192235343,0.00023715199884399773,0.0,0.0,0.0,0.0,0.0,0.0,0.0,0.0,0.0,0.0
0.6811745166778564,1.0354708375695054,0.07863199943767851,0.19608142760211925,0.13475304358349105,0.27579239217369733,0.25158863799091824,0.01618953407840739,0.024473157985421545,0.000546511880846101,0.0,0.0,0.0,0.0,0.0,0.0,0.0,0.0,0.0,0.0
0.6864066123962402,1.0362451800780648,0.08011768892155002,0.19726972785071806,0.13704735489657288,0.2785995686376952,0.25109560563648514,0.017373140170463902,0.02233046617789216,0.000842297189576371,0.0,0.0,0.0,0.0,0.0,0.0,0.0,0.0,0.0,0.0
0.6916844844818115,1.037028785524046,0.08161200010498437,0.1984499896450969,0.13928244198605255,0.28126631316352135,0.25040690099207885,0.01852845617665011,0.02030289964288224,0.001121975212065664,0.0,0.0,0.0,0.0,0.0,0.0,0.0,0.0,0.0,0.0
0.6969454288482666,1.0378199036140237,0.08311337302307037,0.1996204473142406,0.1414569953266017,0.2837902368614866,0.24953517449650756,0.019678002466847186,0.01840418714835399,0.0013872593639619123,0.0,0.0,0.0,0.0,0.0,0.0,0.0,0.0,0.0,0.0
0.7022020816802979,1.0386136069271965,0.0846137606313757,0.20077529682391435,0.14356465172911506,0.2861679534303186,0.24848826065592242,0.02081699393216857,0.016642414628408358,0.001643939662526365,0.0,0.0,0.0,0.0,0.0,0.0,0.0,0.0,0.0,0.0
0.7074854373931885,1.0394106945381938,0.08611324512102869,0.20191514169345728,0.14558981971076584,0.28838051347697696,0.24726216107543744,0.021943885207072217,0.01502700534860574,0.0018990174937776085,0.0,0.0,0.0,0.0,0.0,0.0,0.0,0.0,0.0,0.0
0.7128329277038574,1.0402158946593127,0.08761800207519699,0.20304486600306457,0.14752339319740004,0.2904145115697143,0.2458579647791767,0.0230672462051065,0.013562233694722859,0.002156900283137012,0.0,0.0,0.0,0.0,0.0,0.0,0.0,0.0,0.0,0.0
0.7180683612823486,1.0410275906176512,0.08912679691695492,0.20416240415946818,0.14936968726453562,0.2922755858116924,0.24428970007714335,0.024171189999818224,0.01223752644716444,0.002413931300311168,0.0,0.0,0.0,0.0,0.0,0.0,0.0,0.0,0.0,0.0
0.7233295440673828,1.0418442373792316,0.09063911603427921,0.20526590588807536,0.1511340368837941,0.2939756244595318,0.2425710219217842,0.025240876343608887,0.011044360635154066,0.002659432884832854,0.0,0.0,0.0,0.0,0.0,0.0,0.0,0.0,0.0,0.0
0.7285676002502441,1.0426691666370256,0.09216103909974302,0.20635835940273375,0.1528210067938599,0.29553195023616086,0.24071312057756578,0.026271216232863073,0.00999560239733272,0.002884452010801016,0.0,0.0,0.0,0.0,0.0,0.0,0.0,0.0,0.0,0.0
0.7338685989379883,1.0435015716266658,0.09369059310187347,0.20743716011833446,0.15444074760709336,0.2969723440953184,0.23872973066117048,0.027262470185493992,0.009118216119357267,0.003087684578720854,0.0,0.0,0.0,0.0,0.0,0.0,0.0,0.0,0.0,0.0
0.7391247749328613,1.0443368108770055,0.09521966326163438,0.20849587688874077,0.155999637875522,0.2983149930678402,0.23662504184916947,0.028206022685457022,0.008434789619514535,0.0032747020291311203,0.0,0.0,0.0,0.0,0.0,0.0,0.0,0.0,0.0,0.0
0.744434118270874,1.0451748100965246,0.096748292468203,0.20953401905230995,0.15749286743641067,0.299556497670634,0.23438740892231696,0.029074692826147698,0.007944356281262745,0.003448617706245424,0.0,0.0,0.0,0.0,0.0,0.0,0.0,0.0,0.0,0.0
0.7496776580810547,1.0460201557373063,0.09828244167674721,0.2105560476681593,0.1589178143518682,0.30069408552890553,0.2320071820782153,0.02986411478682093,0.007642592833274217,0.003606441975656337,0.0,0.0,0.0,0.0,0.0,0.0,0.0,0.0,0.0,0.0
0.7549068927764893,1.0468724309678636,0.09982035503062081,0.21156157288833083,0.1602835169842375,0.30173915749876024,0.2294887096331161,0.030575005893260402,0.007528260818520727,0.0037433397082475,0.0,0.0,0.0,0.0,0.0,0.0,0.0,0.0,0.0,0.0
0.7601888179779053,1.0477270107783618,0.10135390465724073,0.2125454668665766,0.16159755988066887,0.30269659956473893,0.22683693526597454,0.0311932894381512,0.007572173994865624,0.003854127783602886,0.0,0.0,0.0,0.0,0.0,0.0,0.0,0.0,0.0,0.0
0.7654271125793457,1.0485846314269038,0.10288326762183109,0.21350700626507835,0.16285726215746063,0.30355249690872166,0.22404617041195973,0.03172901102504173,0.00775715523521804,0.003944579697673111,0.0,0.0,0.0,0.0,0.0,0.0,0.0,0.0,0.0,0.0
0.7706809043884277,1.0494491822411751,0.10441642864751915,0.21444895236667127,0.16406249854716126,0.30429819172383865,0.22111071405201324,0.03220556942653441,0.008101266294115197,0.004035277056229249,0.0,0.0,0.0,0.0,0.0,0.0,0.0,0.0,0.0,0.0
0.7759308815002441,1.0503198242221006,0.10595289561007691,0.21537122078791027,0.16522288537587165,0.30494654766957385,0.2180344353412323,0.032632124540460855,0.0086063385716668,0.004137845118561547,0.0,0.0,0.0,0.0,0.0,0.0,0.0,0.0,0.0,0.0
0.7811813354492188,1.0511933142896988,0.10748474256575176,0.21627312493580722,0.16634597403652787,0.30550899816311294,0.2148256676615243,0.03300825963287829,0.009243915186617284,0.004239602751931793,0.0,0.0,0.0,0.0,0.0,0.0,0.0,0.0,0.0,0.0
0.7864456176757812,1.0520709798186845,0.10901208055925245,0.217156992563022,0.16743198983289273,0.30597860876457195,0.21149498643865194,0.03334577173671945,0.00998544320591588,0.004317590276316306,0.0,0.0,0.0,0.0,0.0,0.0,0.0,0.0,0.0,0.0
0.7916944026947021,1.0529568788544537,0.11054168146938775,0.2180265543930922,0.16848578145606383,0.30635085156185143,0.20806209881158,0.03365124896605797,0.010828447994665001,0.004360942743049417,0.0,0.0,0.0,0.0,0.0,0.0,0.0,0.0,0.0,0.0
0.7969822883605957,1.053850236323742,0.11207259528650229,0.2188813476950885,0.1695215554779959,0.306638343134372,0.204555391109964,0.03391499466140405,0.011781277082552305,0.0043637101705405815,0.0,0.0,0.0,0.0,0.0,0.0,0.0,0.0,0.0,0.0
0.8022372722625732,1.0547460156237074,0.11359773058114189,0.21971653077774644,0.17054828484677603,0.30685060539089476,0.20099697436624972,0.034141450592903314,0.01285003471236397,0.004329401014167221,0.0,0.0,0.0,0.0,0.0,0.0,0.0,0.0,0.0,0.0
0.8074636459350586,1.0556439210808928,0.11511815467969365,0.22053110188094405,0.17156100209544145,0.306981339135916,0.1973933436859802,0.034336180854631054,0.014048991766872835,0.004283687275199698,0.0,0.0,0.0,0.0,0.0,0.0,0.0,0.0,0.0,0.0
0.8127186298370361,1.0565488463655899,0.11664121634623859,0.22132955564068899,0.17255522594349357,0.30702995913688685,0.19374809708406535,0.034500124933066735,0.015379539095895995,0.004237581075549492,0.0,0.0,0.0,0.0,0.0,0.0,0.0,0.0,0.0,0.0
0.8179950714111328,1.057460787808232,0.1181658076767326,0.22211376439390482,0.17353829564188136,0.30701406513744545,0.190075968592254,0.03464006658503922,0.016806787069832095,0.0041803412902598185,0.0,0.0,0.0,0.0,0.0,0.0,0.0,0.0,0.0,0.0
0.8232507705688477,1.0583799172875927,0.11969069963829071,0.2228842070662321,0.1745219430248269,0.3069535090586788,0.1863990177998065,0.034771415523306044,0.018299285925147905,0.00410714730300671,0.0,0.0,0.0,0.0,0.0,0.0,0.0,0.0,0.0,0.0
0.8285071849822998,1.0593109585385903,0.1212212045143552,0.22364427408565643,0.17552116363612294,0.3068671144331582,0.182741912822065,0.03491921615673656,0.019850490800762368,0.004018383548813972,0.0,0.0,0.0,0.0,0.0,0.0,0.0,0.0,0.0,0.0
0.8337574005126953,1.0602522923057944,0.1227556176709154,0.22439409240000951,0.176556489125754,0.30677905375536346,0.17913215646261166,0.03508233429844672,0.021457492604028836,0.003920136748248445,0.0,0.0,0.0,0.0,0.0,0.0,0.0,0.0,0.0,0.0
0.8390088081359863,1.0611975167442491,0.12428705450271393,0.2251294927989891,0.17763811052899242,0.306703199051933,0.1755901414196827,0.03523717713803745,0.023123168302031864,0.0038235243754376055,0.0,0.0,0.0,0.0,0.0,0.0,0.0,0.0,0.0,0.0
0.8442833423614502,1.062146039558471,0.12581607675283626,0.22584908760106853,0.1787565173864796,0.30663385774919816,0.17212005525660662,0.03537641229474293,0.024848693669480615,0.0037397889823610783,0.0,0.0,0.0,8481.0,32998.0,28852.0,9643.0,0.0,0.0,0.0
0.8495151996612549,1.0631017178241893,0.12734929389477373,0.22655475894454774,0.1798991439739232,0.30656726724905825,0.16871804473023694,0.035498888804391934,0.026633725850072523,0.0036776306039564013,0.0,0.0,0.0,8481.0,32998.0,28852.0,9643.0,0.0,0.0,0.0
0.8547735214233398,1.0640634848185684,0.12888577700017323,0.22724674902038572,0.181062103031729,0.30651460020148047,0.16538241789533334,0.035596487738766114,0.028465505025587583,0.0036368902555946646,0.0,0.0,0.0,8481.0,32998.0,28852.0,9643.0,0.0,0.0,0.0
0.8600301742553711,1.0650261727735943,0.1304181465249089,0.22792420635890798,0.18223801286704755,0.3064815818274685,0.1621120275528969,0.03565504074166115,0.030310393482953498,0.0036138903726333077,0.0,0.0,0.0,5481.0,34819.0,30584.0,6684.0,0.0,0.0,0.0
0.8653018474578857,1.0659901371072438,0.1319467687528084,0.22858802704715367,0.1834084291676977,0.30645537646459914,0.1589038827215774,0.035681658448346934,0.0321468743674041,0.003594640911755985,0.0,0.0,0.0,5481.0,34819.0,30584.0,6684.0,0.0,0.0,0.0
0.8705945014953613,1.0665841708194879,0.13273765461262457,0.2286828944167312,0.18414226368777076,0.305604526996408,0.15513965833921844,0.03535418828975597,0.033664780974452246,0.0035451794087714562,0.0,0.0,0.0,8022.0,33187.0,29035.0,9193.0,0.0,0.0,0.0
0.8758401870727539,1.0665148432102962,0.1322131345407068,0.22777524551631712,0.18295609436338806,0.30101420013187197,0.14862571150931944,0.034399646348284685,0.03462131807332991,0.0034539260342980457,0.0,0.0,0.0,8022.0,33187.0,29035.0,9193.0,0.0,0.0,0.0
0.881127119064331,1.0663104244565846,0.13141454685401038,0.2266533871545559,0.17822811103137648,0.2894930634976691,0.13696336388948205,0.033294788187262676,0.035435855344777965,0.003350646139394753,0.0,0.0,0.0,8022.0,33187.0,29035.0,9193.0,0.0,0.0,0.0
0.8863728046417236,1.066402141262972,0.13118854843626523,0.22595434692035948,0.17006206265223628,0.27124607341133466,0.12031918610906027,0.032409613921552324,0.03644121017905253,0.0032654408110222343,0.0,0.0,0.0,13069.0,28436.0,24525.0,14372.0,0.0,0.0,0.0
0.8916232585906982,1.0667572016900624,0.1314674334066424,0.22562316919614314,0.1601225827791257,0.24954290317343558,0.10116231703774436,0.03167600739225116,0.037608196418967677,0.0032101791366496175,0.0,0.0,0.0,13069.0,28436.0,24525.0,14372.0,0.0,0.0,0.0
0.8969190120697021,1.067338231933971,0.13217915258927715,0.22560728327184923,0.15014593335569798,0.22778711880798644,0.08205181262767919,0.031067078340901756,0.038908337786561956,0.0031748434729679856,0.0,0.0,0.0,19786.0,17902.0,14639.0,21415.0,0.0,0.0,0.0
0.9021594524383545,1.0681045736117558,0.13324876960161808,0.22585486329150034,0.14135905777941368,0.20838760706758966,0.0648010179794769,0.03058412431340416,0.04028884290961183,0.003141751056980295,0.0,0.0,0.0,19786.0,17902.0,14639.0,21415.0,0.0,0.0,0.0
0.9074268341064453,1.0690248897448489,0.13461504823374054,0.22631808476498846,0.13455180519551613,0.19290727711668698,0.05059463840151023,0.030220546257827687,0.041704944806723376,0.003110967798664376,0.0,0.0,0.0,19786.0,17902.0,14639.0,21415.0,0.0,0.0,0.0
0.9127590656280518,1.0700766033437505,0.1362294833803238,0.22695627295305393,0.13017322296666675,0.1822382128355271,0.04010531973502864,0.0299476168824857,0.04313305891152926,0.003096814229091945,0.0,0.0,0.0,21419.0,13902.0,10967.0,23156.0,0.0,0.0,0.0
0.918022632598877,1.0712335194668983,0.13804088983326604,0.2277319449975332,0.12841523189739115,0.17675596335781837,0.03360456174761748,0.029731251208012045,0.044551981391334775,0.0031105763866358135,0.0,0.0,0.0,21419.0,13902.0,10967.0,23156.0,0.0,0.0,0.0
0.9232800006866455,1.072471662014321,0.14000449252384684,0.2286121089890348,0.1292637393096099,0.17642938605432654,0.03105658688257379,0.02954249000543302,0.04591776914331095,0.0031542638966130456,0.0,0.0,0.0,25702.0,6036.0,8440.0,22223.0,0.0,0.0,0.0
0.9285829067230225,1.0737756423555838,0.14208788942299058,0.22957030252066402,0.1325504171206375,0.1809273057923664,0.0322010757078107,0.029363622676892936,0.04718885843295685,0.0032250458361874675,0.0,0.0,0.0,25702.0,6036.0,8440.0,22223.0,0.0,0.0,0.0
0.9338724613189697,1.0751281273794275,0.14425460709174012,0.23058093421505474,0.1380065004143192,0.18971564774399677,0.03662408703135914,0.0292042492625741,0.04836825915476825,0.0033163270319290514,0.0,0.0,0.0,25702.0,6036.0,8440.0,22223.0,0.0,0.0,0.0
0.9391303062438965,1.076509398655237,0.1464664364237997,0.2316205308681471,0.1452913172141181,0.20211246069113176,0.043809353857670034,0.02908195604666489,0.04943835446506345,0.0034123633774502983,0.0,0.0,0.0,25582.0,7109.0,9504.0,22097.0,0.0,0.0,0.0
0.9444165229797363,1.0779076677961337,0.14869895010108375,0.232672329321361,0.15401551196919347,0.21733940931301488,0.053183212629950447,0.029004725775083156,0.05036249093997994,0.0034961203489069846,0.0,0.0,0.0,25582.0,7109.0,9504.0,22097.0,0.0,0.0,0.0
0.9496638774871826,1.0793180092565164,0.15093968053474194,0.23372394581811035,0.1637819206679248,0.23460011925333288,0.06416083469104368,0.02896241994693915,0.05113679735757322,0.0035664192049045668,0.0,0.0,0.0,24945.0,9725.0,11762.0,21322.0,0.0,0.0,0.0
0.9548945426940918,1.0807314992315713,0.15317174377863763,0.2347631773109205,0.17421550580317613,0.25313832450561496,0.07617876471685797,0.028935599961814044,0.051766145270562496,0.0036375874758486776,0.0,0.0,0.0,24945.0,9725.0,11762.0,21322.0,0.0,0.0,0.0
0.9601695537567139,1.0821358035912507,0.15537428483788795,0.23577775937305998,0.18496222651450428,0.2722457093620879,0.08870834286266495,0.028922479834371396,0.05226556328991717,0.003725129089364029,0.0,0.0,0.0,24945.0,9725.0,11762.0,21322.0,0.0,0.0,0.0
0.9653892517089844,1.0835260120836747,0.1575378467732434,0.23676000653663937,0.19568894196527134,0.29126699617156476,0.1012656346593326,0.028932093125077128,0.05264304146786475,0.0038220686060549862,0.0,0.0,0.0,20608.0,16750.0,13516.0,22412.0,0.0,0.0,0.0
0.9706928730010986,1.0849044517741935,0.15966280529948193,0.23770818403992594,0.20610733590480815,0.3096356766975492,0.11342993160882686,0.028956403616628806,0.05289088399257185,0.003908871345273961,0.0,0.0,0.0,20608.0,16750.0,13516.0,22412.0,0.0,0.0,0.0
0.975982666015625,1.086269496728032,0.16174336828816235,0.23861968406425244,0.21599127333150225,0.32689648723153364,0.12485778559686497,0.028980239540376998,0.053013375144392506,0.0039782316921987875,0.0,0.0,0.0,20610.0,16688.0,13447.0,22511.0,0.0,0.0,0.0
0.9812195301055908,1.0876148334529478,0.16376873557029,0.23949029269432448,0.22516349013675352,0.34268501621874303,0.13527811391737365,0.029015780208549773,0.05301052778040468,0.004024737029631233,0.0,0.0,0.0,19938.0,18117.0,14647.0,21867.0,0.0,0.0,0.0
0.9865527153015137,1.0889396641151736,0.16573950086038977,0.24031946593289924,0.23348112780421934,0.35671237610202855,0.14448333400010543,0.029085874810342624,0.05287981501860036,0.004057383589886622,0.0,0.0,0.0,19938.0,18117.0,14647.0,21867.0,0.0,0.0,0.0
0.9918067455291748,1.0902491795919462,0.16766486646655668,0.24110983223793278,0.24084571828360818,0.3687858166287109,0.1523311895412848,0.029191663037774852,0.05261592615681049,0.00409755848620472,0.0,0.0,0.0,21399.0,17853.0,19598.0,18380.0,0.0,0.0,0.0
0.9971132278442383,1.0915439138244079,0.16954510448471255,0.2418639174745983,0.24721075407324072,0.37881566508115444,0.15874587977392088,0.029316021078972625,0.05219684794195967,0.004145784978718296,0.0,0.0,0.0,21399.0,17853.0,19598.0,18380.0,0.0,0.0,0.0
1.0023818016052246,1.0928247945610907,0.17138119240427138,0.24258361271962792,0.2525691193949825,0.38678730752965507,0.1637090879263577,0.029445859018170074,0.05163084559648069,0.004199557312128002,0.0,0.0,0.0,20888.0,18516.0,20358.0,17918.0,0.0,0.0,0.0
1.007645845413208,1.0940971938119661,0.1731818294877011,0.2432706702606165,0.2569460385762587,0.3927467856354574,0.167247261697815,0.029587068529946463,0.05094502032886816,0.0042583939439605,0.0,0.0,0.0,17732.0,21552.0,18583.0,19983.0,0.0,0.0,0.0
1.0129082202911377,1.095359650883859,0.17494783913519238,0.24392558589532753,0.26039479025944645,0.3967968644995519,0.16941970565409373,0.02975880742271635,0.05013616978718543,0.004306530504590268,0.0,0.0,0.0,17732.0,21552.0,18583.0,19983.0,0.0,0.0,0.0
1.0181379318237305,1.0960581511407912,0.17570139059238857,0.24392385629716373,0.26236718573346246,0.3979896729168898,0.16961494311145026,0.029573992821789692,0.04898761320198532,0.004342655797376728,0.0,0.0,0.0,17527.0,21837.0,18983.0,19876.0,0.0,0.0,0.0
1.0233955383300781,1.0957683446224058,0.17468891881092435,0.24278238903706173,0.26075663793691123,0.3926271187280761,0.16546758084385857,0.02871703723611694,0.047339920104951,0.004381746648306605,0.0,0.0,0.0,17527.0,21837.0,18983.0,19876.0,0.0,0.0,0.0
1.0286481380462646,1.0952748632299654,0.1732984576146291,0.24139073706663305,0.25327045186658764,0.37667710676631966,0.15440244603978176,0.027743270103359818,0.045491450382686344,0.00442331035512173,0.0,0.0,0.0,20136.0,19735.0,21617.0,17367.0,0.0,0.0,0.0
1.0339303016662598,1.095204396483552,0.17264226273750805,0.24046450681228443,0.24016679859060067,0.35062047348090003,0.13674067457238126,0.027091965600227218,0.0436900579288438,0.004458145533587501,0.0,0.0,0.0,17430.0,21983.0,19214.0,19986.0,0.0,0.0,0.0
1.0392487049102783,1.0954950078157337,0.17261538597520146,0.23993923477843643,0.22396753060052754,0.31895467029750874,0.11538689519284595,0.026700609365986172,0.041945827794027724,0.004485421736096765,0.0,0.0,0.0,17430.0,21983.0,19214.0,19986.0,0.0,0.0,0.0
1.0445117950439453,1.0960946054266896,0.17312785482723522,0.23975605681168285,0.20726043429724794,0.28630619447826344,0.09333410348519208,0.026520780254833343,0.040246854937668504,0.004512737128598866,0.0,0.0,0.0,20320.0,19374.0,21620.0,17954.0,0.0,0.0,0.0
1.049757480621338,1.0969604433986908,0.17410229402346933,0.23986257481026066,0.19189753774594193,0.2560001536388611,0.07273454284538035,0.026527105395463723,0.038543337526160446,0.004544120875463204,0.0,0.0,0.0,20320.0,19374.0,21620.0,17954.0,0.0,0.0,0.0
1.0550143718719482,1.0980469050589883,0.1754590882263062,0.24020833069013087,0.179129062346461,0.23028782575736445,0.055042156492201774,0.02671722757134838,0.036809453550221555,0.004577488665307253,0.0,0.0,0.0,17782.0,21185.0,18892.0,20783.0,0.0,0.0,0.0
1.0602390766143799,1.0993076504627275,0.1771189902463999,0.2407461019218777,0.16969877645805304,0.21052005666839918,0.04113450766985169,0.02708341166005112,0.03504695154228519,0.004616409601282733,0.0,0.0,0.0,17957.0,20636.0,18585.0,21055.0,0.0,0.0,0.0
1.0656003952026367,1.1007073564540564,0.1790186629540235,0.24143546117835674,0.16393581618934872,0.19731264433398343,0.0314249935503559,0.027589008845287255,0.033262874097088335,0.0046652234105018075,0.0,0.0,0.0,17957.0,20636.0,18585.0,21055.0,0.0,0.0,0.0
1.0709202289581299,1.1022195269402646,0.1811090318062262,0.2422415360764483,0.16186339039460762,0.19073059844835075,0.02597095071563348,0.02819936883133324,0.031456188401307206,0.004716799064258938,0.0,0.0,0.0,18268.0,19881.0,18125.0,21516.0,0.0,0.0,0.0
1.076228380203247,1.1038147078238956,0.18333975018229992,0.24313208832686298,0.16328770989099303,0.19044426291460895,0.024566078860731047,0.02889879771808764,0.029623290089098614,0.004766271827279351,0.0,0.0,0.0,18268.0,19881.0,18125.0,21516.0,0.0,0.0,0.0
1.081618070602417,1.1054672008683308,0.18566698102557933,0.24407966585797491,0.16785289993212943,0.19583544751252713,0.026814834062787476,0.02968271860482489,0.027754637494763354,0.00481002996101835,0.0,0.0,0.0,18393.0,19910.0,17940.0,21556.0,0.0,0.0,0.0
1.0869171619415283,1.1071611616938606,0.18805967074010518,0.24506322557881252,0.17509714869719367,0.20609580208368034,0.032199531262613386,0.030555689361502558,0.025828830925655286,0.004836979171457038,0.0,0.0,0.0,21129.0,17713.0,20462.0,19108.0,0.0,0.0,0.0
1.092270851135254,1.1088781169882853,0.19048544411794627,0.24606194399363543,0.18450714455101402,0.22031671082649903,0.040135910411335074,0.03150575174352139,0.023865475747359387,0.004852963655148026,0.0,0.0,0.0,21129.0,17713.0,20462.0,19108.0,0.0,0.0,0.0
1.0976617336273193,1.109957081070754,0.19184605604406035,0.24643274764124432,0.19483255721972803,0.23635908754612803,0.049317151961702846,0.031791381665911556,0.022098623796193352,0.004851531870962284,0.0,0.0,0.0,18702.0,19505.0,17696.0,21853.0,0.0,0.0,0.0
1.1029706001281738,1.1098883830097326,0.19129175817179153,0.24567774995088185,0.20300088980323105,0.2490567857070477,0.056668389301642336,0.03083755740338104,0.020680895082148855,0.004824094780374528,0.0,0.0,0.0,18702.0,19505.0,17696.0,21853.0,0.0,0.0,0.0
1.1083364486694336,1.1095752584266971,0.1903223433291543,0.24467146967294398,0.20573806283719712,0.2529080630899131,0.05892054326512044,0.029643178227585863,0.0193313955118495,0.004812198645827256,0.0,0.0,0.0,18829.0,19482.0,17483.0,21958.0,0.0,0.0,0.0
1.1136326789855957,1.1097413323999148,0.19014152246378638,0.24411863677263704,0.2027823276631273,0.24742079672691208,0.05573695665242982,0.029008458900919517,0.0178277993369035,0.004842667275348048,0.0,0.0,0.0,18911.0,19567.0,17491.0,21796.0,0.0,0.0,0.0
1.118964433670044,1.1103155864362946,0.19062935770436465,0.2439512413450422,0.19657718049381834,0.23660629778899117,0.04942504623270814,0.028858827382407463,0.016188495731157226,0.00489618163233262,0.0,0.0,0.0,18911.0,19567.0,17491.0,21796.0,0.0,0.0,0.0
1.124372959136963,1.1112371305928075,0.19168130615159618,0.24410706382668623,0.18972863836917966,0.2247475071034402,0.04246342194256875,0.029135163556321265,0.014437865758820563,0.004952053215437934,0.0,0.0,0.0,21502.0,17561.0,20122.0,19212.0,0.0,0.0,0.0
1.1296885013580322,1.1124433184386864,0.19319513513370934,0.24452624762129332,0.18405469958835455,0.21481930148621897,0.03657167415083918,0.029755361596835648,0.01259793053016891,0.005008136888994806,0.0,0.0,0.0,21502.0,17561.0,20122.0,19212.0,0.0,0.0,0.0
1.135007381439209,1.1138718446525901,0.19507237650877424,0.24515190703620743,0.18070972014185452,0.20870946214259073,0.032838394659407674,0.03063388837004532,0.010708071510695647,0.005068507448219065,0.0,0.0,0.0,21502.0,17561.0,20122.0,19212.0,0.0,0.0,0.0
1.1403205394744873,1.1154735058166882,0.1972323888580049,0.2459356956080963,0.18030434958322422,0.2074240364604315,0.031841407231561036,0.0317133530988745,0.008801734091068401,0.00513669276570586,0.0,0.0,0.0,18892.0,19772.0,17490.0,21635.0,0.0,0.0,0.0
1.1456389427185059,1.1172108221730221,0.19961066041434744,0.24683824838956006,0.18304271966043212,0.21130224906690248,0.0337688823682181,0.0329493203470205,0.006880140123121142,0.005221855314371157,0.0,0.0,0.0,18892.0,19772.0,17490.0,21635.0,0.0,0.0,0.0
1.1509532928466797,1.1190449920556527,0.20214388417462642,0.24782353518296527,0.188837946817942,0.22019866832224255,0.03852585892584051,0.03429151128554708,0.004960264271427211,0.00532298918124616,0.0,0.0,0.0,21500.0,17755.0,20168.0,18998.0,0.0,0.0,0.0
1.1562716960906982,1.1209375744667762,0.20477090591750502,0.24885985867950214,0.1973824931765839,0.23360591084925958,0.04581490158775839,0.03570363059188264,0.003053023837312719,0.005420001729030052,0.0,0.0,0.0,18829.0,19853.0,17541.0,21576.0,0.0,0.0,0.0
1.161684274673462,1.1228621909302499,0.20744721916962125,0.24992254505857714,0.20821164474225784,0.25076255368108713,0.05520411653073945,0.03717444517014795,0.001157946011537465,0.005489795457551924,0.0,0.0,0.0,18829.0,19853.0,17541.0,21576.0,0.0,0.0,0.0
1.1670045852661133,1.1240979434158584,0.20904212438599146,0.25040955620304095,0.22000236196286038,0.26955582343334256,0.065543852139409,0.037884544400825115,-3.3127570227915054e-05,0.005457743359092762,0.0,0.0,0.0,18783.0,19971.0,17569.0,21488.0,0.0,0.0,0.0
1.1723241806030273,1.1240776861639872,0.20866773223856971,0.24984995649203762,0.22941759155058297,0.2847170597651061,0.07400821507901442,0.03717327653176528,1.716447552301521e-05,0.00528299106192706,0.0,0.0,0.0,18783.0,19971.0,17569.0,21488.0,0.0,0.0,0.0
1.1777288913726807,1.1237835545892978,0.20785854666081643,0.24905338553142517,0.2328698605895527,0.29058673779054445,0.07756183120997295,0.03613127597106763,0.0003704280547236005,0.005083217191960138,0.0,0.0,0.0,21524.0,17898.0,20126.0,18890.0,0.0,0.0,0.0
1.1830360889434814,1.1240131740320196,0.20785905431610446,0.24867463269471593,0.23005149146401493,0.2866361291047762,0.07588169163390288,0.03563815050617432,0.00026958371741228924,0.004948783544994877,0.0,0.0,0.0,21482.0,18067.0,20108.0,18799.0,0.0,0.0,0.0
1.1883723735809326,1.124683483509564,0.20853974092131816,0.24864634776829095,0.22362018836710218,0.2769761780123244,0.07109975185115526,0.035599885386588905,-0.0002131084259149214,0.004865463735191845,0.0,0.0,0.0,21482.0,18067.0,20108.0,18799.0,0.0,0.0,0.0
1.1937706470489502,1.1257130135544564,0.20977538999848128,0.24890567037421402,0.21639408621709383,0.2659791358797234,0.06549891480549044,0.03594594447228771,-0.0010100290263302108,0.004806989280625263,0.0,0.0,0.0,18909.0,20337.0,17496.0,21104.0,0.0,0.0,0.0
1.1990957260131836,1.1270340404965236,0.21146088860879167,0.2493960164041471,0.21029980007499496,0.25663824736408086,0.0606487373808593,0.03661766469478431,-0.002049463120208128,0.004748555293578943,0.0,0.0,0.0,18909.0,20337.0,17496.0,21104.0,0.0,0.0,0.0
1.2044792175292969,1.1285903375702016,0.21350911366647085,0.2500665400167721,0.20655228351948515,0.2508453601954461,0.057537981939898994,0.03754745031115457,-0.0032564385940635028,0.004678655685856133,0.0,0.0,0.0,21612.0,18305.0,20014.0,18546.0,0.0,0.0,0.0
1.209763765335083,1.1303268730215599,0.21583493542855092,0.2508714181594266,0.20581170532640747,0.2496327570425605,0.05669363506822883,0.038647095779909796,-0.004576693350316728,0.00459882992925339,0.0,0.0,0.0,18778.0,20387.0,17327.0,20958.0,0.0,0.0,0.0
1.2150695323944092,1.132195912928145,0.2183636206064712,0.2517711587232124,0.20830280884387384,0.25335737886357995,0.058285723539911065,0.03984130891741927,-0.005955156683240631,0.004518141196200197,0.0,0.0,0.0,18778.0,20387.0,17327.0,20958.0,0.0,0.0,0.0
1.2204406261444092,1.1341609477152543,0.221037397341182,0.25273303466228403,0.21392661215559994,0.26187149952751354,0.06222175372394352,0.04108301722109414,-0.00733722283045813,0.0044460278363969204,0.0,0.0,0.0,21468.0,18413.0,20003.0,18199.0,0.0,0.0,0.0
1.2257742881774902,1.1361857279138603,0.22380007545051755,0.25372963953791117,0.2223603514677104,0.274677412621166,0.06822897060118782,0.042335863391038876,-0.008693896572031625,0.004380138039426138,0.0,0.0,0.0,21468.0,18413.0,20003.0,18199.0,0.0,0.0,0.0
1.2311041355133057,1.1382349037040982,0.22659843661293405,0.25473673784243644,0.23312323047437084,0.2910337848118104,0.0759191233009283,0.04356206065172412,-0.00999384590199548,0.004312136382546283,0.0,0.0,0.0,18774.0,20486.0,17370.0,20843.0,0.0,0.0,0.0
1.236386775970459,1.140284580899811,0.22939579052231593,0.2557339645636317,0.24563354169416715,0.3100472859427038,0.08483729839410246,0.044733783853216705,-0.011191874185129956,0.004233807674120467,0.0,0.0,0.0,18703.0,20505.0,17428.0,20823.0,0.0,0.0,0.0
1.2417545318603516,1.142320596522724,0.2321688334465859,0.2567060964419567,0.2592788475715814,0.33077745038557466,0.09450308092018016,0.04584190818864725,-0.01225448806092689,0.004132726672411899,0.0,0.0,0.0,18703.0,20505.0,17428.0,20823.0,0.0,0.0,0.0
1.247074842453003,1.1435749508793562,0.23378588229060943,0.25715726985240805,0.2726342933530977,0.35108623178850284,0.1039091650414669,0.04637077909407596,-0.012687943066285816,0.003985580662845352,0.0,0.0,0.0,18703.0,20505.0,17428.0,20823.0,0.0,0.0,0.0
1.252396583557129,1.1434501501682655,0.23336668841866304,0.25670233996180153,0.2821845078717914,0.36576015260321293,0.11071145715350432,0.045900708532666944,-0.012103109754677205,0.003791755783320785,0.0,0.0,0.0,18640.0,20504.0,17587.0,20723.0,0.0,0.0,0.0
1.2577736377716064,1.1430068195677108,0.23247189534745516,0.2560212433776271,0.2841984302680284,0.3692731095229703,0.11244068256439545,0.04511192664892171,-0.011163005413713796,0.0036049876769939787,0.0,0.0,0.0,18640.0,20504.0,17587.0,20723.0,0.0,0.0,0.0
1.2631175518035889,1.1430962148491333,0.23235553858176114,0.25566150259148085,0.27848810761410153,0.3613216739147326,0.10891939508484062,0.04455922359296475,-0.010416108467030515,0.003466218717329372,0.0,0.0,0.0,18454.0,20373.0,17504.0,20713.0,0.0,0.0,0.0
