T,Px,Py,Pz,Vx,Vy,Vz,Roll,Pitch,Yaw,R_rate,P_rate,Y_rate,T,M1,M2,M3,Wb1,Wb2,Wb3
0,0.07443741708993912,0.1387086659669876,0.10525460541248322,0.0,0.0,0.0,-0.005276908755025563,0.011859622714862999,0.0636531787087898,0.0,0.0,0.0,0.0,0.0,0.0,0.0,0.0,0.0,0.0
0.00020384788513183594,0.0004127261672439773,0.0007687074451644985,0.0005832823694620366,0.0004575248860632752,0.0008521455971968318,0.0006465938455341051,-3.010328117063504e-05,6.125973634555704e-05,0.00035463476866743883,0.0,0.0,0.0,0.0,0.0,0.0,0.0,0.0,0.0,0.0
0.005644559860229492,0.0019722890087926076,0.0036731343528910824,0.002787100174465054,0.0034576612340974314,0.006439627834392944,0.004886267827303615,-0.00014424187996203683,0.00028809925046073185,0.0016966429475676957,0.0,0.0,0.0,0.0,0.0,0.0,0.0,0.0,0.0,0.0
0.011052608489990234,0.004828235434682493,0.008992028887956907,0.006822919778997141,0.01286467089653647,0.023959064310050897,0.01817960792168766,-0.000354008157527152,0.0007042045181116326,0.004154284459446572,0.0,0.0,0.0,0.0,0.0,0.0,0.0,0.0,0.0,0.0
0.016423702239990234,0.008658802194326815,0.01612682482927385,0.012236650802992726,0.03241968238409911,0.06037884809979356,0.04581403866026307,-0.0006358310907245701,0.0012718646178676767,0.007447686541417286,0.0,0.0,0.0,0.0,0.0,0.0,0.0,0.0,0.0,0.0
0.021785974502563477,0.013185330659974308,0.024557667657248018,0.018634427848418567,0.06403710826159059,0.11926589951371722,0.09049683408337766,-0.0009752774342542223,0.0019419548527095489,0.011340550559833459,0.0,0.0,0.0,0.0,0.0,0.0,0.0,0.0,0.0,0.0
0.0271759033203125,0.018169254519175355,0.033839320071475706,0.02567875448463161,0.10774362091914438,0.20066883474729552,0.15226726717450045,-0.001359933244388646,0.0026682811194328098,0.01563091209045256,0.0,0.0,0.0,0.0,0.0,0.0,0.0,0.0,0.0,0.0
0.03248000144958496,0.023408650664251334,0.04359657766240272,0.033084311286580806,0.1622308861464567,0.3021480475863235,0.22927677527780632,-0.0017656896384266477,0.0034290384616513913,0.020141720311668873,0.0,0.0,0.0,0.0,0.0,0.0,0.0,0.0,0.0,0.0
0.037825822830200195,0.02873630613421346,0.053518249213616156,0.04061432422486666,0.2253146627678344,0.4196343917530505,0.318437979285118,-0.00217226569051084,0.004202635130707315,0.024728920764332522,0.0,0.0,0.0,0.0,0.0,0.0,0.0,0.0,0.0,0.0
0.043174028396606445,0.03401669691222142,0.06335120455502774,0.04807639751504117,0.29431041208262915,0.5481279179873549,0.4159545675215213,-0.00256725019716002,0.004962018434597735,0.029277867417399572,0.0,0.0,0.0,0.0,0.0,0.0,0.0,0.0,0.0,0.0
0.04854297637939453,0.03914209946354949,0.07289518472607727,0.055318530659585655,0.3663320272535821,0.6822524385789088,0.5177436657998048,-0.0029426525815553434,0.005697231968105636,0.03369270621117458,0.0,0.0,0.0,0.0,0.0,0.0,0.0,0.0,0.0,0.0
0.053933143615722656,0.04402964123495298,0.08199669695360126,0.062224583732699026,0.4385202856903428,0.816683093430955,0.6197619488574214,-0.0032994649255439247,0.006407295267514303,0.03789886552292768,0.0,0.0,0.0,0.0,0.0,0.0,0.0,0.0,0.0,0.0
0.05930757522583008,0.04861899721337603,0.09054250677202655,0.0687093629493355,0.5082117949827206,0.9464611053264939,0.718245997424465,-0.0036516394779104416,0.007068773920623555,0.04185588169324013,0.0,0.0,0.0,0.0,0.0,0.0,0.0,0.0,0.0,0.0
0.06467437744140625,0.05286848086777907,0.09845385076079108,0.07471340956607021,0.5730572335860731,1.0672101087537964,0.8098768716617892,-0.00400480700060665,0.0076554335330318215,0.04553888777118585,0.0,0.0,0.0,0.0,0.0,0.0,0.0,0.0,0.0,0.0
0.07006239891052246,0.05675083388489358,0.10568132022133807,0.08019853500200184,0.6310931876039807,1.1752707572311414,0.8918800966784615,-0.004334857306838578,0.008179351671025854,0.04891092892870064,0.0,0.0,0.0,0.0,0.0,0.0,0.0,0.0,0.0,0.0
0.07542181015014648,0.060252377003889274,0.11220088015029953,0.08514617326335817,0.6807765127469874,1.2677704483680712,0.9620761577742583,-0.004625165411182138,0.008663550163889469,0.05194645843878383,0.0,0.0,0.0,0.0,0.0,0.0,0.0,0.0,0.0,0.0
0.08079075813293457,0.06337154635269092,0.11800885573743769,0.08955355487397301,0.7209943612688542,1.3426416614454444,1.018894902684624,-0.00487662805537971,0.009102645735923422,0.05464691087640833,0.0,0.0,0.0,0.0,0.0,0.0,0.0,0.0,0.0,0.0
0.08615326881408691,0.06611233630845899,0.1231108546558946,0.09342890025078711,0.7510512162351974,1.398590984204606,1.0613579273523932,-0.0051960096248996395,0.00950537929726235,0.056957377960036554,0.0,0.0,0.0,0.0,0.0,0.0,0.0,0.0,0.0,0.0
0.09154248237609863,0.06848595564256157,0.12752772938227416,0.09679141024354612,0.77063493157065,1.4350336383220412,1.0890364422797054,-0.005669671011588757,0.009896816389567653,0.058836937345870415,0.0,0.0,0.0,0.0,0.0,0.0,0.0,0.0,0.0,0.0
0.09690165519714355,0.07051589947058753,0.13130544358913093,0.09967038728312905,0.7797830625939224,1.4520372123899983,1.101999022787159,-0.006152618607964271,0.010260143148467862,0.060392035657333046,0.0,0.0,0.0,0.0,0.0,0.0,0.0,0.0,0.0,0.0
0.10226058959960938,0.07222907162083946,0.13449441711002247,0.10209976902898683,0.7788513898597379,1.4502677267337998,1.1007507216059484,-0.006533054565979064,0.010566286656051777,0.0617218400293811,0.0,0.0,0.0,0.0,0.0,0.0,0.0,0.0,0.0,0.0
0.10765576362609863,0.0736507142908159,0.13714111460803055,0.10411538328591327,0.7684619769386702,1.4308889932145974,1.0861584963292361,-0.006826439189493225,0.01081645349909113,0.06284341592995031,0.0,0.0,0.0,0.0,0.0,0.0,0.0,0.0,0.0,0.0
0.11303114891052246,0.07480694006665775,0.13929509465910123,0.10575474229813148,0.7494373954451992,1.3954372543810791,1.059371093961369,-0.0070348007854441836,0.011028483902710225,0.06376653902037828,0.0,0.0,0.0,0.0,0.0,0.0,0.0,0.0,0.0,0.0
0.1184394359588623,0.07572486384514122,0.14100677469106299,0.1070562857734176,0.7227437460808582,1.3457163635001184,1.021744308484238,-0.007165320376234433,0.011208008238435034,0.06450807188394857,0.0,0.0,0.0,0.0,0.0,0.0,0.0,0.0,0.0,0.0
0.12386322021484375,0.07643185301636173,0.14232615763189443,0.10805802355644614,0.6894441157012247,1.2837093586107673,0.9747731255364259,-0.007228944042746139,0.01134553328488459,0.06509616940538267,0.0,0.0,0.0,0.0,0.0,0.0,0.0,0.0,0.0,0.0
0.12922430038452148,0.07695426921503302,0.14330221800732337,0.10879703235315222,0.6506562443524572,1.2114976967794813,0.9200298913380415,-0.007233734533446487,0.011439344185329676,0.06555586335381959,0.0,0.0,0.0,0.0,0.0,0.0,0.0,0.0,0.0,0.0
0.13459229469299316,0.07731706392738913,0.14398170036232133,0.10930952930769833,0.6075133440743176,1.131190289999949,0.8591105441526591,-0.007194508675808053,0.011498068737363884,0.06589839240135259,0.0,0.0,0.0,0.0,0.0,0.0,0.0,0.0,0.0,0.0
0.1399989128112793,0.0775439752794046,0.144408457143987,0.10962971075612467,0.5611303062167008,1.0448619897272524,0.7935893511752266,-0.007125626575210748,0.011534482473123858,0.06612934598948732,0.0,0.0,0.0,0.0,0.0,0.0,0.0,0.0,0.0,0.0
0.1453537940979004,0.07765725120380398,0.14462350598808044,0.10978908180057306,0.5125767274827567,0.9545023438132121,0.7249799059616413,-0.00703348976644821,0.011561804463870538,0.06625959253813275,0.0,0.0,0.0,0.0,0.0,0.0,0.0,0.0,0.0,0.0
0.1507260799407959,0.07767708057383033,0.14466454071948032,0.10981610719916762,0.4628552871070697,0.8619753031259868,0.6547020795664669,-0.00691976959574856,0.011583545779132518,0.0663073594689709,0.0,0.0,0.0,0.0,0.0,0.0,0.0,0.0,0.0,0.0
0.1561594009399414,0.07762180902878069,0.144565582727264,0.10973617046120095,0.4128845860058615,0.7689883319829287,0.5840560702875064,-0.006785891269986418,0.011599268863838162,0.06629315381953355,0.0,0.0,0.0,0.0,0.0,0.0,0.0,0.0,0.0,0.0
0.16153979301452637,0.07750777902338236,0.1443569378199927,0.10957225598310905,0.3634869389912425,0.6770697783094877,0.514204554365668,-0.006639393248243393,0.011599401736701136,0.06624537068689652,0.0,0.0,0.0,0.0,0.0,0.0,0.0,0.0,0.0,0.0
0.1668860912322998,0.0773494440851915,0.14406526627045374,0.10934435853764968,0.31538074477750044,0.5875543182947903,0.4461622536047277,-0.006490959843390327,0.011569042883017452,0.06619326391128559,0.0,0.0,0.0,0.0,0.0,0.0,0.0,0.0,0.0,0.0
0.17216897010803223,0.07715895967976466,0.14371409619091272,0.1090695372945572,0.2691763022347521,0.5015762708702263,0.380790368219847,-0.006343350259648874,0.011521325988966878,0.06614500131706219,0.0,0.0,0.0,0.0,0.0,0.0,0.0,0.0,0.0,0.0
0.17756891250610352,0.07694626782717653,0.1433233725225198,0.10876388927867384,0.2253741700741756,0.42006940190103037,0.31879717518059625,-0.006204040585901561,0.011460031568357872,0.06610703872730486,0.0,0.0,0.0,0.0,0.0,0.0,0.0,0.0,0.0,0.0
0.18290925025939941,0.07672078518492029,0.14290894189925063,0.10844118084534969,0.18436789168594214,0.3437702119365066,0.26074481595026117,-0.006085243132703296,0.011363643470277338,0.0660880785381059,0.0,0.0,0.0,0.0,0.0,0.0,0.0,0.0,0.0,0.0
0.18819069862365723,0.07649087431305002,0.14248499000519657,0.10811273458789833,0.1464518001212748,0.2732260024427586,0.20705700023471857,-0.005990396627809927,0.01123885658763525,0.06608899804014957,0.0,0.0,0.0,0.0,0.0,0.0,0.0,0.0,0.0,0.0
0.19356203079223633,0.0762630518526353,0.14206464920517756,0.1077889129932629,0.11182928921567986,0.20881103633837853,0.15802812120905285,-0.005928255669846386,0.011100190517736168,0.06612013571170638,0.0,0.0,0.0,0.0,0.0,0.0,0.0,0.0,0.0,0.0
0.1989576816558838,0.07604304238536534,0.14165763656884317,0.10747794607038719,0.0806202799141771,0.15074474654254919,0.11383528647563765,-0.005920995303474821,0.010940050854746874,0.0661837220771949,0.0,0.0,0.0,0.0,0.0,0.0,0.0,0.0,0.0,0.0
0.20424580574035645,0.07583426001268948,0.14126911768875006,0.1071873292666169,0.05286882548504986,0.0991039275162911,0.07455114790831488,-0.00600925540267375,0.010739390057703444,0.06624657836037465,0.0,0.0,0.0,0.0,0.0,0.0,0.0,0.0,0.0,0.0
0.20960307121276855,0.07563715879908281,0.1409020244533439,0.10692326237842403,0.028547965563777894,0.053833092684615426,0.04015766938522765,-0.006217413387704189,0.010482653368188545,0.06626912031974988,0.0,0.0,0.0,0.0,0.0,0.0,0.0,0.0,0.0,0.0
0.21496295928955078,0.07545316957369141,0.14056055254484884,0.1066885028871425,0.007566428474648649,0.014763457798504707,0.010557088654161982,-0.006519590599670071,0.010173051366460685,0.0662433611738239,0.0,0.0,0.0,0.0,0.0,0.0,0.0,0.0,0.0,0.0
0.2203216552734375,0.07528520830271616,0.14024828655648713,0.10648431106021908,-0.010216003972405168,-0.01836110001097312,-0.014420761882881815,-0.006888109059431568,0.00982280246907707,0.06617095389228204,0.0,0.0,0.0,0.0,0.0,0.0,0.0,0.0,0.0,0.0
0.22568583488464355,0.07513516484353691,0.1399662218581723,0.10631112887951732,-0.024972399728838687,-0.04586379027782431,-0.035008301967205856,-0.0073049864677937944,0.009453360034028765,0.06603979041847309,0.0,0.0,0.0,0.0,0.0,0.0,0.0,0.0,0.0,0.0
0.23107290267944336,0.07499931998413274,0.13970669182700474,0.10616154352860563,-0.03690514238568281,-0.06813040002588738,-0.051494831395637604,-0.007810178922973438,0.009134643846711185,0.0657927603780793,0.0,0.0,0.0,0.0,0.0,0.0,0.0,0.0,0.0,0.0
0.23640012741088867,0.07487483685898133,0.13946458784478172,0.10602918042388304,-0.046248199716657314,-0.08560751426281789,-0.06422595658535939,-0.008441959666863608,0.008920047812195304,0.06540914872823736,0.0,0.0,0.0,0.0,0.0,0.0,0.0,0.0,0.0,0.0
0.24175620079040527,0.07476846772768883,0.1392508270607238,0.10592227068439473,-0.05324927662022262,-0.0987666696222769,-0.07357492652647475,-0.009097931580869413,0.008775768952095545,0.06497276114006471,0.0,0.0,0.0,0.0,0.0,0.0,0.0,0.0,0.0,0.0
0.2470693588256836,0.07468533058230795,0.13907159584467843,0.10584714477004674,-0.05814116050147576,-0.10805580778556709,-0.07989742512549709,-0.009697398096238654,0.0086891127760193,0.06452534075417822,0.0,0.0,0.0,0.0,0.0,0.0,0.0,0.0,0.0,0.0
0.2523624897003174,0.07462520771832709,0.13892405727087956,0.1058017257850554,-0.06113843990113732,-0.11389677028212683,-0.08352452709185017,-0.010248765627272605,0.008693054939287036,0.064066088494827,0.0,0.0,0.0,0.0,0.0,0.0,0.0,0.0,0.0,0.0
0.2577190399169922,0.07458684556813898,0.13880553007312615,0.10578534538635997,-0.06245116170546859,-0.11670622212689827,-0.0847794451702069,-0.010747952591408226,0.008807263503624036,0.06359587727051601,0.0,0.0,0.0,0.0,0.0,0.0,0.0,0.0,0.0,0.0
0.26303672790527344,0.07456736307087056,0.1387114524259308,0.10579883176688194,-0.06229109450675898,-0.11689918742897985,-0.08397646837578826,-0.011189401514699177,0.009034044204498513,0.06308576715684718,0.0,0.0,0.0,0.0,0.0,0.0,0.0,0.0,0.0,0.0
0.2683577537536621,0.07456383490124338,0.1386377298203636,0.10584236887528717,-0.06087149621258907,-0.11488365357787228,-0.08141160629768035,-0.011574815454195189,0.009353676714385204,0.06252372371642032,0.0,0.0,0.0,0.0,0.0,0.0,0.0,0.0,0.0,0.0
0.27371764183044434,0.07457369691969909,0.13858134039078268,0.10591478425090756,-0.05840359116002608,-0.11105278703306835,-0.0773609405313779,-0.011900763898297632,0.009743486783498609,0.06192037175449037,0.0,0.0,0.0,0.0,0.0,0.0,0.0,0.0,0.0,0.0
0.2790076732635498,0.07459445934364653,0.13853939460912376,0.10601646675202193,-0.055091458031380006,-0.10577612588605409,-0.07208046397373073,-0.012150117553475132,0.010188994015594617,0.06129446812712639,0.0,0.0,0.0,0.0,0.0,0.0,0.0,0.0,0.0,0.0
0.2844359874725342,0.07462402241860489,0.1385096782078602,0.10615125913406367,-0.05112793103899824,-0.09939386255689045,-0.06579862011747784,-0.012310917401032843,0.010662629991483895,0.060667717525725855,0.0,0.0,0.0,0.0,0.0,0.0,0.0,0.0,0.0,0.0
0.28983497619628906,0.07466129677199103,0.1384902444019491,0.10632262684226285,-0.04669049728552893,-0.09221320668357864,-0.058707755913708776,-0.012396552548130104,0.011120931432817777,0.06004461369733269,0.0,0.0,0.0,0.0,0.0,0.0,0.0,0.0,0.0,0.0
0.29523324966430664,0.07470590976144262,0.1384783858937661,0.10653456341568078,-0.04193695183013735,-0.08450764557404888,-0.050963469927909344,-0.012390986746248457,0.011498848058995835,0.05941773058907228,0.0,0.0,0.0,0.0,0.0,0.0,0.0,0.0,0.0,0.0
0.30055785179138184,0.07475699011357827,0.13847152629327825,0.10679229862550431,-0.03700366548663642,-0.0765188426435893,-0.04268635978355502,-0.01222932044401261,0.011721399135190633,0.058783996586200635,0.0,0.0,0.0,0.0,0.0,0.0,0.0,0.0,0.0,0.0
0.3059194087982178,0.07481320736025199,0.13846739280926604,0.10709731164679187,-0.03200764903608262,-0.06845783503740625,-0.033967151952788294,-0.011883252886182003,0.01175234679887996,0.05814603320582886,0.0,0.0,0.0,0.0,0.0,0.0,0.0,0.0,0.0,0.0
0.3112924098968506,0.07487403671854773,0.13846390911631526,0.1074486836508053,-0.027048493155139727,-0.06050541941312073,-0.024880243797842032,-0.011382975312146175,0.011586226039311334,0.05751376168743887,0.0,0.0,0.0,0.0,0.0,0.0,0.0,0.0,0.0,0.0
0.31657910346984863,0.07493801730690539,0.1384598588670217,0.10784895749571112,-0.022209390912140414,-0.05281244188965883,-0.015490943683546329,-0.010764981007315998,0.01126138560530032,0.056884698573262435,0.0,0.0,0.0,0.0,0.0,0.0,0.0,0.0,0.0,0.0
0.3219451904296875,0.07500177939311577,0.1384540863922501,0.10830284944390978,-0.0175618579834772,-0.04550022802442904,-0.0058484076561037815,-0.010057996724844673,0.010857243108281244,0.05623938229931992,0.0,0.0,0.0,0.0,0.0,0.0,0.0,0.0,0.0,0.0
0.32730698585510254,0.07506375722004072,0.1384463905943344,0.10880992008730027,-0.013169743203505582,-0.03866162730210544,0.0040151736616566075,-0.009307086320689717,0.010409225595518587,0.05558218901078468,0.0,0.0,0.0,0.0,0.0,0.0,0.0,0.0,0.0,0.0
0.33268141746520996,0.0751251823080156,0.1384378805714923,0.1093716014673416,-0.00908435576585485,-0.03236099089776685,0.014074962623621623,-0.008571529793887112,0.009913115739169202,0.05493599247670234,0.0,0.0,0.0,0.0,0.0,0.0,0.0,0.0,0.0,0.0
0.33803725242614746,0.07518739624878411,0.1384301772211453,0.10999519164319016,-0.005337501906399948,-0.026633891389577596,0.024317497156086637,-0.007906310770075042,0.009368637751888651,0.05430448303743351,0.0,0.0,0.0,0.0,0.0,0.0,0.0,0.0,0.0,0.0
0.34340810775756836,0.07525056683149813,0.13842512396134057,0.11068103823573769,-0.0019426209386352387,-0.02148923291802366,0.03474609843098764,-0.007352571959876448,0.008792212069776298,0.053676004009751886,0.0,0.0,0.0,0.0,0.0,0.0,0.0,0.0,0.0,0.0
0.3487706184387207,0.07531468497504605,0.1384231138513003,0.11142323846305309,0.0010991775934915235,-0.01691491314213736,0.04536161822139641,-0.006927155023119445,0.00824573430662838,0.05304189555401378,0.0,0.0,0.0,0.0,0.0,0.0,0.0,0.0,0.0,0.0
0.35413360595703125,0.07538086077725491,0.13842445621190053,0.11222271539378409,0.003796229768237751,-0.01288533771976223,0.056148916117708544,-0.0066666091732612105,0.007812704370536572,0.05240379793617472,0.0,0.0,0.0,0.0,0.0,0.0,0.0,0.0,0.0,0.0
0.3599569797515869,0.0754500771280651,0.13842934283915223,0.11308450994413717,0.0061663951581311,-0.009366599049655503,0.06709315027778052,-0.006612246660846293,0.007560387189150183,0.051761931337015614,0.0,0.0,0.0,0.0,0.0,0.0,0.0,0.0,0.0,0.0
0.3656315803527832,0.07552197013888996,0.1384356530940833,0.11400674455778853,0.008234229477908094,-0.006321800836742681,0.07818907395997368,-0.006760268907700685,0.007513322662717814,0.051108697645826456,0.0,0.0,0.0,0.0,0.0,0.0,0.0,0.0,0.0,0.0
0.3716890811920166,0.07559672186985178,0.1384407395103664,0.11499072208644208,0.010026584576562192,-0.0037183126166370466,0.08943199210801313,-0.007057609063822963,0.007657318327190697,0.05042353485894879,0.0,0.0,0.0,0.0,0.0,0.0,0.0,0.0,0.0,0.0
0.37778210639953613,0.07567535332084156,0.13844344919617108,0.11604374557582339,0.011572203179051568,-0.0015297181151009615,0.10082378883950607,-0.00740004060599018,0.007980756325163913,0.049681975179039564,0.0,0.0,0.0,0.0,0.0,0.0,0.0,0.0,0.0,0.0
0.38398075103759766,0.07575965225150819,0.13844379411222577,0.1171727646691893,0.0129040201743463,0.0002688578106032568,0.11238801192933351,-0.007718948514288491,0.008463252700836577,0.04889907027635576,0.0,0.0,0.0,0.0,0.0,0.0,0.0,0.0,0.0,0.0
0.3905928134918213,0.07583413553392306,0.1384367169911847,0.11823066615644622,0.014041081797367619,0.0016991245780517026,0.12400011797783894,-0.008093432057866978,0.009032289524823777,0.04814049014114648,0.0,0.0,0.0,0.0,0.0,0.0,0.0,0.0,0.0,0.0
0.3973062038421631,0.0758852416080862,0.1384175058404212,0.1191033287082532,0.014955579010241443,0.0027702102896975545,0.13511434345579523,-0.00855921965923328,0.009627785239578832,0.04744074337577318,0.0,0.0,0.0,0.0,0.0,0.0,0.0,0.0,0.0,0.0
0.4042479991912842,0.07593718229156758,0.1383922640926577,0.12002514555620605,0.015609785683038693,0.0034881009329397273,0.14514841472235152,-0.00891370219055944,0.010267111576506215,0.0467491684007832,0.0,0.0,0.0,0.0,0.0,0.0,0.0,0.0,0.0,0.0
0.4106874465942383,0.07600932065847041,0.13836716097298568,0.12118554555017763,0.016039372432076367,0.0038805679899964734,0.1542631452796987,-0.008998264384291509,0.010942636913734982,0.04602993342681566,0.0,0.0,0.0,0.0,0.0,0.0,0.0,0.0,0.0,0.0
0.41725778579711914,0.07609890159841891,0.13834245716321728,0.12256959418920982,0.016344599709856637,0.003997798466444377,0.1632709573434711,-0.008827786502355857,0.011580675219019017,0.045298529346822804,0.0,0.0,0.0,0.0,0.0,0.0,0.0,0.0,0.0,0.0
0.4236466884613037,0.07620327803766525,0.13831919699503092,0.12416263231706576,0.016620935603118496,0.0038946589785841526,0.17298543996161167,-0.008441679863545062,0.012102932708648909,0.04458423501247013,0.0,0.0,0.0,0.0,0.0,0.0,0.0,0.0,0.0,0.0
0.4301159381866455,0.0763197266747785,0.1382998918783277,0.12595041024997689,0.01693352990552264,0.003625361009694584,0.1839775973372212,-0.00788945605482171,0.012449975988095288,0.04390966889405369,0.0,0.0,0.0,0.0,0.0,0.0,0.0,0.0,0.0,0.0
0.43660426139831543,0.07644622240297086,0.13828581518098176,0.12792961726389018,0.01732253375285192,0.0032451384215467314,0.19662485080799463,-0.007248437081883337,0.012579150082133488,0.043251054377888495,0.0,0.0,0.0,0.0,0.0,0.0,0.0,0.0,0.0,0.0
0.4433290958404541,0.07658103221777736,0.13827757617439518,0.13009357321033077,0.017808976368534277,0.002806964510023051,0.21116220367046926,-0.006603065137437846,0.012495304142646695,0.04257844297780136,0.0,0.0,0.0,0.0,0.0,0.0,0.0,0.0,0.0,0.0
0.4499523639678955,0.07672259877824505,0.13827658491113362,0.13242215346466152,0.018399724187776027,0.0023588707576237882,0.22769515246910693,-0.0060229051681541836,0.012240488117632058,0.04189687730666676,0.0,0.0,0.0,0.0,0.0,0.0,0.0,0.0,0.0,0.0
0.4564056396484375,0.07686992474325478,0.13828400809927122,0.13489621795166024,0.01909148386618329,0.0019446357936002158,0.24619069413918357,-0.005561293068662142,0.011856478747309706,0.04122209706730569,0.0,0.0,0.0,0.0,0.0,0.0,0.0,0.0,0.0,0.0
0.4631998538970947,0.07702337124816996,0.1382998439552506,0.13749836037413532,0.01987584132639221,0.00160271480191051,0.2664948474829754,-0.005244043280359542,0.011395786369567916,0.040565184208995554,0.0,0.0,0.0,0.0,0.0,0.0,0.0,0.0,0.0,0.0
0.4698655605316162,0.07718534492838655,0.13832319745662874,0.14022402496814104,0.020746368512111334,0.0013625967530734066,0.2883793463172879,-0.005059971018922613,0.010914665252737108,0.039923638008179045,0.0,0.0,0.0,0.0,0.0,0.0,0.0,0.0,0.0,0.0
0.4767017364501953,0.07735713181405919,0.1383528714238212,0.1430673183647007,0.021703169035471443,0.0012423259877865566,0.31159042762925654,-0.004974677257920786,0.010470357287905432,0.039290158114590926,0.0,0.0,0.0,0.0,0.0,0.0,0.0,0.0,0.0,0.0
0.483184814453125,0.07753693326677905,0.13838709611971933,0.14601038954576034,0.022747938346149056,0.001248087090553187,0.33585756083812945,-0.004952859842525759,0.010131990233192317,0.03865139025558233,0.0,0.0,0.0,0.0,0.0,0.0,0.0,0.0,0.0,0.0
0.49019813537597656,0.07769093057431228,0.13841646218235637,0.14862855578754527,0.023840032191289825,0.0013663569839842424,0.3604238011888201,-0.005071259865252458,0.009935074306894071,0.0380559334125808,0.0,0.0,0.0,0.0,0.0,0.0,0.0,0.0,0.0,0.0
0.49672961235046387,0.07779377861329413,0.1384334643221676,0.15058916877289452,0.024840784257151617,0.0015526687912761493,0.38334625161657676,-0.005364916994037515,0.009884103777298524,0.037559550257201056,0.0,0.0,0.0,0.0,0.0,0.0,0.0,0.0,0.0,0.0
0.5032422542572021,0.07789179170256869,0.13844662111482894,0.1524729880170833,0.02559883490146854,0.0017522774170913398,0.4025409869432067,-0.005611302204419481,0.010016190297792216,0.03706998934221618,0.0,0.0,0.0,0.0,0.0,0.0,0.0,0.0,0.0,0.0
0.5099153518676758,0.07802148258151427,0.13846149002721245,0.15474908041050595,0.026113418479851387,0.0019377752185022017,0.4178606612720167,-0.005633408797293243,0.010341058932695622,0.03649140277719174,0.0,0.0,0.0,0.0,0.0,0.0,0.0,0.0,0.0,0.0
0.5167720317840576,0.07817816756864131,0.13847563112989952,0.15736326556926705,0.026516421024239487,0.0021065867621066,0.4308968909813725,-0.005426068203827167,0.010812450872174854,0.035823285091795005,0.0,0.0,0.0,0.0,0.0,0.0,0.0,0.0,0.0,0.0
0.5234382152557373,0.07835799175393016,0.13848985592774204,0.16026502337964177,0.026941749560305404,0.0022586703291781578,0.44331872729667,-0.005018505501980989,0.011375456497407867,0.03509615704261021,0.0,0.0,0.0,0.0,0.0,0.0,0.0,0.0,0.0,0.0
0.5304205417633057,0.07855613495386125,0.13850447263309537,0.16340839166434065,0.027477060084307572,0.0023937994608167795,0.4562533526309879,-0.004449426421342798,0.011988380328657941,0.034333330017625806,0.0,0.0,0.0,0.0,0.0,0.0,0.0,0.0,0.0,0.0
0.5369174480438232,0.07876875623390585,0.13851846643966342,0.16676580000653696,0.028170891410151014,0.0025126266677880185,0.4704035797799476,-0.00375252695957649,0.012611876497611762,0.03353151073201244,0.0,0.0,0.0,0.0,0.0,0.0,0.0,0.0,0.0,0.0
0.5438861846923828,0.0789935752630401,0.13853223204841028,0.17031181163755965,0.029042212090171916,0.0026145652064952143,0.48616499729914736,-0.0029685386420652245,0.013191343337484285,0.032693746046846925,0.0,0.0,0.0,0.0,0.0,0.0,0.0,0.0,0.0,0.0
0.5505070686340332,0.07922873263573038,0.13854720890442865,0.17400902046448108,0.030090902331494338,0.002700865464446078,0.5036902472505537,-0.0021545730465142433,0.013685719511119908,0.03184264541236478,0.0,0.0,0.0,0.0,0.0,0.0,0.0,0.0,0.0,0.0
0.5572550296783447,0.07947293328988413,0.1385646938321038,0.17782301506591572,0.03130484782417331,0.0027779419737062163,0.5229131832272478,-0.0013652764736558909,0.014081503387559285,0.031009479421525023,0.0,0.0,0.0,0.0,0.0,0.0,0.0,0.0,0.0,0.0
0.5641076564788818,0.07972407567567587,0.13858446205199376,0.18172334698717071,0.03266342138797213,0.0028553576890303417,0.5435916830125056,-0.000637798014515883,0.01437878788086003,0.030203675766422473,0.0,0.0,0.0,0.0,0.0,0.0,0.0,0.0,0.0,0.0
0.5707542896270752,0.07998160955347347,0.13860613897809018,0.185698645127313,0.03414019327668853,0.002941287115154966,0.5653813245956503,1.7277857102010057e-05,0.014565845881923686,0.029419460847900473,0.0,0.0,0.0,0.0,0.0,0.0,0.0,0.0,0.0,0.0
0.5774610042572021,0.0802469082202136,0.13863062732896644,0.1897394555484048,0.035709350691018514,0.00304200869599489,0.5879122146854876,0.000623286438451395,0.014629113560546332,0.02867280455300321,0.0,0.0,0.0,0.0,0.0,0.0,0.0,0.0,0.0,0.0
0.5839948654174805,0.08051969580212535,0.13865666234869656,0.1938223493553614,0.03735030334162132,0.0031624063948904385,0.6108121701228504,0.0012060675615264264,0.014596323387081002,0.027967472269385736,0.0,0.0,0.0,0.0,0.0,0.0,0.0,0.0,0.0,0.0
0.5907809734344482,0.08079868788830982,0.13868190054788207,0.1979262304128301,0.03904445760544553,0.0033015538351533064,0.6336891531700174,0.0017728527401123385,0.01451952428253285,0.02729574038326412,0.0,0.0,0.0,0.0,0.0,0.0,0.0,0.0,0.0,0.0
0.5976781845092773,0.08108256828852892,0.13870403411027266,0.20203315630298818,0.04077113161127733,0.0034491374027573367,0.6561370944242699,0.0023172942452199174,0.014438489071057554,0.026658933294524085,0.0,0.0,0.0,0.0,0.0,0.0,0.0,0.0,0.0,0.0
0.60420823097229,0.08137113058776979,0.13872085370165424,0.20614050932227168,0.04250847151757428,0.0035865472601228415,0.677774256942658,0.002866663143139706,0.014394884567391245,0.026049510645979063,0.0,0.0,0.0,0.0,0.0,0.0,0.0,0.0,0.0,0.0
0.6108758449554443,0.08166475845973856,0.13873240501606868,0.21024530271820918,0.04423724886280535,0.0036917002134093393,0.6982839158692337,0.0034652480074514116,0.014419764353629919,0.025459175276483715,0.0,0.0,0.0,0.0,0.0,0.0,0.0,0.0,0.0,0.0
0.6173200607299805,0.08196255624495942,0.13873797364386553,0.2143319909503986,0.045941884223998024,0.003744487356705718,0.7174106782006255,0.004123061784671639,0.014515756977837817,0.024883207208427953,0.0,0.0,0.0,0.0,0.0,0.0,0.0,0.0,0.0,0.0
0.6238312721252441,0.08226528409003375,0.13873685582791395,0.2184027531470712,0.04760971902638844,0.0037276530206542266,0.7349453234625395,0.004820243243583249,0.014690648660077512,0.024333397996462752,0.0,0.0,0.0,0.0,0.0,0.0,0.0,0.0,0.0,0.0
0.6306695938110352,0.08257386032996486,0.13872985432233076,0.22245989244956058,0.04923314259803238,0.0036274600312247813,0.7507457575061274,0.0055177907224547365,0.014947551944768517,0.023821769148747757,0.0,0.0,0.0,0.0,0.0,0.0,0.0,0.0,0.0,0.0
0.637110710144043,0.08288626338369418,0.1387166375757229,0.22649053704945388,0.05080768260186189,0.003435387848016077,0.7647298928943295,0.006199873483398571,0.0152579657358238,0.023326083230623722,0.0,0.0,0.0,0.0,0.0,0.0,0.0,0.0,0.0,0.0
0.6435685157775879,0.08320108697838347,0.13869840151232837,0.23048501084888956,0.05232581844854954,0.0031481307848163125,0.7768355515493413,0.006865085899514156,0.015586923350228182,0.02284102348047094,0.0,0.0,0.0,0.0,0.0,0.0,0.0,0.0,0.0,0.0
0.6500122547149658,0.08351896124283176,0.13867812135871013,0.23443616280627297,0.05377811784508512,0.002770734067562974,0.7870109396144388,0.007509669289940175,0.015925549354734368,0.02240721976443255,0.0,0.0,0.0,0.0,0.0,0.0,0.0,0.0,0.0,0.0
0.6566226482391357,0.08384025418475952,0.13865737983005338,0.23833852198344535,0.05515873312587144,0.002318912979287629,0.79522473058018,0.00810981519661539,0.016267576383753025,0.022057902870988515,0.0,0.0,0.0,0.0,0.0,0.0,0.0,0.0,0.0,0.0
0.6631150245666504,0.0841634966352247,0.13863502925678062,0.2421874381271377,0.05646445655659184,0.0018124373565931622,0.8014701166136369,0.00862001316266896,0.016592686903968153,0.02178139108736602,0.0,0.0,0.0,0.0,0.0,0.0,0.0,0.0,0.0,0.0
0.669553279876709,0.08448544091222693,0.13860794749221383,0.2459790249249569,0.05768793027327062,0.0012640996656160773,0.8057646042974975,0.009021701978065276,0.016885388698795387,0.021525142415098394,0.0,0.0,0.0,0.0,0.0,0.0,0.0,0.0,0.0,0.0
0.6764140129089355,0.08480330901701288,0.13857298083943617,0.24971132694045603,0.05881317706352168,0.0006733819434518997,0.8081495270746943,0.009331841355508658,0.017135071902731874,0.021240563721244048,0.0,0.0,0.0,0.0,0.0,0.0,0.0,0.0,0.0,0.0
0.683185338973999,0.08511711468724623,0.13852764564982692,0.2533940596336139,0.059819836077295865,2.760271846204799e-05,0.8087024480796421,0.009581015496370087,0.01735321395805814,0.020917462619202718,0.0,0.0,0.0,0.0,0.0,0.0,0.0,0.0,0.0,0.0
0.689624547958374,0.08543011160494013,0.13847426091602086,0.25703603757777393,0.06069478925917598,-0.0006886043747876054,0.8075552408167905,0.009775526680223195,0.017542693344668576,0.020581817313997195,0.0,0.0,0.0,0.0,0.0,0.0,0.0,0.0,0.0,0.0
0.6964290142059326,0.08574606114070339,0.13841694771273472,0.26063207609855943,0.061441850235624346,-0.0014790267492608747,0.8048757685059817,0.009924482822684771,0.017693544833834896,0.02026994205152232,0.0,0.0,0.0,0.0,0.0,0.0,0.0,0.0,0.0,0.0
0.702916145324707,0.08606536480576021,0.13835522085332125,0.2641755289697536,0.062079299676053606,-0.0023338823237127946,0.8008233369387794,0.010049262920887998,0.017818904160611868,0.01997621579434288,0.0,0.0,0.0,0.0,0.0,0.0,0.0,0.0,0.0,0.0
0.7096569538116455,0.08638760092991367,0.13828760271072962,0.26766085350573876,0.06262879936015982,-0.0032420543659442635,0.7955293313087485,0.010169766173435147,0.01792981940924457,0.01968086994789603,0.0,0.0,0.0,0.0,0.0,0.0,0.0,0.0,0.0,0.0
0.7161769866943359,0.08671607673228554,0.13821467149202307,0.27109406685337806,0.06311282243020742,-0.00419663140535564,0.7891135060249541,0.010314925391167126,0.01805347118498966,0.01941858321629447,0.0,0.0,0.0,0.0,0.0,0.0,0.0,0.0,0.0,0.0
0.7225980758666992,0.08705252101586289,0.13813781256012087,0.27447997967140497,0.0635595985170434,-0.0051898702223941206,0.7817091615053207,0.010491072569479022,0.018225581712865407,0.019231527617194485,0.0,0.0,0.0,0.0,0.0,0.0,0.0,0.0,0.0,0.0
0.7291781902313232,0.08739540383489611,0.13805734501351277,0.2778110679278133,0.06399836287291316,-0.006210646689002822,0.7734539566083868,0.010676333001603826,0.018428946629079665,0.019120740039978056,0.0,0.0,0.0,0.0,0.0,0.0,0.0,0.0,0.0,0.0
0.7356846332550049,0.0877437520923211,0.13797225086042153,0.2810800939644707,0.06445015050241738,-0.007248327324428448,0.7644576213592906,0.010857450979748298,0.018637677731639025,0.01906090183122763,0.0,0.0,0.0,0.0,0.0,0.0,0.0,0.0,0.0,0.0
0.7422082424163818,0.0880967201150234,0.1378813067115899,0.2842827840083965,0.06492672663817095,-0.008297281450848269,0.7547953344601477,0.011037872962379793,0.018853370615442285,0.0190174332909881,0.0,0.0,0.0,0.0,0.0,0.0,0.0,0.0,0.0,0.0
0.7487008571624756,0.08845399862821886,0.13778374574422408,0.28741707566295444,0.06543366683119664,-0.009357440968233537,0.7445222791005269,0.01121563263498868,0.01907352693273654,0.018966486463254273,0.0,0.0,0.0,0.0,0.0,0.0,0.0,0.0,0.0,0.0
0.7550766468048096,0.08881487933580456,0.13768032973309127,0.29048045232284897,0.06597235446852631,-0.01043071474112187,0.733684087450277,0.011378599623721355,0.019298281912866103,0.01889915777981655,0.0,0.0,0.0,0.0,0.0,0.0,0.0,0.0,0.0,0.0
0.7610194683074951,0.08917778967361308,0.1375716467150569,0.29347145189946533,0.06653953704750407,-0.01151684990997184,0.7223203448567579,0.011517559390297246,0.019518136912415635,0.01881098145572149,0.0,0.0,0.0,0.0,0.0,0.0,0.0,0.0,0.0,0.0
0.7672665119171143,0.08954198415314593,0.13745627504509733,0.29638986018712093,0.0671268801030048,-0.012614786601894098,0.7104681344918444,0.011647938754143475,0.019711417345133382,0.01869467376545931,0.0,0.0,0.0,0.0,0.0,0.0,0.0,0.0,0.0,0.0
0.7737045288085938,0.08990816301370344,0.13733277583199097,0.29923601855764426,0.06772464257523404,-0.013727509537405999,0.6981662651367605,0.011795505462384016,0.019857740665364672,0.01853722447771993,0.0,0.0,0.0,0.0,0.0,0.0,0.0,0.0,0.0,0.0
0.7805166244506836,0.090276671385226,0.13720037522554673,0.30200993347846883,0.06832590146671977,-0.01486270501340753,0.6854563108608482,0.011973073497908344,0.019960262588259354,0.018330134375251793,0.0,0.0,0.0,0.0,0.0,0.0,0.0,0.0,0.0,0.0
0.7880764007568359,0.09064785148983365,0.1370582403066894,0.30471883376383607,0.06892695610094608,-0.0160302640945666,0.67238901810511,0.012160310250335038,0.020037842124888555,0.018085691308121342,0.0,0.0,0.0,0.0,0.0,0.0,0.0,0.0,0.0,0.0
0.7946171760559082,0.09102221077198684,0.1369070877537084,0.30736839067427124,0.06952655134686023,-0.017239300073896256,0.6590352681757143,0.012337673163748349,0.020074171368414887,0.01783110265821341,0.0,0.0,0.0,0.0,0.0,0.0,0.0,0.0,0.0,0.0
0.8020901679992676,0.09139968263411231,0.13674687308258107,0.3099541720380972,0.0701251450383416,-0.0184955750231065,0.6454738478917673,0.01253540299923617,0.020061624611035667,0.017581492346525934,0.0,0.0,0.0,0.0,0.0,0.0,0.0,0.0,0.0,0.0
0.8086824417114258,0.0917801331317892,0.13657271689229744,0.3124782633485005,0.07072339240371778,-0.019807369079383744,0.6317712263674897,0.012792819113730298,0.020016613854442162,0.017303499130483676,0.0,0.0,0.0,0.0,0.0,0.0,0.0,0.0,0.0,0.0
0.8152821063995361,0.09216145591697553,0.13638064809934766,0.3149417505600805,0.07131912005888792,-0.021195351578696484,0.6179846770922441,0.013125904569483534,0.01994199263385106,0.01694550278723885,0.0,0.0,0.0,0.0,0.0,0.0,0.0,0.0,0.0,0.0
0.8217296600341797,0.09254353809868962,0.13617346863834456,0.31734125954246695,0.07190569983189238,-0.02268549261493139,0.6041629047244546,0.013516299544392128,0.019841194758725283,0.01652357851741287,0.0,0.0,0.0,0.0,0.0,0.0,0.0,0.0,0.0,0.0
0.8282585144042969,0.09293107938644557,0.13595487001443474,0.3196806207246389,0.07248065124631692,-0.024290421956764844,0.5903436622946421,0.0139304080420283,0.01972435536642088,0.016088199492355425,0.0,0.0,0.0,0.0,0.0,0.0,0.0,0.0,0.0,0.0
0.8348240852355957,0.09332701541540875,0.13572586913834236,0.3219612096744954,0.07305579453977329,-0.026005290856314055,0.5765634033391738,0.014354598687504399,0.01960614509902948,0.01565561150555554,0.0,0.0,0.0,0.0,0.0,0.0,0.0,0.0,0.0,0.0
0.841707706451416,0.0937304207583802,0.13548835805484982,0.32417983547658435,0.07365128364983088,-0.02781533478084084,0.5628542143310299,0.01478743646736177,0.019499953495184026,0.0152344330976833,0.0,0.0,0.0,0.0,0.0,0.0,0.0,0.0,0.0,0.0
0.8483788967132568,0.09413802793482537,0.13524353711066225,0.32633209648132216,0.07428038720109187,-0.029699967386602175,0.5492297854404102,0.015229175386083519,0.01943040276185877,0.014820420858126144,0.0,0.0,0.0,0.0,0.0,0.0,0.0,0.0,0.0,0.0
0.8555960655212402,0.0945485947730271,0.1349927782172579,0.32841251357723245,0.07494333831608753,-0.03163476986893054,0.5356798306453415,0.015656540417923623,0.019414998102591147,0.014416662327742708,0.0,0.0,0.0,0.0,0.0,0.0,0.0,0.0,0.0,0.0
0.8621535301208496,0.09496790663470393,0.13473949458541717,0.3304249849192992,0.0756396104281142,-0.03359091929882691,0.522181755904972,0.016027109330753603,0.01943000577398274,0.014073682203800592,0.0,0.0,0.0,0.0,0.0,0.0,0.0,0.0,0.0,0.0
0.8692953586578369,0.09525670017443932,0.13451458187057289,0.3310340969433799,0.07622511328570186,-0.03550152353354524,0.5072385223919291,0.0161027782609503,0.01940869190595118,0.013951929105124399,0.0,0.0,0.0,0.0,0.0,0.0,0.0,0.0,0.0,0.0
0.8760180473327637,0.09530077124729353,0.13433942855549197,0.32919354250736566,0.07615796901703019,-0.037218032837512044,0.48556705433215186,0.015715324745676395,0.019320623046378264,0.0141227237537866,0.0,0.0,0.0,0.0,0.0,0.0,0.0,0.0,0.0,0.0
0.8828096389770508,0.0953016065387765,0.13416901635964093,0.3268010067063748,0.07483448690575795,-0.038594026861397304,0.4513893700456997,0.015195346569166062,0.019248556431670363,0.014353917821960695,0.0,0.0,0.0,0.0,0.0,0.0,0.0,0.0,0.0,0.0
0.889894962310791,0.0954227261353278,0.1339678430504771,0.3253875725991502,0.07230046628130579,-0.03963525646561776,0.40510044808836465,0.014809782754626046,0.019252105063901452,0.014481836319485413,0.0,0.0,0.0,0.0,0.0,0.0,0.0,0.0,0.0,0.0
0.8967278003692627,0.0956466619967111,0.13373758638810535,0.32481325983513804,0.06918595295986033,-0.0404805053562803,0.35262814123058883,0.014525946645219818,0.01932020634277406,0.014511746395945284,0.0,0.0,0.0,0.0,0.0,0.0,0.0,0.0,0.0,0.0
0.9032189846038818,0.09595654978195313,0.13347960917167168,0.3249472274871089,0.0661322054279701,-0.04127938226032928,0.3000984613085426,0.014320972321757558,0.019432741916149448,0.014444095301802228,0.0,0.0,0.0,0.0,0.0,0.0,0.0,0.0,0.0,0.0
0.9096968173980713,0.09633891066050092,0.13319762689150733,0.3256675021479286,0.06357970228866315,-0.04214372225298454,0.25183793400094706,0.0142202331829972,0.01955914734949138,0.01430759439692107,0.0,0.0,0.0,0.0,0.0,0.0,0.0,0.0,0.0,0.0
0.9165160655975342,0.09678401282413203,0.1328939756372085,0.3268640400904051,0.06181070022415161,-0.04314929384118123,0.21067914495439294,0.01425356528460274,0.019675131289835262,0.014123674995409102,0.0,0.0,0.0,21343.0,19543.0,20977.0,18910.0,0.0,0.0,0.0
0.9230186939239502,0.0972824550972478,0.13257083040478615,0.32843877431826185,0.06098692048788159,-0.04434193224501698,0.17824508369362324,0.014382659264385781,0.019748917230601796,0.013903320700143587,0.0,0.0,0.0,21343.0,19543.0,20977.0,18910.0,0.0,0.0,0.0
0.9294593334197998,0.09782376456604719,0.13223181150249524,0.3303013923512286,0.061173672452156984,-0.045742769915317345,0.15520248311908313,0.014549647530998428,0.01976789285353875,0.013669465139477033,0.0,0.0,0.0,18772.0,22448.0,20576.0,21546.0,0.0,0.0,0.0
0.9360568523406982,0.09839907631550193,0.1318807165331895,0.3323705132364865,0.06235738355457501,-0.04734946639275235,0.1414778913963284,0.014734025292053737,0.019745644734517575,0.01344576873338749,0.0,0.0,0.0,18264.0,21867.0,20161.0,21516.0,0.0,0.0,0.0
0.9428625106811523,0.09900139198576391,0.13152067728495714,0.33457485661044856,0.0644660594482837,-0.04913967875508392,0.13644633841936799,0.014924502332624184,0.019683558585630253,0.01324133389067992,0.0,0.0,0.0,17575.0,21078.0,19658.0,21407.0,0.0,0.0,0.0
0.9493770599365234,0.09962547325669406,0.13114973276095954,0.336853474752435,0.06739038957602256,-0.051082466620587394,0.1390988019745464,0.015117591162083721,0.01958832620292921,0.013036659958790928,0.0,0.0,0.0,17575.0,21078.0,19658.0,21407.0,0.0,0.0,0.0
0.9560208320617676,0.10026497602150157,0.13076545150588148,0.3391525025773877,0.070998349476418,-0.05315324146928757,0.14818303752138254,0.015318408349171999,0.01948188044518822,0.012806927017600486,0.0,0.0,0.0,17575.0,21078.0,19658.0,21407.0,0.0,0.0,0.0
0.9627559185028076,0.10091343327688157,0.1303696590050495,0.34142783458978654,0.0751420156498537,-0.055335016134779605,0.16231776671686407,0.015513401100964993,0.01938338337035597,0.012560389320534078,0.0,0.0,0.0,16513.0,19744.0,18843.0,21370.0,0.0,0.0,0.0
0.9692387580871582,0.10156668041251805,0.1299640415191043,0.3436462619677666,0.07966506621517602,-0.05760850510796254,0.1800905734517289,0.015665015140929342,0.01931148798146094,0.012302575221557054,0.0,0.0,0.0,16513.0,19744.0,18843.0,21370.0,0.0,0.0,0.0
0.9760401248931885,0.10222147169908852,0.1295491683596803,0.34578091540459654,0.0844139066256649,-0.0599498377934035,0.20013742633254664,0.015749686630713723,0.019288539413985405,0.012014325008473,0.0,0.0,0.0,14968.0,17595.0,17613.0,21133.0,0.0,0.0,0.0
0.9829232692718506,0.10287740921413291,0.12912517406818574,0.3478133313400986,0.08924827817505228,-0.062335113749527944,0.22119873516269442,0.01577461905211924,0.019319996614641746,0.01169178312218137,0.0,0.0,0.0,14968.0,17595.0,17613.0,21133.0,0.0,0.0,0.0
0.9893631935119629,0.10353436511568229,0.12869400006715948,0.3497309950954799,0.0940493430414799,-0.06474113763108164,0.2421587312332258,0.01574230414927423,0.019390754271748776,0.011356472305660403,0.0,0.0,0.0,14622.0,17083.0,17324.0,21080.0,0.0,0.0,0.0
0.9959683418273926,0.10418971419608286,0.1282582599593096,0.3515221882221719,0.09871903931296437,-0.06714152380507588,0.2620649460027806,0.015649595064928107,0.01949935843058586,0.011039370465923773,0.0,0.0,0.0,14602.0,17133.0,17313.0,21070.0,0.0,0.0,0.0
1.002488136291504,0.10484018138966784,0.12781693294705232,0.35317776386160415,0.10317215872233984,-0.06950845244261321,0.28012800981577046,0.015502192947434032,0.019660079868071577,0.010742975979165703,0.0,0.0,0.0,14452.0,17128.0,17251.0,21276.0,0.0,0.0,0.0
1.0098822116851807,0.10548307686478442,0.12736678227952944,0.3546943821733226,0.10733211490384387,-0.07182334111746493,0.2957196854732034,0.015338800161986741,0.01987863123707058,0.010429520253968006,0.0,0.0,0.0,14794.0,17688.0,17538.0,21298.0,0.0,0.0,0.0
1.0165870189666748,0.10612008452651525,0.12690493510762013,0.35607617567123573,0.11113634951544084,-0.07408395517910772,0.3083787084506878,0.015220088006744074,0.020137849386685364,0.01008298935895103,0.0,0.0,0.0,15592.0,17686.0,17966.0,21183.0,0.0,0.0,0.0
1.0229878425598145,0.10675414420946765,0.12643248176106314,0.3573301655547549,0.11454666283053654,-0.07629845718598077,0.31781395944291685,0.015170244292062348,0.02040694269774761,0.00973069564272279,0.0,0.0,0.0,15046.0,18309.0,17733.0,21426.0,0.0,0.0,0.0
1.029426097869873,0.10738481398583032,0.12595271411859363,0.3584611368458998,0.11754909263887955,-0.07847152421250984,0.32388923525066193,0.01518293805024561,0.0206681366981505,0.009405430523438316,0.0,0.0,0.0,15046.0,18309.0,17733.0,21426.0,0.0,0.0,0.0
1.0361511707305908,0.10801113851459473,0.1254676053451174,0.35947394989562687,0.12014272120228854,-0.08059712592372259,0.32659373758492305,0.015247674270482368,0.02091198153424153,0.00913174132671019,0.0,0.0,0.0,15396.0,19504.0,17813.0,22131.0,0.0,0.0,0.0
1.0429599285125732,0.10863281266811267,0.12497733954999946,0.36037528521146656,0.12233293085493206,-0.08266325759684731,0.3260170379818133,0.015359570523096246,0.02112638059205574,0.008896202813523118,0.0,0.0,0.0,15396.0,19504.0,17813.0,22131.0,0.0,0.0,0.0
1.0496156215667725,0.10925172273457608,0.12447813132706012,0.36117237374553635,0.1241333314329044,-0.0846632250822515,0.3223318276626662,0.015521928852705381,0.021303595443237268,0.008652252246613446,0.0,0.0,0.0,16906.0,20330.0,19264.0,22136.0,0.0,0.0,0.0
1.0564355850219727,0.10986939470170087,0.12396810172914471,0.36187244760168064,0.12556899957606985,-0.08660340598042938,0.3157767709811589,0.01572332384517344,0.02144206602853138,0.008386121698277493,0.0,0.0,0.0,16906.0,20330.0,19264.0,22136.0,0.0,0.0,0.0
1.063628911972046,0.1104854538031074,0.12345042430556594,0.362483063623736,0.12667316199391826,-0.08849507707032986,0.3066390450874801,0.015932896631945304,0.02153357271182685,0.008132602099452385,0.0,0.0,0.0,17479.0,20648.0,20296.0,21776.0,0.0,0.0,0.0
1.0703701972961426,0.11110293973079702,0.122925873156621,0.36301134802281937,0.1274840068579894,-0.09034253306715892,0.2952385532191706,0.016114729724987755,0.021566654074626268,0.007926280685865626,0.0,0.0,0.0,17479.0,20648.0,20296.0,21776.0,0.0,0.0,0.0
1.0775213241577148,0.11172521109856665,0.12239374047387071,0.36346411148468205,0.1280486654478917,-0.0921457438487585,0.28191336868307565,0.01623128569437518,0.02152973992393966,0.007770119234380514,0.0,0.0,0.0,17438.0,20412.0,20680.0,23170.0,0.0,0.0,0.0
1.084113597869873,0.11235223951858177,0.12185434274504856,0.3638470094271118,0.1284211232807555,-0.09390602655668592,0.2670061624597331,0.01627745226423425,0.02142029017767711,0.00763870442490541,0.0,0.0,0.0,18263.0,21565.0,20431.0,22564.0,0.0,0.0,0.0
1.0909836292266846,0.1129848059726999,0.12130543726595025,0.36416311034718063,0.12865339934267578,-0.09562795680471603,0.2508499112285578,0.016295478495521723,0.02127468789660692,0.007505432890448334,0.0,0.0,0.0,21330.0,17494.0,20936.0,19869.0,0.0,0.0,0.0
1.097693681716919,0.11362283382476918,0.12074593810111837,0.3644157635659488,0.12879187360803343,-0.09732187430013263,0.23375574127755855,0.01631471382095904,0.02113943656872782,0.007378861906759041,0.0,0.0,0.0,18984.0,20460.0,20096.0,23633.0,0.0,0.0,0.0
1.1042304039001465,0.11426470511412737,0.12017858908916987,0.36461044399367704,0.1288746692140214,-0.09899853225895129,0.21601049430850544,0.016329455887474177,0.02101130617258909,0.007281214681081313,0.0,0.0,0.0,19458.0,21325.0,19922.0,23043.0,0.0,0.0,0.0
1.1106197834014893,0.1146501376110385,0.11973450458085519,0.3633246135402338,0.1286413434413327,-0.10051669906827584,0.19629721480726003,0.016077990141234462,0.02085266021054581,0.007373060033906897,0.0,0.0,0.0,19458.0,21325.0,19922.0,23043.0,0.0,0.0,0.0
1.117136001586914,0.11457628962510621,0.11951384497887192,0.359451261755384,0.12708662103360482,-0.10136202423595737,0.16922992376289447,0.015367967157107254,0.020645008842200337,0.0077565701083940645,0.0,0.0,0.0,19458.0,21325.0,19922.0,23043.0,0.0,0.0,0.0
1.1236231327056885,0.11440925789135668,0.11933231812374169,0.35501534598651907,0.12310235374098263,-0.10097441760635695,0.12887202932116262,0.014581433962658227,0.020407103118729748,0.008171392596510696,0.0,0.0,0.0,19053.0,22467.0,20335.0,21995.0,0.0,0.0,0.0
1.1306111812591553,0.11444461857013985,0.11904173723970463,0.3516485227157974,0.11676946709113317,-0.09939452372016325,0.07583525653163023,0.014026824896099164,0.020172841642071074,0.008430623610688255,0.0,0.0,0.0,19053.0,22467.0,20335.0,21995.0,0.0,0.0,0.0
1.137244462966919,0.11465940236734956,0.1186547930910067,0.34920677175554404,0.1092405270953114,-0.09720009543578785,0.016593202921216466,0.01367100756380007,0.019952522427230904,0.008589703597329456,0.0,0.0,0.0,22920.0,20440.0,20566.0,17147.0,0.0,0.0,0.0
1.1437041759490967,0.1150313420076879,0.11818375234963817,0.34755620006847593,0.10171707905912776,-0.09498996034562415,-0.04219145043444468,0.013468398332588803,0.01973064795986826,0.008689289997536806,0.0,0.0,0.0,22920.0,20440.0,20566.0,17147.0,0.0,0.0,0.0
1.149066686630249,0.11553305931994698,0.11764316309291278,0.3465720667589742,0.09505602104538109,-0.0931866176873267,-0.09578813769035156,0.013399767959201187,0.019490710523925328,0.00873673618430597,0.0,0.0,0.0,22707.0,20903.0,21302.0,16077.0,0.0,0.0,0.0
1.1554806232452393,0.11613961395879233,0.11704743664738279,0.34613739962283696,0.089811407872043,-0.09205755895523826,-0.14107828733542727,0.01347901254723292,0.019229281683212147,0.008752808160487315,0.0,0.0,0.0,19281.0,24745.0,19992.0,20256.0,0.0,0.0,0.0
1.160799264907837,0.11683086629182067,0.11640550748594719,0.3461452054149306,0.08628755382886524,-0.09174405999537662,-0.17626492710745206,0.01368427140071007,0.01896397166221634,0.008739005702149314,0.0,0.0,0.0,19281.0,24745.0,19992.0,20256.0,0.0,0.0,0.0
1.1661946773529053,0.11758780427316623,0.11572252400650612,0.34650023185010814,0.08459662942963747,-0.0922996819034497,-0.20060551384147166,0.013957569611459972,0.018717825521145537,0.008665870600324406,0.0,0.0,0.0,20033.0,17188.0,22952.0,20363.0,0.0,0.0,0.0
1.171562671661377,0.11839407868053997,0.115006605891031,0.34711787806049116,0.08470522263784279,-0.09371772766488866,-0.21416945641467383,0.014267116921431353,0.018492170466984335,0.008536199090324808,0.0,0.0,0.0,20033.0,17188.0,22952.0,20363.0,0.0,0.0,0.0
1.1768758296966553,0.11923399536563636,0.11426872432565788,0.34792544809318904,0.0864719591671065,-0.09593784230698958,-0.21762501059628878,0.014602338832749863,0.018280034879610708,0.008352356627732113,0.0,0.0,0.0,20033.0,17188.0,22952.0,20363.0,0.0,0.0,0.0
1.1822493076324463,0.12009282059690286,0.11351965020836809,0.34886233723451426,0.089677611541632,-0.09884864574250841,-0.21205356906706735,0.014955697992118915,0.018070957352720123,0.00812247093859535,0.0,0.0,0.0,18529.0,19300.0,20280.0,25328.0,0.0,0.0,0.0
1.1876599788665771,0.12096138988716132,0.11276542316430875,0.3498756604360435,0.09405449696377768,-0.10230289409220879,-0.1987948281970594,0.015319192946942757,0.017864085714298972,0.007866083875279959,0.0,0.0,0.0,18529.0,19300.0,20280.0,25328.0,0.0,0.0,0.0
1.1930315494537354,0.1218332699510522,0.11200625786018531,0.35091738881447765,0.0993185040643361,-0.10614505707258876,-0.179329730299308,0.0156815846352598,0.017694917742810477,0.007567329228318673,0.0,0.0,0.0,21830.0,16666.0,20584.0,20906.0,0.0,0.0,0.0
1.1984081268310547,0.12270018039910477,0.11124582302941805,0.35194966141486383,0.10518884589232085,-0.1102307471446248,-0.15518889831945687,0.016036488121342937,0.017589278764978213,0.0072288933140418985,0.0,0.0,0.0,21830.0,16666.0,20584.0,20906.0,0.0,0.0,0.0
1.2038161754608154,0.12355768063956507,0.11049064578510298,0.35294583911650723,0.11139681203846251,-0.11442333172117894,-0.1278684380033,0.016371592697879397,0.01751581848695061,0.006893701477515165,0.0,0.0,0.0,21830.0,16666.0,20584.0,20906.0,0.0,0.0,0.0
1.209216594696045,0.12440581172452479,0.10974385025552369,0.35388501105554504,0.11770075423020222,-0.11858902376167982,-0.09876114227399119,0.01667030221809874,0.017429603255538138,0.006582648276335619,0.0,0.0,0.0,23834.0,17686.0,18854.0,19478.0,0.0,0.0,0.0
1.2146296501159668,0.12524160543328933,0.10900696464968429,0.3547512445015947,0.12389691004459463,-0.12260542634250846,-0.06911553303256875,0.016935402544065045,0.017322943076312873,0.006289271305908539,0.0,0.0,0.0,23834.0,17686.0,18854.0,19478.0,0.0,0.0,0.0
1.2200732231140137,0.12606212324017957,0.10827724225738634,0.35553156881926623,0.12981470293317404,-0.12637402700383432,-0.040016248161439665,0.017190756253388687,0.01722856557362447,0.005992552785959748,0.0,0.0,0.0,23834.0,17686.0,18854.0,19478.0,0.0,0.0,0.0
1.2253572940826416,0.1268680820766147,0.10755099358232832,0.35621789705915585,0.1353146956736842,-0.12982991626696688,-0.012375139945659969,0.01744416468450242,0.01717643282972136,0.00568215154101948,0.0,0.0,0.0,23834.0,17686.0,18854.0,19478.0,0.0,0.0,0.0
1.2307014465332031,0.12765955845269683,0.10683143974798333,0.35681066007661166,0.14029290639243064,-0.1329357015591061,0.013078076574516328,0.01766759638021569,0.01714496618013859,0.005384153896957493,0.0,0.0,0.0,23834.0,17686.0,18854.0,19478.0,0.0,0.0,0.0
1.2360880374908447,0.12843342122371976,0.10612350037417302,0.3573126243794726,0.1446751278597585,-0.13566069576224432,0.035802608426499474,0.017846166952000562,0.0171145826015176,0.0051184118441773155,0.0,0.0,0.0,16676.0,23776.0,21699.0,20657.0,0.0,0.0,0.0
1.2415087223052979,0.12918926595130048,0.10542652704937562,0.3577257722838069,0.14840784278667674,-0.1379750078328091,0.05543469317002138,0.017993470101992683,0.017083355364591362,0.004895244529181371,0.0,0.0,0.0,16676.0,23776.0,21699.0,20657.0,0.0,0.0,0.0
1.2468609809875488,0.12993111799453402,0.10473562163908762,0.35805396067815815,0.1514626891113001,-0.13986521989096473,0.07176332840897662,0.01812518098803618,0.01701972196781109,0.004720970281234535,0.0,0.0,0.0,19176.0,18373.0,22637.0,18938.0,0.0,0.0,0.0
1.2521162033081055,0.13065940717698266,0.10404885071993121,0.35830230418543085,0.15384093606670624,-0.1413437111946875,0.08470920153396047,0.018256480587479904,0.016896979966677356,0.004587916455586972,0.0,0.0,0.0,19176.0,18373.0,22637.0,18938.0,0.0,0.0,0.0
1.2574708461761475,0.13137250643678522,0.10336382980218688,0.35847435871565747,0.15556221242682908,-0.14244188296631,0.09430335454520485,0.018389192476038662,0.016729882249115098,0.004469806083604657,0.0,0.0,0.0,16269.0,21221.0,21371.0,23390.0,0.0,0.0,0.0
1.262843370437622,0.13207185618485845,0.10267627617476005,0.35857350710817704,0.15665526847334096,-0.14320549087823536,0.10066226007322536,0.01850589705540367,0.01654731316014587,0.004342756562557091,0.0,0.0,0.0,16269.0,21221.0,21371.0,23390.0,0.0,0.0,0.0
1.2681324481964111,0.13275744169992337,0.1019879944643352,0.3586054969922295,0.1571584292262918,-0.14368873171143737,0.10396873138260011,0.018602902954107214,0.016366836022199703,0.004218460665712935,0.0,0.0,0.0,16269.0,21221.0,21371.0,23390.0,0.0,0.0,0.0
1.2735085487365723,0.13342724416927726,0.10130403379952788,0.35857864113587945,0.15711479013249338,-0.14393637175202068,0.1044625490204474,0.018695358466663706,0.016195632512975372,0.004112724291702981,0.0,0.0,0.0,22566.0,16355.0,19613.0,19842.0,0.0,0.0,0.0
1.2788162231445312,0.13408366694530982,0.10062447089335405,0.3585014729603828,0.15656915718568507,-0.1439762035310343,0.10243235015308501,0.018801123356756645,0.016026074366679265,0.004033102058122665,0.0,0.0,0.0,22566.0,16355.0,19613.0,19842.0,0.0,0.0,0.0
1.2841615676879883,0.13473205766830063,0.09994390105310799,0.35837899509997434,0.15557755937515513,-0.14383531474943018,0.09819891586435647,0.018929046246186094,0.015855809866870216,0.003971699882287283,0.0,0.0,0.0,20148.0,20525.0,17273.0,22963.0,0.0,0.0,0.0
1.2895336151123047,0.13537374902635446,0.09926088014945567,0.358215966324057,0.15421075003863113,-0.14355290255537143,0.09209380238429063,0.019057622986695045,0.015694022610658942,0.003909072581939933,0.0,0.0,0.0,20392.0,21363.0,17119.0,22071.0,0.0,0.0,0.0
1.2949364185333252,0.13601067276842024,0.09857689852996065,0.3580194974930527,0.15254473160626542,-0.1431710348077071,0.08444799651356667,0.01915202911346294,0.015537136061144883,0.00384930072286376,0.0,0.0,0.0,20392.0,21363.0,17119.0,22071.0,0.0,0.0,0.0
1.300227165222168,0.13664777683878376,0.09788991441245593,0.35779604207276816,0.15065824596000346,-0.14272616462947563,0.07558890649228636,0.019187248835438896,0.01538004316821825,0.0038053018165471403,0.0,0.0,0.0,21995.0,18862.0,18821.0,17319.0,0.0,0.0,0.0
1.3056044578552246,0.13728565241802088,0.09720032162561595,0.35755160254759183,0.14863300455635264,-0.1422513187139606,0.06583446587622256,0.019143966618440537,0.01521808278058223,0.003776058207888653,0.0,0.0,0.0,21995.0,18862.0,18821.0,17319.0,0.0,0.0,0.0
1.311034917831421,0.13792011987933367,0.096509353218572,0.35729072496695585,0.14653968089365832,-0.1417736328760083,0.05548462886879922,0.01901851917359149,0.015054079233839534,0.0037296137565094945,0.0,0.0,0.0,18147.0,23136.0,18602.0,20370.0,0.0,0.0,0.0
1.3164055347442627,0.1385500891717276,0.09581363123461084,0.3570139523003053,0.1444265603239952,-0.14131547477002607,0.04481013495179105,0.01881703166362164,0.014895410479959499,0.0036407300045997524,0.0,0.0,0.0,20028.0,18929.0,20334.0,17339.0,0.0,0.0,0.0
1.321866750717163,0.1391798528621092,0.09511080413842252,0.3567205793127649,0.14233045726098137,-0.14090305264012123,0.03404045246474523,0.018543816492382417,0.014737723007864042,0.00353474671575281,0.0,0.0,0.0,20028.0,18929.0,20334.0,17339.0,0.0,0.0,0.0
1.3272521495819092,0.13981102910828377,0.09440396444025484,0.35641264624063257,0.14029057791469926,-0.14056187009911303,0.023362750703392266,0.01821443138393038,0.014592502891200326,0.0034486233550302713,0.0,0.0,0.0,16054.0,21676.0,20572.0,20901.0,0.0,0.0,0.0
1.3325786590576172,0.14044419549237785,0.0936943682477693,0.35609374026973956,0.13834605856151808,-0.14030512902929138,0.012932594191491644,0.017848344811423486,0.014460636282666382,0.003388929027700586,0.0,0.0,0.0,16054.0,21676.0,20572.0,20901.0,0.0,0.0,0.0
1.3379580974578857,0.1410829520651648,0.09297786909742271,0.3557671677659723,0.13653319058189162,-0.14013991284534508,0.0028829511615854737,0.01745849894077427,0.014310760082669741,0.003334291758177759,0.0,0.0,0.0,16054.0,21676.0,20572.0,20901.0,0.0,0.0,0.0
1.3433609008789062,0.14172869619056974,0.09225431231814299,0.35543661582268166,0.13488828832284838,-0.14007783685789305,-0.006672739033361701,0.01705846378600054,0.014129328032799546,0.0032779162875979963,0.0,0.0,0.0,16942.0,21491.0,20082.0,20693.0,0.0,0.0,0.0
1.3486878871917725,0.14237826256285832,0.09152793726931496,0.3551039379457578,0.13344028847463246,-0.14012615587078117,-0.0156406906744489,0.01666803537108026,0.013931694919863367,0.0032211227226543017,0.0,0.0,0.0,16942.0,21491.0,20082.0,20693.0,0.0,0.0,0.0
1.3541889190673828,0.14302892816535456,0.09079896355818334,0.3547675876535653,0.132199510816361,-0.14027876098439956,-0.02395234823947342,0.01628889618197256,0.013742233000354258,0.0031607159570987376,0.0,0.0,0.0,18374.0,20792.0,18149.0,20725.0,0.0,0.0,0.0
1.3595972061157227,0.14368012906698785,0.0900636273704404,0.3544253590100378,0.13115945397290815,-0.14052743401159265,-0.03157118226300442,0.015920454778114216,0.01360649317596135,0.0030927443049815363,0.0,0.0,0.0,18374.0,20792.0,18149.0,20725.0,0.0,0.0,0.0
1.364917516708374,0.14432909944190697,0.08931927865485587,0.3540753520220964,0.13030312656643897,-0.14087450285330114,-0.03849201167117482,0.01558536660083534,0.013578211552198488,0.002994337001751295,0.0,0.0,0.0,18569.0,21359.0,16519.0,20997.0,0.0,0.0,0.0
1.3703534603118896,0.1449779815786364,0.08856553839031528,0.3537177308904368,0.1296084660169493,-0.14133011808492502,-0.04473263861718762,0.01526852009363398,0.013619459514932125,0.00286940321784733,0.0,0.0,0.0,22056.0,16696.0,17116.0,17730.0,0.0,0.0,0.0
1.3757376670837402,0.14563286545313642,0.08780310243211271,0.3533550936546992,0.12906265486189103,-0.14190300838016698,-0.05032126192987143,0.01492901268795625,0.013628359860217508,0.0027558267845542266,0.0,0.0,0.0,22056.0,16696.0,17116.0,17730.0,0.0,0.0,0.0
1.3810970783233643,0.14629213703253718,0.08703401174147334,0.3529892028904631,0.12866621632309871,-0.14259417848951972,-0.05528702279820867,0.014568910661604794,0.013583412334111845,0.002657017054288251,0.0,0.0,0.0,17307.0,20153.0,17584.0,20875.0,0.0,0.0,0.0
1.3864657878875732,0.14695371207452151,0.08625810617676592,0.35262079358422116,0.12841711975597303,-0.14339669180336076,-0.05965946437756178,0.014193758233294974,0.013519954057174809,0.0025500598297031503,0.0,0.0,0.0,17307.0,20153.0,17584.0,20875.0,0.0,0.0,0.0
1.3918814659118652,0.1476206193704226,0.08547382049111171,0.3522494886440992,0.12830741969032777,-0.14430235258865362,-0.06347223391128434,0.013774070099400359,0.013448110068650935,0.0024526632906032423,0.0,0.0,0.0,19806.0,16932.0,18363.0,17178.0,0.0,0.0,0.0
1.3972384929656982,0.14829358062731868,0.08468562149438051,0.35187560019632436,0.1283328674950933,-0.14530100697112283,-0.06676435989193437,0.013290534042728189,0.013354520300543689,0.0024140567940459383,0.0,0.0,0.0,19292.0,15730.0,19934.0,17241.0,0.0,0.0,0.0
1.4026553630828857,0.14896964566019752,0.08389960720115627,0.35149977360643975,0.12848875173537433,-0.14636753387703844,-0.06957765015559514,0.01275174348360249,0.013230230193108119,0.0024464383926291015,0.0,0.0,0.0,19292.0,15730.0,19934.0,17241.0,0.0,0.0,0.0
1.4082953929901123,0.14925791897382504,0.08345617464091953,0.35067228707305886,0.1283293421819145,-0.14708449511558783,-0.07245296004864465,0.012079680830072865,0.013186823773233701,0.0025007034249547554,0.0,0.0,0.0,15246.0,20126.0,19248.0,20247.0,0.0,0.0,0.0
1.4136638641357422,0.14885652782025055,0.08361599686181811,0.34904337648143646,0.12630012848590738,-0.1460749381517378,-0.07720611854213719,0.011209604179089864,0.013312697366608638,0.0025152000397601062,0.0,0.0,0.0,15246.0,20126.0,19248.0,20247.0,0.0,0.0,0.0
1.419025182723999,0.14831613963391407,0.08389407108827543,0.34724817656672835,0.12070554585344156,-0.14185684111514618,-0.08581953188649383,0.010280860211969136,0.01345504311493739,0.0024743656579608283,0.0,0.0,0.0,15701.0,20068.0,19114.0,19980.0,0.0,0.0,0.0
1.4243056774139404,0.1480816458968771,0.08390106817525234,0.3457963303754561,0.11164624886321442,-0.13453244725572905,-0.09820974941752501,0.00941613942630195,0.013496941159340671,0.0024116824959181937,0.0,0.0,0.0,19556.0,16357.0,19452.0,16319.0,0.0,0.0,0.0
1.429689645767212,0.14811602137093408,0.08367173853610702,0.34463854195457827,0.10083541545377459,-0.12561480338253977,-0.11244685793818329,0.008619307306028447,0.013464134705229301,0.0023724780729684853,0.0,0.0,0.0,19556.0,16357.0,19452.0,16319.0,0.0,0.0,0.0
1.435058355331421,0.14837806238616086,0.08323910643620769,0.34373135486016837,0.09004921344351802,-0.1166688198739418,-0.1265369359843899,0.007890896280978426,0.013394297944331678,0.0023458427678930377,0.0,0.0,0.0,16738.0,20312.0,16858.0,19836.0,0.0,0.0,0.0
